,categories,categoriesList,cc,city,country,id,lat,lng,name,postalCode,primary_category_id,primary_category_name,state
0,"[{'id': '4bf58dd8d48988d125941735', 'name': 'Tech Startup', 'pluralName': 'Tech Startups', 'shortName': 'Tech Startup', 'icon': {'prefix': 'https://ss3.4sqi.net/img/categories_v2/shops/technology_', 'suffix': '.png'}, 'primary': True}]",,FR,,France,4ef0655877c8053fbcd758f6,45.7872090427125,3.112005930613583,Almerys,,4bf58dd8d48988d125941735,Tech Startup,
1,"[{'id': '4bf58dd8d48988d125941735', 'name': 'Tech Startup', 'pluralName': 'Tech Startups', 'shortName': 'Tech Startup', 'icon': {'prefix': 'https://ss3.4sqi.net/img/categories_v2/shops/technology_', 'suffix': '.png'}, 'primary': True}]",,FR,,France,4f50b763e4b002b4786b8736,45.76114081608376,3.0903126852748386,Bureau d'OCP,,4bf58dd8d48988d125941735,Tech Startup,
2,"[{'id': '4bf58dd8d48988d125941735', 'name': 'Tech Startup', 'pluralName': 'Tech Startups', 'shortName': 'Tech Startup', 'icon': {'prefix': 'https://ss3.4sqi.net/img/categories_v2/shops/technology_', 'suffix': '.png'}, 'primary': True}]",,FR,,France,4eeb7cb58231035d6c5ce8b9,45.759132931388045,3.129971416647986,Prizee,63000,4bf58dd8d48988d125941735,Tech Startup,Auvergne
3,"[{'id': '4bf58dd8d48988d125941735', 'name': 'Tech Startup', 'pluralName': 'Tech Startups', 'shortName': 'Tech Startup', 'icon': {'prefix': 'https://ss3.4sqi.net/img/categories_v2/shops/technology_', 'suffix': '.png'}, 'primary': True}]",,FR,,France,4fb2139fe4b0769a3acd52e0,45.76903487899891,3.129073580171783,Next Media,,4bf58dd8d48988d125941735,Tech Startup,
4,"[{'id': '4bf58dd8d48988d125941735', 'name': 'Tech Startup', 'pluralName': 'Tech Startups', 'shortName': 'Tech Startup', 'icon': {'prefix': 'https://ss3.4sqi.net/img/categories_v2/shops/technology_', 'suffix': '.png'}, 'primary': True}]",,FR,,France,4e4308597d8b2eefb3b29787,45.775353694474205,3.0953084814240306,Echodia,63000,4bf58dd8d48988d125941735,Tech Startup,Auvergne
5,"[{'id': '4bf58dd8d48988d125941735', 'name': 'Tech Startup', 'pluralName': 'Tech Startups', 'shortName': 'Tech Startup', 'icon': {'prefix': 'https://ss3.4sqi.net/img/categories_v2/shops/technology_', 'suffix': '.png'}, 'primary': True}]",,FR,,France,500ab3c8e4b03215e611cca7,45.76676932518036,3.1411515337682787,IBM,,4bf58dd8d48988d125941735,Tech Startup,
6,"[{'id': '4bf58dd8d48988d125941735', 'name': 'Tech Startup', 'pluralName': 'Tech Startups', 'shortName': 'Tech Startup', 'icon': {'prefix': 'https://ss3.4sqi.net/img/categories_v2/shops/technology_', 'suffix': '.png'}, 'primary': True}]",,FR,,France,4fe1f2b9e4b05dcdf7ec1167,45.757484436035156,3.1298670768737793,KF Informatique,,4bf58dd8d48988d125941735,Tech Startup,
7,"[{'id': '4bf58dd8d48988d125941735', 'name': 'Tech Startup', 'pluralName': 'Tech Startups', 'shortName': 'Tech Startup', 'icon': {'prefix': 'https://ss3.4sqi.net/img/categories_v2/shops/technology_', 'suffix': '.png'}, 'primary': True}]",,FR,,France,4fa3c9d4e4b017a5deadceb5,45.76113510131836,3.09053111076355,Salon Sar,,4bf58dd8d48988d125941735,Tech Startup,
8,"[{'id': '4bf58dd8d48988d125941735', 'name': 'Tech Startup', 'pluralName': 'Tech Startups', 'shortName': 'Tech Startup', 'icon': {'prefix': 'https://ss3.4sqi.net/img/categories_v2/shops/technology_', 'suffix': '.png'}, 'primary': True}]",,FR,,France,503c95a1e4b00777f04085ba,45.759822223043464,3.128615379230259,Blue Networks Technologies,63000,4bf58dd8d48988d125941735,Tech Startup,Auvergne
9,"[{'id': '4bf58dd8d48988d125941735', 'name': 'Tech Startup', 'pluralName': 'Tech Startups', 'shortName': 'Tech Startup', 'icon': {'prefix': 'https://ss3.4sqi.net/img/categories_v2/shops/technology_', 'suffix': '.png'}, 'primary': True}]",,FR,,France,509b8ccde4b0dd30ee06ec74,45.777538,3.085758,ICom Business Services,63000,4bf58dd8d48988d125941735,Tech Startup,Auvergne
10,"[{'id': '4bf58dd8d48988d125941735', 'name': 'Tech Startup', 'pluralName': 'Tech Startups', 'shortName': 'Tech Startup', 'icon': {'prefix': 'https://ss3.4sqi.net/img/categories_v2/shops/technology_', 'suffix': '.png'}, 'primary': True}]",,FR,,France,51dd4952498e18bac42e7419,45.783897399902344,3.1307642459869385,IBO,,4bf58dd8d48988d125941735,Tech Startup,
11,"[{'id': '4bf58dd8d48988d125941735', 'name': 'Tech Startup', 'pluralName': 'Tech Startups', 'shortName': 'Tech Startup', 'icon': {'prefix': 'https://ss3.4sqi.net/img/categories_v2/shops/technology_', 'suffix': '.png'}, 'primary': True}]",,FR,,France,514850e583025aaf13e09c51,45.78091046158073,3.0799591541290283,Les Pirates de Clermont-Ferrand,63000,4bf58dd8d48988d125941735,Tech Startup,Auvergne
12,"[{'id': '4bf58dd8d48988d125941735', 'name': 'Tech Startup', 'pluralName': 'Tech Startups', 'shortName': 'Tech Startup', 'icon': {'prefix': 'https://ss3.4sqi.net/img/categories_v2/shops/technology_', 'suffix': '.png'}, 'primary': True}]",,FR,,France,4f4f6648e4b0dff6fa84c61b,45.77595074730121,3.0870777004662093,Io Prod Ip Leanware,,4bf58dd8d48988d125941735,Tech Startup,
13,"[{'id': '4bf58dd8d48988d125941735', 'name': 'Tech Startup', 'pluralName': 'Tech Startups', 'shortName': 'Tech Startup', 'icon': {'prefix': 'https://ss3.4sqi.net/img/categories_v2/shops/technology_', 'suffix': '.png'}, 'primary': True}]",,FR,,France,506044dfe4b0351d97ec5af2,45.77686321309087,3.0819779307015653,DBM,63000,4bf58dd8d48988d125941735,Tech Startup,Auvergne
14,"[{'id': '4bf58dd8d48988d125941735', 'name': 'Tech Startup', 'pluralName': 'Tech Startups', 'shortName': 'Tech Startup', 'icon': {'prefix': 'https://ss3.4sqi.net/img/categories_v2/shops/technology_', 'suffix': '.png'}, 'primary': True}]",,FR,,France,5110aafce4b0ef90aa75bd40,45.75911151793956,3.1301608901482356,Modis,,4bf58dd8d48988d125941735,Tech Startup,
15,"[{'id': '4bf58dd8d48988d125941735', 'name': 'Tech Startup', 'pluralName': 'Tech Startups', 'shortName': 'Tech Startup', 'icon': {'prefix': 'https://ss3.4sqi.net/img/categories_v2/shops/technology_', 'suffix': '.png'}, 'primary': True}]",,FR,,France,52ce783811d215a1692f179b,45.7791633605957,3.08223032951355,OpenStudio,,4bf58dd8d48988d125941735,Tech Startup,Auvergne
16,"[{'id': '4bf58dd8d48988d125941735', 'name': 'Tech Startup', 'pluralName': 'Tech Startups', 'shortName': 'Tech Startup', 'icon': {'prefix': 'https://ss3.4sqi.net/img/categories_v2/shops/technology_', 'suffix': '.png'}, 'primary': True}]",,FR,,France,4fe95d74e4b006395f1e808b,45.75845718383789,3.1269490718841553,o2switch,,4bf58dd8d48988d125941735,Tech Startup,Auvergne
17,"[{'id': '4bf58dd8d48988d125941735', 'name': 'Tech Startup', 'pluralName': 'Tech Startups', 'shortName': 'Tech Startup', 'icon': {'prefix': 'https://ss3.4sqi.net/img/categories_v2/shops/technology_', 'suffix': '.png'}, 'primary': True}]",,FR,,France,57c8242e38fa3483dcffdde9,45.763474,3.13729,Pépinière d'Entreprises de La Pardieu,63000,4bf58dd8d48988d125941735,Tech Startup,Auvergne
18,"[{'id': '4bf58dd8d48988d125941735', 'name': 'Tech Startup', 'pluralName': 'Tech Startups', 'shortName': 'Tech Startup', 'icon': {'prefix': 'https://ss3.4sqi.net/img/categories_v2/shops/technology_', 'suffix': '.png'}, 'primary': True}]",,FR,,France,4df9b26b2271faf21fed4871,45.75909896168119,3.1329930392701373,Capgemini Technology Services,63170,4bf58dd8d48988d125941735,Tech Startup,Auvergne
19,"[{'id': '4bf58dd8d48988d125941735', 'name': 'Tech Startup', 'pluralName': 'Tech Startups', 'shortName': 'Tech Startup', 'icon': {'prefix': 'https://ss3.4sqi.net/img/categories_v2/shops/technology_', 'suffix': '.png'}, 'primary': True}]",,FR,,France,4bf76c26c07c9c7476a4bbef,45.75906899820501,3.1314468383789062,ResoLv,63170,4bf58dd8d48988d125941735,Tech Startup,Auvergne
20,"[{'id': '4bf58dd8d48988d125941735', 'name': 'Tech Startup', 'pluralName': 'Tech Startups', 'shortName': 'Tech Startup', 'icon': {'prefix': 'https://ss3.4sqi.net/img/categories_v2/shops/technology_', 'suffix': '.png'}, 'primary': True}]",,FR,,France,4f730c28e4b0601c708f0517,45.779861,3.090806,Ouvrages,,4bf58dd8d48988d125941735,Tech Startup,
21,"[{'id': '4bf58dd8d48988d125941735', 'name': 'Tech Startup', 'pluralName': 'Tech Startups', 'shortName': 'Tech Startup', 'icon': {'prefix': 'https://ss3.4sqi.net/img/categories_v2/shops/technology_', 'suffix': '.png'}, 'primary': True}]",,FR,,France,4c8a00a31107b7132ad8843a,45.7787329196991,3.0878331749744192,Aerolitec Office,63000,4bf58dd8d48988d125941735,Tech Startup,Auvergne
22,"[{'id': '4bf58dd8d48988d125941735', 'name': 'Tech Startup', 'pluralName': 'Tech Startups', 'shortName': 'Tech Startup', 'icon': {'prefix': 'https://ss3.4sqi.net/img/categories_v2/shops/technology_', 'suffix': '.png'}, 'primary': True}]",,FR,,France,4f4f3a61e4b0dff6fa58a811,45.759898091597286,3.131585699255299,Carpe Hora,63000,4bf58dd8d48988d125941735,Tech Startup,Auvergne
23,"[{'id': '4bf58dd8d48988d125941735', 'name': 'Tech Startup', 'pluralName': 'Tech Startups', 'shortName': 'Tech Startup', 'icon': {'prefix': 'https://ss3.4sqi.net/img/categories_v2/shops/technology_', 'suffix': '.png'}, 'primary': True}]",,FR,,France,4f66e48977162794965bd178,45.750166027788694,3.0865660969005755,Etape Suivante,63110,4bf58dd8d48988d125941735,Tech Startup,Auvergne
24,"[{'id': '4bf58dd8d48988d125941735', 'name': 'Tech Startup', 'pluralName': 'Tech Startups', 'shortName': 'Tech Startup', 'icon': {'prefix': 'https://ss3.4sqi.net/img/categories_v2/shops/technology_', 'suffix': '.png'}, 'primary': True}]",,FR,,France,524287ba498eee16030beac6,45.7613525390625,3.0899782180786133,Pôle Innovation- Euromaster,,4bf58dd8d48988d125941735,Tech Startup,
25,"[{'id': '4bf58dd8d48988d125941735', 'name': 'Tech Startup', 'pluralName': 'Tech Startups', 'shortName': 'Tech Startup', 'icon': {'prefix': 'https://ss3.4sqi.net/img/categories_v2/shops/technology_', 'suffix': '.png'}, 'primary': True}]",,FR,,France,53a98fe7498e6e4f4e3b249d,45.78670078306181,3.063226598001045,Etamin Studio,,4bf58dd8d48988d125941735,Tech Startup,
26,"[{'id': '4bf58dd8d48988d125941735', 'name': 'Tech Startup', 'pluralName': 'Tech Startups', 'shortName': 'Tech Startup', 'icon': {'prefix': 'https://ss3.4sqi.net/img/categories_v2/shops/technology_', 'suffix': '.png'}, 'primary': True}]",,FR,,France,4f916cf2e4b023d6c70205b4,45.78194803546984,3.113150910553191,Agemios,,4bf58dd8d48988d125941735,Tech Startup,
27,"[{'id': '4bf58dd8d48988d125941735', 'name': 'Tech Startup', 'pluralName': 'Tech Startups', 'shortName': 'Tech Startup', 'icon': {'prefix': 'https://ss3.4sqi.net/img/categories_v2/shops/technology_', 'suffix': '.png'}, 'primary': True}]",,FR,,France,4f718337e4b02fc4360d1e6b,45.77396774291992,3.0766983032226562,investir Immobilier,,4bf58dd8d48988d125941735,Tech Startup,
28,"[{'id': '4bf58dd8d48988d125941735', 'name': 'Tech Startup', 'pluralName': 'Tech Startups', 'shortName': 'Tech Startup', 'icon': {'prefix': 'https://ss3.4sqi.net/img/categories_v2/shops/technology_', 'suffix': '.png'}, 'primary': True}]",,FR,,France,51c15686498e2bd1d854ef23,45.774993896484375,3.081139087677002,DBM De Bussac Multimédia,,4bf58dd8d48988d125941735,Tech Startup,
29,"[{'id': '4bf58dd8d48988d125941735', 'name': 'Tech Startup', 'pluralName': 'Tech Startups', 'shortName': 'Tech Startup', 'icon': {'prefix': 'https://ss3.4sqi.net/img/categories_v2/shops/technology_', 'suffix': '.png'}, 'primary': True}]",,FR,,France,4c7a740f2d3ba143564191d0,45.78094507602284,3.0760339964889103,Milf Workshop,,4bf58dd8d48988d125941735,Tech Startup,
30,"[{'id': '4bf58dd8d48988d125941735', 'name': 'Tech Startup', 'pluralName': 'Tech Startups', 'shortName': 'Tech Startup', 'icon': {'prefix': 'https://ss3.4sqi.net/img/categories_v2/shops/technology_', 'suffix': '.png'}, 'primary': True}]",,FR,,France,4e0876c145ddb2875c507ef3,45.77933353774127,3.086416572332382,Robertson,,4bf58dd8d48988d125941735,Tech Startup,Auvergne
31,"[{'id': '4bf58dd8d48988d125941735', 'name': 'Tech Startup', 'pluralName': 'Tech Startups', 'shortName': 'Tech Startup', 'icon': {'prefix': 'https://ss3.4sqi.net/img/categories_v2/shops/technology_', 'suffix': '.png'}, 'primary': True}]",,FR,,France,4be7ce15a117b713315681c8,45.78197451922425,3.1111673619292897,Octolys,63000,4bf58dd8d48988d125941735,Tech Startup,Auvergne
0,"[{'id': '4bf58dd8d48988d125941735', 'name': 'Tech Startup', 'pluralName': 'Tech Startups', 'shortName': 'Tech Startup', 'icon': {'prefix': 'https://ss3.4sqi.net/img/categories_v2/shops/technology_', 'suffix': '.png'}, 'primary': True}]",,FR,,France,507f4d70e4b058f60a8e9e6a,45.786129639394055,3.683099915108348,Eur'Net ( VirusLab ),63120,4bf58dd8d48988d125941735,Tech Startup,Auvergne
0,"[{'id': '4bf58dd8d48988d125941735', 'name': 'Tech Startup', 'pluralName': 'Tech Startups', 'shortName': 'Tech Startup', 'icon': {'prefix': 'https://ss3.4sqi.net/img/categories_v2/shops/technology_', 'suffix': '.png'}, 'primary': True}]",,FR,,France,5067f45be4b0bb47b26ddaec,46.133928,3.422584,CD Convert,,4bf58dd8d48988d125941735,Tech Startup,Auvergne
1,"[{'id': '4bf58dd8d48988d125941735', 'name': 'Tech Startup', 'pluralName': 'Tech Startups', 'shortName': 'Tech Startup', 'icon': {'prefix': 'https://ss3.4sqi.net/img/categories_v2/shops/technology_', 'suffix': '.png'}, 'primary': True}]",,FR,,France,56175ccc498e0e4ac5d1bc25,46.129794,3.430429,TPZ / Whisperies,03200,4bf58dd8d48988d125941735,Tech Startup,Auvergne
0,"[{'id': '4bf58dd8d48988d125941735', 'name': 'Tech Startup', 'pluralName': 'Tech Startups', 'shortName': 'Tech Startup', 'icon': {'prefix': 'https://ss3.4sqi.net/img/categories_v2/shops/technology_', 'suffix': '.png'}, 'primary': True}]",,FR,,France,56448480498eb332a4faeede,45.903167724609375,3.123685598373413,ITlink-ipsis,,4bf58dd8d48988d125941735,Tech Startup,
1,"[{'id': '4bf58dd8d48988d125941735', 'name': 'Tech Startup', 'pluralName': 'Tech Startups', 'shortName': 'Tech Startup', 'icon': {'prefix': 'https://ss3.4sqi.net/img/categories_v2/shops/technology_', 'suffix': '.png'}, 'primary': True}]",,FR,,France,5644840f498eee9ca225bc0d,45.90315246582031,3.1236867904663086,ITlink-Ipsis,,4bf58dd8d48988d125941735,Tech Startup,
0,"[{'id': '4bf58dd8d48988d125941735', 'name': 'Tech Startup', 'pluralName': 'Tech Startups', 'shortName': 'Tech Startup', 'icon': {'prefix': 'https://ss3.4sqi.net/img/categories_v2/shops/technology_', 'suffix': '.png'}, 'primary': True}]",,FR,,France,4ee5f0c30aaf893951335411,45.54213543030942,3.2485726448084775,Ip Leanware,,4bf58dd8d48988d125941735,Tech Startup,
0,"[{'id': '4bf58dd8d48988d125941735', 'name': 'Tech Startup', 'pluralName': 'Tech Startups', 'shortName': 'Tech Startup', 'icon': {'prefix': 'https://ss3.4sqi.net/img/categories_v2/shops/technology_', 'suffix': '.png'}, 'primary': True}]",,FR,,France,4c1f2a43920076b0af5bc4e9,45.743481516838074,3.171004056930542,Elanz Centre,63800,4bf58dd8d48988d125941735,Tech Startup,Auvergne
1,"[{'id': '4bf58dd8d48988d125941735', 'name': 'Tech Startup', 'pluralName': 'Tech Startups', 'shortName': 'Tech Startup', 'icon': {'prefix': 'https://ss3.4sqi.net/img/categories_v2/shops/technology_', 'suffix': '.png'}, 'primary': True}]",,FR,,France,4d9efdab47ad3704b70f46e5,45.75947313,3.14509355,Harvest,63000,4bf58dd8d48988d125941735,Tech Startup,Auvergne
0,"[{'id': '4bf58dd8d48988d125941735', 'name': 'Tech Startup', 'pluralName': 'Tech Startups', 'shortName': 'Tech Startup', 'icon': {'prefix': 'https://ss3.4sqi.net/img/categories_v2/shops/technology_', 'suffix': '.png'}, 'primary': True}]",,FR,,France,52386f8f7e489705bf32f8bd,45.982366161749326,3.512706756591797,DevInvent,63290,4bf58dd8d48988d125941735,Tech Startup,Auvergne
0,"[{'id': '4bf58dd8d48988d125941735', 'name': 'Tech Startup', 'pluralName': 'Tech Startups', 'shortName': 'Tech Startup', 'icon': {'prefix': 'https://ss3.4sqi.net/img/categories_v2/shops/technology_', 'suffix': '.png'}, 'primary': True}]",,FR,,France,4f997138e4b031f829d1525e,45.83715642288638,3.130941846686528,Picture Organic Clothing,,4bf58dd8d48988d125941735,Tech Startup,Auvergne
0,"[{'id': '4bf58dd8d48988d174941735', 'name': 'Coworking Space', 'pluralName': 'Coworking Spaces', 'shortName': 'Coworking Space', 'icon': {'prefix': 'https://ss3.4sqi.net/img/categories_v2/building/office_coworkingspace_', 'suffix': '.png'}, 'primary': True}]",,FR,,France,525838e911d24bbc1aa00462,45.78819990288212,3.0996713894341856,Pépinière De Mai,,4bf58dd8d48988d174941735,Coworking Space,
1,"[{'id': '4bf58dd8d48988d174941735', 'name': 'Coworking Space', 'pluralName': 'Coworking Spaces', 'shortName': 'Coworking Space', 'icon': {'prefix': 'https://ss3.4sqi.net/img/categories_v2/building/office_coworkingspace_', 'suffix': '.png'}, 'primary': True}]",,FR,,France,507d3ef9e4b0b250d6f100b5,45.76588,3.056661,Agence Wa,,4bf58dd8d48988d174941735,Coworking Space,Auvergne
2,"[{'id': '4bf58dd8d48988d174941735', 'name': 'Coworking Space', 'pluralName': 'Coworking Spaces', 'shortName': 'Coworking Space', 'icon': {'prefix': 'https://ss3.4sqi.net/img/categories_v2/building/office_coworkingspace_', 'suffix': '.png'}, 'primary': True}]",,FR,,France,4bac7b20f964a5200bf73ae3,45.77925684161297,3.081965446472168,debussac multimédia,63000,4bf58dd8d48988d174941735,Coworking Space,Auvergne
3,"[{'id': '4bf58dd8d48988d174941735', 'name': 'Coworking Space', 'pluralName': 'Coworking Spaces', 'shortName': 'Coworking Space', 'icon': {'prefix': 'https://ss3.4sqi.net/img/categories_v2/building/office_coworkingspace_', 'suffix': '.png'}, 'primary': True}]",,FR,,France,4bdac62fc79cc9280aa57fe9,45.78664911512308,3.137669563293457,Ajilon It Consulting,63100,4bf58dd8d48988d174941735,Coworking Space,Auvergne
4,"[{'id': '4bf58dd8d48988d174941735', 'name': 'Coworking Space', 'pluralName': 'Coworking Spaces', 'shortName': 'Coworking Space', 'icon': {'prefix': 'https://ss3.4sqi.net/img/categories_v2/building/office_coworkingspace_', 'suffix': '.png'}, 'primary': True}]",,FR,,France,4e5c9db688775cde7b464602,45.742041170241485,3.092029094696045,ECLECTIC AUVERGNE,France,4bf58dd8d48988d174941735,Coworking Space,Auvergne
5,"[{'id': '4bf58dd8d48988d174941735', 'name': 'Coworking Space', 'pluralName': 'Coworking Spaces', 'shortName': 'Coworking Space', 'icon': {'prefix': 'https://ss3.4sqi.net/img/categories_v2/building/office_coworkingspace_', 'suffix': '.png'}, 'primary': True}]",,FR,,France,4fdeda06e4b0b19233c990d1,45.7794855278101,3.090282603318257,Mission Des Relations Internationales,,4bf58dd8d48988d174941735,Coworking Space,Auvergne
6,"[{'id': '4bf58dd8d48988d174941735', 'name': 'Coworking Space', 'pluralName': 'Coworking Spaces', 'shortName': 'Coworking Space', 'icon': {'prefix': 'https://ss3.4sqi.net/img/categories_v2/building/office_coworkingspace_', 'suffix': '.png'}, 'primary': True}]",,FR,,France,4e4a22c0483b16676e3ae24c,45.777353800309754,3.095945432345913,Matmut,,4bf58dd8d48988d174941735,Coworking Space,Auvergne
7,"[{'id': '4bf58dd8d48988d174941735', 'name': 'Coworking Space', 'pluralName': 'Coworking Spaces', 'shortName': 'Coworking Space', 'icon': {'prefix': 'https://ss3.4sqi.net/img/categories_v2/building/office_coworkingspace_', 'suffix': '.png'}, 'primary': True}]",,FR,,France,4e9fcd7bcc21b2fa8e7e35d1,45.7670288993772,3.106602546567528,Mission Locale,,4bf58dd8d48988d174941735,Coworking Space,
8,"[{'id': '4bf58dd8d48988d174941735', 'name': 'Coworking Space', 'pluralName': 'Coworking Spaces', 'shortName': 'Coworking Space', 'icon': {'prefix': 'https://ss3.4sqi.net/img/categories_v2/building/office_coworkingspace_', 'suffix': '.png'}, 'primary': True}]",,FR,,France,4fa0d35ce4b0c33ec64b256a,45.78000318598367,3.120585381331255,Macif,,4bf58dd8d48988d174941735,Coworking Space,
9,"[{'id': '4bf58dd8d48988d174941735', 'name': 'Coworking Space', 'pluralName': 'Coworking Spaces', 'shortName': 'Coworking Space', 'icon': {'prefix': 'https://ss3.4sqi.net/img/categories_v2/building/office_coworkingspace_', 'suffix': '.png'}, 'primary': True}]",,FR,,France,4e1bf5ac227161264139c197,45.77909851074219,3.087944984436035,Local19,,4bf58dd8d48988d174941735,Coworking Space,
10,"[{'id': '4bf58dd8d48988d174941735', 'name': 'Coworking Space', 'pluralName': 'Coworking Spaces', 'shortName': 'Coworking Space', 'icon': {'prefix': 'https://ss3.4sqi.net/img/categories_v2/building/office_coworkingspace_', 'suffix': '.png'}, 'primary': True}]",,FR,,France,4dfb1b40d164f73de7cbee71,45.779338,3.087807,Local 19,,4bf58dd8d48988d174941735,Coworking Space,Auvergne
11,"[{'id': '4bf58dd8d48988d113951735', 'name': 'Gas Station', 'pluralName': 'Gas Stations', 'shortName': 'Gas Station', 'icon': {'prefix': 'https://ss3.4sqi.net/img/categories_v2/shops/gas_', 'suffix': '.png'}, 'primary': True}]",,FR,,France,5007c25ee4b0fe3f53c8efd1,45.80677369,3.10960522,Total,63100,4bf58dd8d48988d113951735,Gas Station,Auvergne-Rhône-Alpes
12,"[{'id': '4bf58dd8d48988d174941735', 'name': 'Coworking Space', 'pluralName': 'Coworking Spaces', 'shortName': 'Coworking Space', 'icon': {'prefix': 'https://ss3.4sqi.net/img/categories_v2/building/office_coworkingspace_', 'suffix': '.png'}, 'primary': True}]",,FR,,France,5564a646498ef47e028a4bb6,45.77869601266626,3.0842605282416145,Epicentre Factory,63000,4bf58dd8d48988d174941735,Coworking Space,Auvergne
13,"[{'id': '4bf58dd8d48988d174941735', 'name': 'Coworking Space', 'pluralName': 'Coworking Spaces', 'shortName': 'Coworking Space', 'icon': {'prefix': 'https://ss3.4sqi.net/img/categories_v2/building/office_coworkingspace_', 'suffix': '.png'}, 'primary': True}]",,FR,,France,4e25754314956d36077c5143,45.782063,3.073036,Chambre de Métiers et de l'Artisanat,,4bf58dd8d48988d174941735,Coworking Space,Auvergne
15,"[{'id': '4bf58dd8d48988d174941735', 'name': 'Coworking Space', 'pluralName': 'Coworking Spaces', 'shortName': 'Coworking Space', 'icon': {'prefix': 'https://ss3.4sqi.net/img/categories_v2/building/office_coworkingspace_', 'suffix': '.png'}, 'primary': True}]",,FR,,France,5245397311d2255b23d46aae,45.761129,3.090281,Pôle Achats,,4bf58dd8d48988d174941735,Coworking Space,
16,"[{'id': '4bf58dd8d48988d174941735', 'name': 'Coworking Space', 'pluralName': 'Coworking Spaces', 'shortName': 'Coworking Space', 'icon': {'prefix': 'https://ss3.4sqi.net/img/categories_v2/building/office_coworkingspace_', 'suffix': '.png'}, 'primary': True}]",,FR,,France,4ff6c466e4b0484032f87d90,45.762443375474234,3.135801535583714,credit agricole service telephone,,4bf58dd8d48988d174941735,Coworking Space,
17,"[{'id': '4bf58dd8d48988d174941735', 'name': 'Coworking Space', 'pluralName': 'Coworking Spaces', 'shortName': 'Coworking Space', 'icon': {'prefix': 'https://ss3.4sqi.net/img/categories_v2/building/office_coworkingspace_', 'suffix': '.png'}, 'primary': True}]",,FR,,France,519de003498ede78e463680f,45.778767,3.083016,Epicentre Cowork,,4bf58dd8d48988d174941735,Coworking Space,
18,"[{'id': '4bf58dd8d48988d174941735', 'name': 'Coworking Space', 'pluralName': 'Coworking Spaces', 'shortName': 'Coworking Space', 'icon': {'prefix': 'https://ss3.4sqi.net/img/categories_v2/building/office_coworkingspace_', 'suffix': '.png'}, 'primary': True}]",,FR,,France,4e770e2bc65bb91db50ec66f,45.77961225,3.08186488,ANCI Auvergne Limousin,,4bf58dd8d48988d174941735,Coworking Space,
0,"[{'id': '4bf58dd8d48988d113951735', 'name': 'Gas Station', 'pluralName': 'Gas Stations', 'shortName': 'Gas Station', 'icon': {'prefix': 'https://ss3.4sqi.net/img/categories_v2/shops/gas_', 'suffix': '.png'}, 'primary': True}]",,FR,,France,4e47c082b61c03d0cd1d509f,46.11775121,3.41103763,Total,03700,4bf58dd8d48988d113951735,Gas Station,Auvergne-Rhône-Alpes
1,"[{'id': '4bf58dd8d48988d113951735', 'name': 'Gas Station', 'pluralName': 'Gas Stations', 'shortName': 'Gas Station', 'icon': {'prefix': 'https://ss3.4sqi.net/img/categories_v2/shops/gas_', 'suffix': '.png'}, 'primary': True}]",,FR,,France,59a1ec0658002c3c1f4cc51b,46.11593534,3.4378489,Total,03200,4bf58dd8d48988d113951735,Gas Station,Auvergne-Rhône-Alpes
0,"[{'id': '4d954afda243a5684865b473', 'name': 'Optical Shop', 'pluralName': 'Optical Shops', 'shortName': 'Optical', 'icon': {'prefix': 'https://ss3.4sqi.net/img/categories_v2/building/medical_opticalshop_', 'suffix': '.png'}, 'primary': True}]",,FR,,France,59f37c7bb6eedb4ceeb8b2cd,45.8937488,3.1142328,OPTICIEN GIROD,63200,4d954afda243a5684865b473,Optical Shop,Auvergne-Rhône-Alpes
0,"[{'id': '4bf58dd8d48988d174941735', 'name': 'Coworking Space', 'pluralName': 'Coworking Spaces', 'shortName': 'Coworking Space', 'icon': {'prefix': 'https://ss3.4sqi.net/img/categories_v2/building/office_coworkingspace_', 'suffix': '.png'}, 'primary': True}]",,FR,,France,56406c37cd10564a83f239b7,45.8333740234375,3.21915340423584,Bakirci Memet Usta,63200,4bf58dd8d48988d174941735,Coworking Space,
1,"[{'id': '4bf58dd8d48988d174941735', 'name': 'Coworking Space', 'pluralName': 'Coworking Spaces', 'shortName': 'Coworking Space', 'icon': {'prefix': 'https://ss3.4sqi.net/img/categories_v2/building/office_coworkingspace_', 'suffix': '.png'}, 'primary': True}]",,FR,,France,4ff28d38e4b0964c5ebd05b4,45.84097390985823,3.120960703757534,Groupe Titel Z.I Ladoux,,4bf58dd8d48988d174941735,Coworking Space,Auvergne
2,"[{'id': '4bf58dd8d48988d174941735', 'name': 'Coworking Space', 'pluralName': 'Coworking Spaces', 'shortName': 'Coworking Space', 'icon': {'prefix': 'https://ss3.4sqi.net/img/categories_v2/building/office_coworkingspace_', 'suffix': '.png'}, 'primary': True}]",,FR,,France,4ff40370e4b0fe7c1fb90f60,45.839368648499736,3.1581697188310836,amincissement Laurand,,4bf58dd8d48988d174941735,Coworking Space,Auvergne
0,"[{'id': '58daa1558bbb0b01f18ec1f1', 'name': 'Insurance Office', 'pluralName': 'Insurance Offices', 'shortName': 'Insurance Office', 'icon': {'prefix': 'https://ss3.4sqi.net/img/categories_v2/shops/financial_', 'suffix': '.png'}, 'primary': True}]",,FR,,France,5a0d8fc559c4235dc1464e73,45.76575295,3.08258168,AXA Assurance Brv Conseils,63000,58daa1558bbb0b01f18ec1f1,Insurance Office,Auvergne-Rhône-Alpes
1,"[{'id': '58daa1558bbb0b01f18ec1f1', 'name': 'Insurance Office', 'pluralName': 'Insurance Offices', 'shortName': 'Insurance Office', 'icon': {'prefix': 'https://ss3.4sqi.net/img/categories_v2/shops/financial_', 'suffix': '.png'}, 'primary': True}]",,FR,,France,5a10cbf2cf72a0416c2a968f,45.77516063,3.08020901,AXA Assurance Boyer Laurent,63000,58daa1558bbb0b01f18ec1f1,Insurance Office,Auvergne-Rhône-Alpes
2,"[{'id': '58daa1558bbb0b01f18ec1f1', 'name': 'Insurance Office', 'pluralName': 'Insurance Offices', 'shortName': 'Insurance Office', 'icon': {'prefix': 'https://ss3.4sqi.net/img/categories_v2/shops/financial_', 'suffix': '.png'}, 'primary': True}]",,FR,,France,5a0de427dff81533d177a7b0,45.75114084,3.13226221,AXA Assurance VERDIER LECOMTE,63170,58daa1558bbb0b01f18ec1f1,Insurance Office,Auvergne-Rhône-Alpes
3,"[{'id': '58daa1558bbb0b01f18ec1f1', 'name': 'Insurance Office', 'pluralName': 'Insurance Offices', 'shortName': 'Insurance Office', 'icon': {'prefix': 'https://ss3.4sqi.net/img/categories_v2/shops/financial_', 'suffix': '.png'}, 'primary': True}]",,FR,,France,5b522caac5b11c002c0ab9d8,45.81161787,3.10368767,AXA Assurance Nassim Mougamadourafircke,63100,58daa1558bbb0b01f18ec1f1,Insurance Office,Auvergne-Rhône-Alpes
4,"[{'id': '58daa1558bbb0b01f18ec1f1', 'name': 'Insurance Office', 'pluralName': 'Insurance Offices', 'shortName': 'Insurance Office', 'icon': {'prefix': 'https://ss3.4sqi.net/img/categories_v2/shops/financial_', 'suffix': '.png'}, 'primary': True}]",,FR,,France,5c69833689b06a002cb5dde3,45.7807121,3.07910616,MMA CLERMONT GAILLARD,63000,58daa1558bbb0b01f18ec1f1,Insurance Office,Auvergne-Rhône-Alpes
5,"[{'id': '58daa1558bbb0b01f18ec1f1', 'name': 'Insurance Office', 'pluralName': 'Insurance Offices', 'shortName': 'Insurance Office', 'icon': {'prefix': 'https://ss3.4sqi.net/img/categories_v2/shops/financial_', 'suffix': '.png'}, 'primary': True}]",,FR,,France,5a10bc9e1b0ea50e67624317,45.74969075,3.11007726,AXA Assurance ANTOINE LEVASSEUR,63170,58daa1558bbb0b01f18ec1f1,Insurance Office,Auvergne-Rhône-Alpes
6,"[{'id': '58daa1558bbb0b01f18ec1f1', 'name': 'Insurance Office', 'pluralName': 'Insurance Offices', 'shortName': 'Insurance Office', 'icon': {'prefix': 'https://ss3.4sqi.net/img/categories_v2/shops/financial_', 'suffix': '.png'}, 'primary': True}]",,FR,,France,5c6f0c1e95d986002c5019ed,45.7909157,3.11416727,Migne Patrick Alain,63100,58daa1558bbb0b01f18ec1f1,Insurance Office,Auvergne-Rhône-Alpes
7,"[{'id': '58daa1558bbb0b01f18ec1f1', 'name': 'Insurance Office', 'pluralName': 'Insurance Offices', 'shortName': 'Insurance Office', 'icon': {'prefix': 'https://ss3.4sqi.net/img/categories_v2/shops/financial_', 'suffix': '.png'}, 'primary': True}]",,FR,,France,5c6d94af2632ec0039a9587c,45.79195274,3.11338656,MMA CLERMONT FERRAND MONTFERRAND,63100,58daa1558bbb0b01f18ec1f1,Insurance Office,Auvergne-Rhône-Alpes
8,"[{'id': '58daa1558bbb0b01f18ec1f1', 'name': 'Insurance Office', 'pluralName': 'Insurance Offices', 'shortName': 'Insurance Office', 'icon': {'prefix': 'https://ss3.4sqi.net/img/categories_v2/shops/financial_', 'suffix': '.png'}, 'primary': True}]",,FR,,France,5a0ca10aa6ec983a4adc4271,45.76575345,3.08283775,AXA Assurance Mickael Joffroy,63000,58daa1558bbb0b01f18ec1f1,Insurance Office,Auvergne-Rhône-Alpes
9,"[{'id': '58daa1558bbb0b01f18ec1f1', 'name': 'Insurance Office', 'pluralName': 'Insurance Offices', 'shortName': 'Insurance Office', 'icon': {'prefix': 'https://ss3.4sqi.net/img/categories_v2/shops/financial_', 'suffix': '.png'}, 'primary': True}]",,FR,,France,5a0d9aefb23dfa35e6cc5b8f,45.79656495,3.0595721,AXA Assurance Sebastien Viard,63830,58daa1558bbb0b01f18ec1f1,Insurance Office,Auvergne-Rhône-Alpes
10,"[{'id': '58daa1558bbb0b01f18ec1f1', 'name': 'Insurance Office', 'pluralName': 'Insurance Offices', 'shortName': 'Insurance Office', 'icon': {'prefix': 'https://ss3.4sqi.net/img/categories_v2/shops/financial_', 'suffix': '.png'}, 'primary': True}]",,FR,,France,5b485e4f46e1b6002ce916e4,45.78032677,3.10796904,AXA Assurance Nicolas Barthelemy,63000,58daa1558bbb0b01f18ec1f1,Insurance Office,Auvergne-Rhône-Alpes
11,"[{'id': '58daa1558bbb0b01f18ec1f1', 'name': 'Insurance Office', 'pluralName': 'Insurance Offices', 'shortName': 'Insurance Office', 'icon': {'prefix': 'https://ss3.4sqi.net/img/categories_v2/shops/financial_', 'suffix': '.png'}, 'primary': True}]",,FR,,France,5c642a7da4236200398d16aa,45.74972023,3.11119602,MMA AUBIERE,63170,58daa1558bbb0b01f18ec1f1,Insurance Office,Auvergne-Rhône-Alpes
12,"[{'id': '58daa1558bbb0b01f18ec1f1', 'name': 'Insurance Office', 'pluralName': 'Insurance Offices', 'shortName': 'Insurance Office', 'icon': {'prefix': 'https://ss3.4sqi.net/img/categories_v2/shops/financial_', 'suffix': '.png'}, 'primary': True}]",,FR,,France,5abdfd0d0e5da853471720bc,45.775987932914,3.080500238623,MAIF Associations Collectivités Clermont-Ferrand,63000,58daa1558bbb0b01f18ec1f1,Insurance Office,Auvergne
13,"[{'id': '58daa1558bbb0b01f18ec1f1', 'name': 'Insurance Office', 'pluralName': 'Insurance Offices', 'shortName': 'Insurance Office', 'icon': {'prefix': 'https://ss3.4sqi.net/img/categories_v2/shops/financial_', 'suffix': '.png'}, 'primary': True}]",,FR,,France,5c69837147f876002c9f0edf,45.7854473,3.0789857,MMA Clermont Ferrand Lavoisier,63000,58daa1558bbb0b01f18ec1f1,Insurance Office,Auvergne-Rhône-Alpes
14,"[{'id': '58daa1558bbb0b01f18ec1f1', 'name': 'Insurance Office', 'pluralName': 'Insurance Offices', 'shortName': 'Insurance Office', 'icon': {'prefix': 'https://ss3.4sqi.net/img/categories_v2/shops/financial_', 'suffix': '.png'}, 'primary': True}]",,FR,,France,5c6b0aa035f983002c34aa12,45.77395082,3.08520009,MMA CLERMONT FERRAND HOTEL DIEU,63000,58daa1558bbb0b01f18ec1f1,Insurance Office,Auvergne-Rhône-Alpes
15,"[{'id': '58daa1558bbb0b01f18ec1f1', 'name': 'Insurance Office', 'pluralName': 'Insurance Offices', 'shortName': 'Insurance Office', 'icon': {'prefix': 'https://ss3.4sqi.net/img/categories_v2/shops/financial_', 'suffix': '.png'}, 'primary': True}]",,FR,,France,5a0eb867ee71206ae64facf0,45.78074388,3.0542535,AXA Assurance Jack Rondy,63400,58daa1558bbb0b01f18ec1f1,Insurance Office,Auvergne-Rhône-Alpes
16,"[{'id': '58daa1558bbb0b01f18ec1f1', 'name': 'Insurance Office', 'pluralName': 'Insurance Offices', 'shortName': 'Insurance Office', 'icon': {'prefix': 'https://ss3.4sqi.net/img/categories_v2/shops/financial_', 'suffix': '.png'}, 'primary': True}]",,FR,,France,5a0ca730610f042340a2f9dc,45.78486611,3.08449053,AXA Assurance Luc Andouard,63100,58daa1558bbb0b01f18ec1f1,Insurance Office,Auvergne-Rhône-Alpes
17,"[{'id': '58daa1558bbb0b01f18ec1f1', 'name': 'Insurance Office', 'pluralName': 'Insurance Offices', 'shortName': 'Insurance Office', 'icon': {'prefix': 'https://ss3.4sqi.net/img/categories_v2/shops/financial_', 'suffix': '.png'}, 'primary': True}]",,FR,,France,5a0dde1ead17897b9949ee04,45.78002292,3.06905825,AXA Assurance MARIE AMEIL GUESNU,63400,58daa1558bbb0b01f18ec1f1,Insurance Office,Auvergne-Rhône-Alpes
18,"[{'id': '58daa1558bbb0b01f18ec1f1', 'name': 'Insurance Office', 'pluralName': 'Insurance Offices', 'shortName': 'Insurance Office', 'icon': {'prefix': 'https://ss3.4sqi.net/img/categories_v2/shops/financial_', 'suffix': '.png'}, 'primary': True}]",,FR,,France,5c700455234724002cc2f0ec,45.7765596,3.07395778,MMA Clermont Ferrand Blatin,63013,58daa1558bbb0b01f18ec1f1,Insurance Office,Auvergne-Rhône-Alpes
19,"[{'id': '503287a291d4c4b30a586d65', 'name': 'Financial or Legal Service', 'pluralName': 'Financial or Legal Services', 'shortName': 'Financial / Legal', 'icon': {'prefix': 'https://ss3.4sqi.net/img/categories_v2/shops/financial_', 'suffix': '.png'}, 'primary': True}]",,FR,,France,5c8f5f7866f3cd002ccaa74f,45.753066,3.135277,Assurance Clermont Aubière Aviva,63170,503287a291d4c4b30a586d65,Financial or Legal Service,Auvergne
20,"[{'id': '58daa1558bbb0b01f18ec1f1', 'name': 'Insurance Office', 'pluralName': 'Insurance Offices', 'shortName': 'Insurance Office', 'icon': {'prefix': 'https://ss3.4sqi.net/img/categories_v2/shops/financial_', 'suffix': '.png'}, 'primary': True}]",,FR,,France,5c8f5f79deb49500259c6947,45.7757,3.08385,Assurance Clermont Jaude Aviva,63000,58daa1558bbb0b01f18ec1f1,Insurance Office,Auvergne
21,"[{'id': '503287a291d4c4b30a586d65', 'name': 'Financial or Legal Service', 'pluralName': 'Financial or Legal Services', 'shortName': 'Financial / Legal', 'icon': {'prefix': 'https://ss3.4sqi.net/img/categories_v2/shops/financial_', 'suffix': '.png'}, 'primary': True}]",,FR,,France,5c8f5f781de765002c0d46fa,45.775736,3.067852,Assurance Chamalieres Aviva,63400,503287a291d4c4b30a586d65,Financial or Legal Service,Auvergne
22,"[{'id': '503287a291d4c4b30a586d65', 'name': 'Financial or Legal Service', 'pluralName': 'Financial or Legal Services', 'shortName': 'Financial / Legal', 'icon': {'prefix': 'https://ss3.4sqi.net/img/categories_v2/shops/financial_', 'suffix': '.png'}, 'primary': True}]",,FR,,France,577bf01f498e9c00bb2dd1bc,45.757712,3.126875,MACIF Assurances,63000,503287a291d4c4b30a586d65,Financial or Legal Service,Auvergne-Rhône-Alpes
0,"[{'id': '58daa1558bbb0b01f18ec1f1', 'name': 'Insurance Office', 'pluralName': 'Insurance Offices', 'shortName': 'Insurance Office', 'icon': {'prefix': 'https://ss3.4sqi.net/img/categories_v2/shops/financial_', 'suffix': '.png'}, 'primary': True}]",,FR,,France,5aa0e68f610f047c633f5d07,45.855366,3.546784,Allianz Frederique Baraduc,63300,58daa1558bbb0b01f18ec1f1,Insurance Office,Auvergne-Rhône-Alpes
1,"[{'id': '503287a291d4c4b30a586d65', 'name': 'Financial or Legal Service', 'pluralName': 'Financial or Legal Services', 'shortName': 'Financial / Legal', 'icon': {'prefix': 'https://ss3.4sqi.net/img/categories_v2/shops/financial_', 'suffix': '.png'}, 'primary': True}]",,FR,,France,5c34df4d42d8c2002cda0909,45.840463,3.510009,MACIF Assurances,63300,503287a291d4c4b30a586d65,Financial or Legal Service,Auvergne-Rhône-Alpes
2,"[{'id': '58daa1558bbb0b01f18ec1f1', 'name': 'Insurance Office', 'pluralName': 'Insurance Offices', 'shortName': 'Insurance Office', 'icon': {'prefix': 'https://ss3.4sqi.net/img/categories_v2/shops/financial_', 'suffix': '.png'}, 'primary': True}]",,FR,,France,5c69bd7d12c8f0002c73abae,45.84487928,3.52257221,MMA THIERS,63306,58daa1558bbb0b01f18ec1f1,Insurance Office,Auvergne-Rhône-Alpes
3,"[{'id': '58daa1558bbb0b01f18ec1f1', 'name': 'Insurance Office', 'pluralName': 'Insurance Offices', 'shortName': 'Insurance Office', 'icon': {'prefix': 'https://ss3.4sqi.net/img/categories_v2/shops/financial_', 'suffix': '.png'}, 'primary': True}]",,FR,,France,5a0c71c895d986095107ca6c,45.85700458,3.54992068,AXA Assurance Yves Jullien De Pommerol,63300,58daa1558bbb0b01f18ec1f1,Insurance Office,Auvergne-Rhône-Alpes
4,"[{'id': '58daa1558bbb0b01f18ec1f1', 'name': 'Insurance Office', 'pluralName': 'Insurance Offices', 'shortName': 'Insurance Office', 'icon': {'prefix': 'https://ss3.4sqi.net/img/categories_v2/shops/financial_', 'suffix': '.png'}, 'primary': True}]",,FR,,France,5b13a34c4c30be00245580fe,45.8687449,3.59909344,AXA Assurance BRUNO MAYER,63650,58daa1558bbb0b01f18ec1f1,Insurance Office,Auvergne-Rhône-Alpes
5,"[{'id': '503287a291d4c4b30a586d65', 'name': 'Financial or Legal Service', 'pluralName': 'Financial or Legal Services', 'shortName': 'Financial / Legal', 'icon': {'prefix': 'https://ss3.4sqi.net/img/categories_v2/shops/financial_', 'suffix': '.png'}, 'primary': True}]",,FR,,France,5c8f5f792a7ab6002c583bce,45.852,3.54144,Assurance Thiers Aviva,63300,503287a291d4c4b30a586d65,Financial or Legal Service,Auvergne
0,"[{'id': '58daa1558bbb0b01f18ec1f1', 'name': 'Insurance Office', 'pluralName': 'Insurance Offices', 'shortName': 'Insurance Office', 'icon': {'prefix': 'https://ss3.4sqi.net/img/categories_v2/shops/financial_', 'suffix': '.png'}, 'primary': True}]",,FR,,France,56d67b55498ed7e186402f83,46.11755091,3.40209714,AXA Assurance FRANCK BUFFET,03700,58daa1558bbb0b01f18ec1f1,Insurance Office,Auvergne-Rhône-Alpes
1,"[{'id': '58daa1558bbb0b01f18ec1f1', 'name': 'Insurance Office', 'pluralName': 'Insurance Offices', 'shortName': 'Insurance Office', 'icon': {'prefix': 'https://ss3.4sqi.net/img/categories_v2/shops/financial_', 'suffix': '.png'}, 'primary': True}]",,FR,,France,5c69b6d2492822002d306a31,46.1322958,3.45441924,MMA Cusset,03304,58daa1558bbb0b01f18ec1f1,Insurance Office,Auvergne-Rhône-Alpes
2,"[{'id': '58daa1558bbb0b01f18ec1f1', 'name': 'Insurance Office', 'pluralName': 'Insurance Offices', 'shortName': 'Insurance Office', 'icon': {'prefix': 'https://ss3.4sqi.net/img/categories_v2/shops/financial_', 'suffix': '.png'}, 'primary': True}]",,FR,,France,53678e63498e587a6f830355,46.123925,3.424292,AXA Assurance Josiane Amblard,03200,58daa1558bbb0b01f18ec1f1,Insurance Office,Auvergne-Rhône-Alpes
3,"[{'id': '503287a291d4c4b30a586d65', 'name': 'Financial or Legal Service', 'pluralName': 'Financial or Legal Services', 'shortName': 'Financial / Legal', 'icon': {'prefix': 'https://ss3.4sqi.net/img/categories_v2/shops/financial_', 'suffix': '.png'}, 'primary': True}]",,FR,,France,5c8bab5c1acf11002c308d27,46.131099,3.423513,Assurance Vichy Aviva,03200,503287a291d4c4b30a586d65,Financial or Legal Service,Auvergne
4,"[{'id': '503287a291d4c4b30a586d65', 'name': 'Financial or Legal Service', 'pluralName': 'Financial or Legal Services', 'shortName': 'Financial / Legal', 'icon': {'prefix': 'https://ss3.4sqi.net/img/categories_v2/shops/financial_', 'suffix': '.png'}, 'primary': True}]",,FR,,France,577c3740498e2b6095d37cb0,46.130246,3.431409,MACIF Assurances,03200,503287a291d4c4b30a586d65,Financial or Legal Service,Auvergne-Rhône-Alpes
5,"[{'id': '58daa1558bbb0b01f18ec1f1', 'name': 'Insurance Office', 'pluralName': 'Insurance Offices', 'shortName': 'Insurance Office', 'icon': {'prefix': 'https://ss3.4sqi.net/img/categories_v2/shops/financial_', 'suffix': '.png'}, 'primary': True}]",,FR,,France,5a5f6f66829b0c1888394c8d,46.12169865,3.42070169,AXA Assurance ALAIN RENOU,03200,58daa1558bbb0b01f18ec1f1,Insurance Office,Auvergne-Rhône-Alpes
6,"[{'id': '58daa1558bbb0b01f18ec1f1', 'name': 'Insurance Office', 'pluralName': 'Insurance Offices', 'shortName': 'Insurance Office', 'icon': {'prefix': 'https://ss3.4sqi.net/img/categories_v2/shops/financial_', 'suffix': '.png'}, 'primary': True}]",,FR,,France,5a0b24f678782c13b0770457,46.13028416,3.42326583,AXA Assurance NATHALIE MIALON,03200,58daa1558bbb0b01f18ec1f1,Insurance Office,Auvergne-Rhône-Alpes
7,"[{'id': '58daa1558bbb0b01f18ec1f1', 'name': 'Insurance Office', 'pluralName': 'Insurance Offices', 'shortName': 'Insurance Office', 'icon': {'prefix': 'https://ss3.4sqi.net/img/categories_v2/shops/financial_', 'suffix': '.png'}, 'primary': True}]",,FR,,France,5c69634e037be1002c257f49,46.12656632,3.42603899,MMA VICHY QUATRE CHEMINS,03200,58daa1558bbb0b01f18ec1f1,Insurance Office,Auvergne-Rhône-Alpes
8,"[{'id': '58daa1558bbb0b01f18ec1f1', 'name': 'Insurance Office', 'pluralName': 'Insurance Offices', 'shortName': 'Insurance Office', 'icon': {'prefix': 'https://ss3.4sqi.net/img/categories_v2/shops/financial_', 'suffix': '.png'}, 'primary': True}]",,FR,,France,5c69ba61492822002d345e7b,46.13119496,3.42325044,MMA Vichy Jean Jaures,03200,58daa1558bbb0b01f18ec1f1,Insurance Office,Auvergne-Rhône-Alpes
0,"[{'id': '58daa1558bbb0b01f18ec1f1', 'name': 'Insurance Office', 'pluralName': 'Insurance Offices', 'shortName': 'Insurance Office', 'icon': {'prefix': 'https://ss3.4sqi.net/img/categories_v2/shops/financial_', 'suffix': '.png'}, 'primary': True}]",,FR,,France,5c6fce7089b06a002c2c04c1,45.57760709,2.8082858,MMA MONT DORE,63240,58daa1558bbb0b01f18ec1f1,Insurance Office,Auvergne-Rhône-Alpes
0,"[{'id': '58daa1558bbb0b01f18ec1f1', 'name': 'Insurance Office', 'pluralName': 'Insurance Offices', 'shortName': 'Insurance Office', 'icon': {'prefix': 'https://ss3.4sqi.net/img/categories_v2/shops/financial_', 'suffix': '.png'}, 'primary': True}]",,FR,,France,5c697bc40802d4002c13e3e3,45.79340679,3.22931733,MMA Pont-du-chateau,63430,58daa1558bbb0b01f18ec1f1,Insurance Office,Auvergne-Rhône-Alpes
1,"[{'id': '58daa1558bbb0b01f18ec1f1', 'name': 'Insurance Office', 'pluralName': 'Insurance Offices', 'shortName': 'Insurance Office', 'icon': {'prefix': 'https://ss3.4sqi.net/img/categories_v2/shops/financial_', 'suffix': '.png'}, 'primary': True}]",,FR,,France,5a4e2be1b8fd9d1e32eb38b0,45.79467249,3.2575515,AXA Assurance Patrice Beaujard,63430,58daa1558bbb0b01f18ec1f1,Insurance Office,Auvergne-Rhône-Alpes
2,"[{'id': '58daa1558bbb0b01f18ec1f1', 'name': 'Insurance Office', 'pluralName': 'Insurance Offices', 'shortName': 'Insurance Office', 'icon': {'prefix': 'https://ss3.4sqi.net/img/categories_v2/shops/financial_', 'suffix': '.png'}, 'primary': True}]",,FR,,France,5a10757a8173cb239093715f,45.79454522,3.257301,AXA Assurance PATRICE BEAUJARD,63430,58daa1558bbb0b01f18ec1f1,Insurance Office,Auvergne-Rhône-Alpes
0,"[{'id': '503287a291d4c4b30a586d65', 'name': 'Financial or Legal Service', 'pluralName': 'Financial or Legal Services', 'shortName': 'Financial / Legal', 'icon': {'prefix': 'https://ss3.4sqi.net/img/categories_v2/shops/financial_', 'suffix': '.png'}, 'primary': True}]",,FR,,France,577bf230498e61cc0ec0dd6a,45.893261,3.109072,MACIF Assurances,63200,503287a291d4c4b30a586d65,Financial or Legal Service,Auvergne-Rhône-Alpes
1,"[{'id': '58daa1558bbb0b01f18ec1f1', 'name': 'Insurance Office', 'pluralName': 'Insurance Offices', 'shortName': 'Insurance Office', 'icon': {'prefix': 'https://ss3.4sqi.net/img/categories_v2/shops/financial_', 'suffix': '.png'}, 'primary': True}]",,FR,,France,5c6fcc1195d986002cd31579,45.89379682,3.11763643,MMA RIOM,63202,58daa1558bbb0b01f18ec1f1,Insurance Office,Auvergne-Rhône-Alpes
2,"[{'id': '58daa1558bbb0b01f18ec1f1', 'name': 'Insurance Office', 'pluralName': 'Insurance Offices', 'shortName': 'Insurance Office', 'icon': {'prefix': 'https://ss3.4sqi.net/img/categories_v2/shops/financial_', 'suffix': '.png'}, 'primary': True}]",,FR,,France,5a5f60775455b258ce70acca,45.89619319,3.11293256,AXA Assurance Emmanuel Blond,63200,58daa1558bbb0b01f18ec1f1,Insurance Office,Auvergne-Rhône-Alpes
3,"[{'id': '58daa1558bbb0b01f18ec1f1', 'name': 'Insurance Office', 'pluralName': 'Insurance Offices', 'shortName': 'Insurance Office', 'icon': {'prefix': 'https://ss3.4sqi.net/img/categories_v2/shops/financial_', 'suffix': '.png'}, 'primary': True}]",,FR,,France,5a0beded51950e5d827c1bc9,45.89383733,3.10949268,AXA Assurance GILLES PHILIPPE,63200,58daa1558bbb0b01f18ec1f1,Insurance Office,Auvergne-Rhône-Alpes
4,"[{'id': '503287a291d4c4b30a586d65', 'name': 'Financial or Legal Service', 'pluralName': 'Financial or Legal Services', 'shortName': 'Financial / Legal', 'icon': {'prefix': 'https://ss3.4sqi.net/img/categories_v2/shops/financial_', 'suffix': '.png'}, 'primary': True}]",,FR,,France,5c8f5f7812f0a9002c94e5fa,45.880884,3.116327,Assurance Riom Aviva,63200,503287a291d4c4b30a586d65,Financial or Legal Service,Auvergne
5,"[{'id': '58daa1558bbb0b01f18ec1f1', 'name': 'Insurance Office', 'pluralName': 'Insurance Offices', 'shortName': 'Insurance Office', 'icon': {'prefix': 'https://ss3.4sqi.net/img/categories_v2/shops/financial_', 'suffix': '.png'}, 'primary': True}]",,FR,,France,5a0cb5d46f0aa20fbf9b6986,45.896241,3.10723613,AXA Assurance Dominique Vitte,63200,58daa1558bbb0b01f18ec1f1,Insurance Office,Auvergne-Rhône-Alpes
0,"[{'id': '58daa1558bbb0b01f18ec1f1', 'name': 'Insurance Office', 'pluralName': 'Insurance Offices', 'shortName': 'Insurance Office', 'icon': {'prefix': 'https://ss3.4sqi.net/img/categories_v2/shops/financial_', 'suffix': '.png'}, 'primary': True}]",,FR,,France,5a0bf217f193c03e09eb3f28,45.54440801,3.24583122,AXA Assurance SARL SGTA SUD-EST,63500,58daa1558bbb0b01f18ec1f1,Insurance Office,Auvergne-Rhône-Alpes
1,"[{'id': '58daa1558bbb0b01f18ec1f1', 'name': 'Insurance Office', 'pluralName': 'Insurance Offices', 'shortName': 'Insurance Office', 'icon': {'prefix': 'https://ss3.4sqi.net/img/categories_v2/shops/financial_', 'suffix': '.png'}, 'primary': True}]",,FR,,France,5c69a2fc95a722002ca24e11,45.54520118,3.24710431,MMA ISSOIRE,63500,58daa1558bbb0b01f18ec1f1,Insurance Office,Auvergne-Rhône-Alpes
2,"[{'id': '58daa1558bbb0b01f18ec1f1', 'name': 'Insurance Office', 'pluralName': 'Insurance Offices', 'shortName': 'Insurance Office', 'icon': {'prefix': 'https://ss3.4sqi.net/img/categories_v2/shops/financial_', 'suffix': '.png'}, 'primary': True}]",,FR,,France,58483d2e8ab03f7dab7edfbe,45.54624198,3.24989955,Allianz Patrick Brioude,63500,58daa1558bbb0b01f18ec1f1,Insurance Office,Auvergne-Rhône-Alpes
3,"[{'id': '58daa1558bbb0b01f18ec1f1', 'name': 'Insurance Office', 'pluralName': 'Insurance Offices', 'shortName': 'Insurance Office', 'icon': {'prefix': 'https://ss3.4sqi.net/img/categories_v2/shops/financial_', 'suffix': '.png'}, 'primary': True}]",,FR,,France,5a0ddabed7627e5cc5494f28,45.53354936,3.25319908,AXA Assurance Lafitte Jean Jacques,63500,58daa1558bbb0b01f18ec1f1,Insurance Office,Auvergne-Rhône-Alpes
4,"[{'id': '58daa1558bbb0b01f18ec1f1', 'name': 'Insurance Office', 'pluralName': 'Insurance Offices', 'shortName': 'Insurance Office', 'icon': {'prefix': 'https://ss3.4sqi.net/img/categories_v2/shops/financial_', 'suffix': '.png'}, 'primary': True}]",,FR,,France,5a0d6216b6b04b6ef1eb74f5,45.54495249,3.23498907,AXA Assurance THIERRY COLSON,63500,58daa1558bbb0b01f18ec1f1,Insurance Office,Auvergne-Rhône-Alpes
5,"[{'id': '58daa1558bbb0b01f18ec1f1', 'name': 'Insurance Office', 'pluralName': 'Insurance Offices', 'shortName': 'Insurance Office', 'icon': {'prefix': 'https://ss3.4sqi.net/img/categories_v2/shops/financial_', 'suffix': '.png'}, 'primary': True}]",,FR,,France,5c3c9f8665211f002c6957ed,45.54412386,3.24008787,François-Xavier Peron - Gan Assurances,63500,58daa1558bbb0b01f18ec1f1,Insurance Office,Auvergne-Rhône-Alpes
6,"[{'id': '58daa1558bbb0b01f18ec1f1', 'name': 'Insurance Office', 'pluralName': 'Insurance Offices', 'shortName': 'Insurance Office', 'icon': {'prefix': 'https://ss3.4sqi.net/img/categories_v2/shops/financial_', 'suffix': '.png'}, 'primary': True}]",,FR,,France,5a0daaec3149b9796e2131e0,45.55088905,3.26433997,AXA Assurance Verdier Lecomte,63500,58daa1558bbb0b01f18ec1f1,Insurance Office,Auvergne-Rhône-Alpes
7,"[{'id': '503287a291d4c4b30a586d65', 'name': 'Financial or Legal Service', 'pluralName': 'Financial or Legal Services', 'shortName': 'Financial / Legal', 'icon': {'prefix': 'https://ss3.4sqi.net/img/categories_v2/shops/financial_', 'suffix': '.png'}, 'primary': True}]",,FR,,France,577bf0cd498e7b1d7f29ff0b,45.546138,3.24435,MACIF Assurances,63500,503287a291d4c4b30a586d65,Financial or Legal Service,Auvergne-Rhône-Alpes
8,"[{'id': '503287a291d4c4b30a586d65', 'name': 'Financial or Legal Service', 'pluralName': 'Financial or Legal Services', 'shortName': 'Financial / Legal', 'icon': {'prefix': 'https://ss3.4sqi.net/img/categories_v2/shops/financial_', 'suffix': '.png'}, 'primary': True}]",,FR,,France,5c8f5f788a4cf5002c098947,45.544642,3.251174,ASSURANCE ISSOIRE Aviva,63500,503287a291d4c4b30a586d65,Financial or Legal Service,Auvergne
9,"[{'id': '503287a291d4c4b30a586d65', 'name': 'Financial or Legal Service', 'pluralName': 'Financial or Legal Services', 'shortName': 'Financial / Legal', 'icon': {'prefix': 'https://ss3.4sqi.net/img/categories_v2/shops/financial_', 'suffix': '.png'}, 'primary': True}]",,FR,,France,5c8f5f790802d400398f8d9f,45.54151,3.248128,Assurance Issoire Le broc Aviva,63500,503287a291d4c4b30a586d65,Financial or Legal Service,Auvergne
0,"[{'id': '58daa1558bbb0b01f18ec1f1', 'name': 'Insurance Office', 'pluralName': 'Insurance Offices', 'shortName': 'Insurance Office', 'icon': {'prefix': 'https://ss3.4sqi.net/img/categories_v2/shops/financial_', 'suffix': '.png'}, 'primary': True}]",,FR,,France,5a12c399e65d0c546559ab25,45.66928057,3.10853313,AXA,63450,58daa1558bbb0b01f18ec1f1,Insurance Office,Auvergne-Rhône-Alpes
0,"[{'id': '58daa1558bbb0b01f18ec1f1', 'name': 'Insurance Office', 'pluralName': 'Insurance Offices', 'shortName': 'Insurance Office', 'icon': {'prefix': 'https://ss3.4sqi.net/img/categories_v2/shops/financial_', 'suffix': '.png'}, 'primary': True}]",,FR,,France,5a0dec4de2d4aa6ddddc1408,46.10033556,3.19806904,AXA Assurance Alain Renou,03800,58daa1558bbb0b01f18ec1f1,Insurance Office,Auvergne-Rhône-Alpes
1,"[{'id': '503287a291d4c4b30a586d65', 'name': 'Financial or Legal Service', 'pluralName': 'Financial or Legal Services', 'shortName': 'Financial / Legal', 'icon': {'prefix': 'https://ss3.4sqi.net/img/categories_v2/shops/financial_', 'suffix': '.png'}, 'primary': True}]",,FR,,France,5c8bab5e947c05002c7d462f,46.0993,3.20247,Assurance Gannat Centre Aviva,03800,503287a291d4c4b30a586d65,Financial or Legal Service,Auvergne
0,"[{'id': '58daa1558bbb0b01f18ec1f1', 'name': 'Insurance Office', 'pluralName': 'Insurance Offices', 'shortName': 'Insurance Office', 'icon': {'prefix': 'https://ss3.4sqi.net/img/categories_v2/shops/financial_', 'suffix': '.png'}, 'primary': True}]",,FR,,France,5c69cec55c6838002cee9aa6,45.73962555,3.19968256,MMA Cournon D'auvergne,63800,58daa1558bbb0b01f18ec1f1,Insurance Office,Auvergne-Rhône-Alpes
1,"[{'id': '58daa1558bbb0b01f18ec1f1', 'name': 'Insurance Office', 'pluralName': 'Insurance Offices', 'shortName': 'Insurance Office', 'icon': {'prefix': 'https://ss3.4sqi.net/img/categories_v2/shops/financial_', 'suffix': '.png'}, 'primary': True}]",,FR,,France,5a0ea72d5f68b97a2033456b,45.74048741,3.17236098,AXA Assurance STEPHANIE SALEIX,63800,58daa1558bbb0b01f18ec1f1,Insurance Office,Auvergne-Rhône-Alpes
0,"[{'id': '58daa1558bbb0b01f18ec1f1', 'name': 'Insurance Office', 'pluralName': 'Insurance Offices', 'shortName': 'Insurance Office', 'icon': {'prefix': 'https://ss3.4sqi.net/img/categories_v2/shops/financial_', 'suffix': '.png'}, 'primary': True}]",,FR,,France,5a0eb9c96a595038625266b8,45.80220487,2.46707513,AXA Assurance PHILIPPE FAURE,63620,58daa1558bbb0b01f18ec1f1,Insurance Office,Auvergne-Rhône-Alpes
0,"[{'id': '58daa1558bbb0b01f18ec1f1', 'name': 'Insurance Office', 'pluralName': 'Insurance Offices', 'shortName': 'Insurance Office', 'icon': {'prefix': 'https://ss3.4sqi.net/img/categories_v2/shops/financial_', 'suffix': '.png'}, 'primary': True}]",,FR,,France,5a0eb593cf72a0416c5acb10,45.573652,2.941538,AXA Assurance Verdier Lecomte,63790,58daa1558bbb0b01f18ec1f1,Insurance Office,Auvergne-Rhône-Alpes
7,"[{'id': '58daa1558bbb0b01f18ec1f1', 'name': 'Insurance Office', 'pluralName': 'Insurance Offices', 'shortName': 'Insurance Office', 'icon': {'prefix': 'https://ss3.4sqi.net/img/categories_v2/shops/financial_', 'suffix': '.png'}, 'primary': True}]",,FR,,France,5c697be4e55d8b002c1446ff,45.83052629,3.10056103,MMA CEBAZAT,63118,58daa1558bbb0b01f18ec1f1,Insurance Office,Auvergne-Rhône-Alpes
12,"[{'id': '58daa1558bbb0b01f18ec1f1', 'name': 'Insurance Office', 'pluralName': 'Insurance Offices', 'shortName': 'Insurance Office', 'icon': {'prefix': 'https://ss3.4sqi.net/img/categories_v2/shops/financial_', 'suffix': '.png'}, 'primary': True}]",,FR,,France,5a0daca6bb2a4740241e7667,45.83106578,3.0999851,AXA Assurance SARL CLERASSUR,63118,58daa1558bbb0b01f18ec1f1,Insurance Office,Auvergne-Rhône-Alpes
0,"[{'id': '58daa1558bbb0b01f18ec1f1', 'name': 'Insurance Office', 'pluralName': 'Insurance Offices', 'shortName': 'Insurance Office', 'icon': {'prefix': 'https://ss3.4sqi.net/img/categories_v2/shops/financial_', 'suffix': '.png'}, 'primary': True}]",,FR,,France,5a0d9c29fdb9a71c4852d74f,45.89787573,3.22414977,AXA Assurance PATRICE BEAUJARD,63720,58daa1558bbb0b01f18ec1f1,Insurance Office,Auvergne-Rhône-Alpes
1,"[{'id': '58daa1558bbb0b01f18ec1f1', 'name': 'Insurance Office', 'pluralName': 'Insurance Offices', 'shortName': 'Insurance Office', 'icon': {'prefix': 'https://ss3.4sqi.net/img/categories_v2/shops/financial_', 'suffix': '.png'}, 'primary': True}]",,FR,,France,5a0bfdec61f0705f4dee37a7,45.89747713,3.22144032,AXA Assurance BRUNO MASSE,63720,58daa1558bbb0b01f18ec1f1,Insurance Office,Auvergne-Rhône-Alpes
0,"[{'id': '58daa1558bbb0b01f18ec1f1', 'name': 'Insurance Office', 'pluralName': 'Insurance Offices', 'shortName': 'Insurance Office', 'icon': {'prefix': 'https://ss3.4sqi.net/img/categories_v2/shops/financial_', 'suffix': '.png'}, 'primary': True}]",,FR,,France,5a0db30bb23dfa35e6e7076a,45.41267364,3.32884414,AXA Assurance VERDIER LECOMTE,63570,58daa1558bbb0b01f18ec1f1,Insurance Office,Auvergne-Rhône-Alpes
0,"[{'id': '58daa1558bbb0b01f18ec1f1', 'name': 'Insurance Office', 'pluralName': 'Insurance Offices', 'shortName': 'Insurance Office', 'icon': {'prefix': 'https://ss3.4sqi.net/img/categories_v2/shops/financial_', 'suffix': '.png'}, 'primary': True}]",,FR,,France,5a0dbc49a6ec983a4ad621d3,45.64297462,3.24366868,AXA Assurance VERDIER LECOMTE,63270,58daa1558bbb0b01f18ec1f1,Insurance Office,Auvergne-Rhône-Alpes
0,"[{'id': '52f2ab2ebcbc57f1066b8b57', 'name': 'Recruiting Agency', 'pluralName': 'Recruiting Agencies', 'shortName': 'Recruiting Agency', 'icon': {'prefix': 'https://ss3.4sqi.net/img/categories_v2/building/default_', 'suffix': '.png'}, 'primary': True}]",,FR,,France,5704d376498e955dee1aaf80,45.762401756274684,3.1276674120087384,Pôle Emploi - A2S,63000,52f2ab2ebcbc57f1066b8b57,Recruiting Agency,Auvergne
1,"[{'id': '52f2ab2ebcbc57f1066b8b57', 'name': 'Recruiting Agency', 'pluralName': 'Recruiting Agencies', 'shortName': 'Recruiting Agency', 'icon': {'prefix': 'https://ss3.4sqi.net/img/categories_v2/building/default_', 'suffix': '.png'}, 'primary': True}]",,FR,,France,5721d413498e99b41c2ae17c,45.776714,3.0772035,Complétude,63000,52f2ab2ebcbc57f1066b8b57,Recruiting Agency,Auvergne
2,"[{'id': '52f2ab2ebcbc57f1066b8b57', 'name': 'Recruiting Agency', 'pluralName': 'Recruiting Agencies', 'shortName': 'Recruiting Agency', 'icon': {'prefix': 'https://ss3.4sqi.net/img/categories_v2/building/default_', 'suffix': '.png'}, 'primary': True}]",,FR,,France,5b4cade8db3aef0024dea15f,45.79221887,3.09125422,LIP,63000,52f2ab2ebcbc57f1066b8b57,Recruiting Agency,Auvergne-Rhône-Alpes
3,"[{'id': '52f2ab2ebcbc57f1066b8b57', 'name': 'Recruiting Agency', 'pluralName': 'Recruiting Agencies', 'shortName': 'Recruiting Agency', 'icon': {'prefix': 'https://ss3.4sqi.net/img/categories_v2/building/default_', 'suffix': '.png'}, 'primary': True}]",,FR,,France,5b4cad5b89e490002c9e3890,45.76023514,3.13231765,LIP Clermont-Ferrand,63000,52f2ab2ebcbc57f1066b8b57,Recruiting Agency,Auvergne-Rhône-Alpes
4,"[{'id': '52f2ab2ebcbc57f1066b8b57', 'name': 'Recruiting Agency', 'pluralName': 'Recruiting Agencies', 'shortName': 'Recruiting Agency', 'icon': {'prefix': 'https://ss3.4sqi.net/img/categories_v2/building/default_', 'suffix': '.png'}, 'primary': True}]",,FR,,France,5c814fde1543c7002cf8a72b,45.76552831,3.12467471,RAS Intérim,63000,52f2ab2ebcbc57f1066b8b57,Recruiting Agency,Auvergne-Rhône-Alpes
5,"[{'id': '52f2ab2ebcbc57f1066b8b57', 'name': 'Recruiting Agency', 'pluralName': 'Recruiting Agencies', 'shortName': 'Recruiting Agency', 'icon': {'prefix': 'https://ss3.4sqi.net/img/categories_v2/building/default_', 'suffix': '.png'}, 'primary': True}]",,FR,,France,5c115185c53093002cef4844,45.79216611,3.09106723,LIP Solutions RH Clermont Ferrand,63100,52f2ab2ebcbc57f1066b8b57,Recruiting Agency,Auvergne-Rhône-Alpes
6,"[{'id': '52f2ab2ebcbc57f1066b8b57', 'name': 'Recruiting Agency', 'pluralName': 'Recruiting Agencies', 'shortName': 'Recruiting Agency', 'icon': {'prefix': 'https://ss3.4sqi.net/img/categories_v2/building/default_', 'suffix': '.png'}, 'primary': True}]",,FR,,France,5b7fcc28bcbf7a002c8c4eed,45.77624183,3.07530317,Abalone Agence d'Emplois Clermont-Ferrand,63000,52f2ab2ebcbc57f1066b8b57,Recruiting Agency,Auvergne-Rhône-Alpes
7,"[{'id': '52f2ab2ebcbc57f1066b8b57', 'name': 'Recruiting Agency', 'pluralName': 'Recruiting Agencies', 'shortName': 'Recruiting Agency', 'icon': {'prefix': 'https://ss3.4sqi.net/img/categories_v2/building/default_', 'suffix': '.png'}, 'primary': True}]",,FR,,France,5c6c0eda98fbfc002c0662fb,45.75917622449915,3.1349196285009384,Randstad Search,63170,52f2ab2ebcbc57f1066b8b57,Recruiting Agency,Auvergne
0,"[{'id': '52f2ab2ebcbc57f1066b8b57', 'name': 'Recruiting Agency', 'pluralName': 'Recruiting Agencies', 'shortName': 'Recruiting Agency', 'icon': {'prefix': 'https://ss3.4sqi.net/img/categories_v2/building/default_', 'suffix': '.png'}, 'primary': True}]",,FR,,France,5c337bf9f2554e002c261eea,46.13152986,3.42330323,LIP Vichy,03200,52f2ab2ebcbc57f1066b8b57,Recruiting Agency,Auvergne-Rhône-Alpes
1,"[{'id': '52f2ab2ebcbc57f1066b8b57', 'name': 'Recruiting Agency', 'pluralName': 'Recruiting Agencies', 'shortName': 'Recruiting Agency', 'icon': {'prefix': 'https://ss3.4sqi.net/img/categories_v2/building/default_', 'suffix': '.png'}, 'primary': True}]",,FR,,France,59f1b62764c8e1424862c2f0,46.1303376,3.4230122,Adef+ Vichy,03200,52f2ab2ebcbc57f1066b8b57,Recruiting Agency,Auvergne-Rhône-Alpes
0,"[{'id': '52f2ab2ebcbc57f1066b8b57', 'name': 'Recruiting Agency', 'pluralName': 'Recruiting Agencies', 'shortName': 'Recruiting Agency', 'icon': {'prefix': 'https://ss3.4sqi.net/img/categories_v2/building/default_', 'suffix': '.png'}, 'primary': True}]",,FR,,France,59f1b54e25ecca41427ec092,45.88723786,3.11204896,ADEF Riom,63200,52f2ab2ebcbc57f1066b8b57,Recruiting Agency,Auvergne-Rhône-Alpes
1,"[{'id': '4bf58dd8d48988d10a951735', 'name': 'Bank', 'pluralName': 'Banks', 'shortName': 'Bank', 'icon': {'prefix': 'https://ss3.4sqi.net/img/categories_v2/shops/financial_', 'suffix': '.png'}, 'primary': True}]",,FR,,France,5965b7112f97ec0298952236,45.77711,3.0811,LCL Banque et assurance,63000,4bf58dd8d48988d10a951735,Bank,Auvergne
4,"[{'id': '4bf58dd8d48988d13b941735', 'name': 'School', 'pluralName': 'Schools', 'shortName': 'School', 'icon': {'prefix': 'https://ss3.4sqi.net/img/categories_v2/building/school_', 'suffix': '.png'}, 'primary': True}]",,FR,,France,5a1eac82e96d0c41cdae30e5,45.781423,3.0999586,FrancoCom,63100,4bf58dd8d48988d13b941735,School,Auvergne-Rhône-Alpes
5,"[{'id': '4bf58dd8d48988d10a951735', 'name': 'Bank', 'pluralName': 'Banks', 'shortName': 'Bank', 'icon': {'prefix': 'https://ss3.4sqi.net/img/categories_v2/shops/financial_', 'suffix': '.png'}, 'primary': True}]",,FR,,France,4e382a51fa7606f14402641c,45.7766872259837,3.0818303528659206,LCL Banque Privée,63000,4bf58dd8d48988d10a951735,Bank,Auvergne
6,"[{'id': '503287a291d4c4b30a586d65', 'name': 'Financial or Legal Service', 'pluralName': 'Financial or Legal Services', 'shortName': 'Financial / Legal', 'icon': {'prefix': 'https://ss3.4sqi.net/img/categories_v2/shops/financial_', 'suffix': '.png'}, 'primary': True}]",,FR,,France,5a5345675d891b0cfdcfe43c,45.78207588,3.09607696,Mutuelle Intégrance Clermont Ferrand,63000,503287a291d4c4b30a586d65,Financial or Legal Service,Auvergne-Rhône-Alpes
7,"[{'id': '503287a291d4c4b30a586d65', 'name': 'Financial or Legal Service', 'pluralName': 'Financial or Legal Services', 'shortName': 'Financial / Legal', 'icon': {'prefix': 'https://ss3.4sqi.net/img/categories_v2/shops/financial_', 'suffix': '.png'}, 'primary': True}]",,FR,,France,5bb111a6c4df1d002c1267cb,45.76899398,3.12349864,Gestion 4,63000,503287a291d4c4b30a586d65,Financial or Legal Service,Auvergne-Rhône-Alpes
8,"[{'id': '4bf58dd8d48988d10a951735', 'name': 'Bank', 'pluralName': 'Banks', 'shortName': 'Bank', 'icon': {'prefix': 'https://ss3.4sqi.net/img/categories_v2/shops/financial_', 'suffix': '.png'}, 'primary': True}]",,FR,,France,5965b7116cf01a09ad3d0fc2,45.7918551,3.1170374,LCL Banque et assurance,63100,4bf58dd8d48988d10a951735,Bank,Auvergne
9,"[{'id': '5453de49498eade8af355881', 'name': 'Business Service', 'pluralName': 'Business Services', 'shortName': 'Business Services', 'icon': {'prefix': 'https://ss3.4sqi.net/img/categories_v2/building/default_', 'suffix': '.png'}, 'primary': True}]",,FR,,France,596f13404a7aae1343719e92,45.81079903,3.11245837,ACG,63000,5453de49498eade8af355881,Business Service,Auvergne-Rhône-Alpes
10,"[{'id': '503287a291d4c4b30a586d65', 'name': 'Financial or Legal Service', 'pluralName': 'Financial or Legal Services', 'shortName': 'Financial / Legal', 'icon': {'prefix': 'https://ss3.4sqi.net/img/categories_v2/shops/financial_', 'suffix': '.png'}, 'primary': True}]",,FR,,France,507c19f7cc64f9c2424fe111,45.7632818,3.1270803,MAAF Assurances,63000,503287a291d4c4b30a586d65,Financial or Legal Service,Auvergne-Rhône-Alpes
11,"[{'id': '503287a291d4c4b30a586d65', 'name': 'Financial or Legal Service', 'pluralName': 'Financial or Legal Services', 'shortName': 'Financial / Legal', 'icon': {'prefix': 'https://ss3.4sqi.net/img/categories_v2/shops/financial_', 'suffix': '.png'}, 'primary': True}]",,FR,,France,58483c49db6cd628a6d52c48,45.76853,3.08408,Allianz Claude Barbin,63000,503287a291d4c4b30a586d65,Financial or Legal Service,Auvergne
12,"[{'id': '4bf58dd8d48988d10a951735', 'name': 'Bank', 'pluralName': 'Banks', 'shortName': 'Bank', 'icon': {'prefix': 'https://ss3.4sqi.net/img/categories_v2/shops/financial_', 'suffix': '.png'}, 'primary': True}]",,FR,,France,5965b71059fe5c1ffb2d34f4,45.7740587,3.0623929,LCL Banque et assurance,63400,4bf58dd8d48988d10a951735,Bank,Auvergne
13,"[{'id': '503287a291d4c4b30a586d65', 'name': 'Financial or Legal Service', 'pluralName': 'Financial or Legal Services', 'shortName': 'Financial / Legal', 'icon': {'prefix': 'https://ss3.4sqi.net/img/categories_v2/shops/financial_', 'suffix': '.png'}, 'primary': True}]",,FR,,France,5b09a2372aff31003986044b,45.76449292,3.13812462,Abaque,63000,503287a291d4c4b30a586d65,Financial or Legal Service,Auvergne-Rhône-Alpes
14,"[{'id': '5032885091d4c4b30a586d66', 'name': 'Real Estate Office', 'pluralName': 'Real Estate Offices', 'shortName': 'Real Estate', 'icon': {'prefix': 'https://ss3.4sqi.net/img/categories_v2/shops/realestate_', 'suffix': '.png'}, 'primary': True}]",,FR,,France,57e8f53a498e669425c46399,45.7752239,3.080654099999947,Vauban Distribution Sarl,63000,5032885091d4c4b30a586d66,Real Estate Office,Auvergne-Rhône-Alpes
16,"[{'id': '503287a291d4c4b30a586d65', 'name': 'Financial or Legal Service', 'pluralName': 'Financial or Legal Services', 'shortName': 'Financial / Legal', 'icon': {'prefix': 'https://ss3.4sqi.net/img/categories_v2/shops/financial_', 'suffix': '.png'}, 'primary': True}]",,FR,,France,53346ee811d21487d0b7712f,45.773384,3.092652,ASSU 2000,63000,503287a291d4c4b30a586d65,Financial or Legal Service,Auvergne
17,"[{'id': '503287a291d4c4b30a586d65', 'name': 'Financial or Legal Service', 'pluralName': 'Financial or Legal Services', 'shortName': 'Financial / Legal', 'icon': {'prefix': 'https://ss3.4sqi.net/img/categories_v2/shops/financial_', 'suffix': '.png'}, 'primary': True}]",,FR,,France,5ae027d167f62b702846c01e,45.73466647,3.06371277,Le Tadic Cyril,63122,503287a291d4c4b30a586d65,Financial or Legal Service,Auvergne-Rhône-Alpes
18,"[{'id': '503287a291d4c4b30a586d65', 'name': 'Financial or Legal Service', 'pluralName': 'Financial or Legal Services', 'shortName': 'Financial / Legal', 'icon': {'prefix': 'https://ss3.4sqi.net/img/categories_v2/shops/financial_', 'suffix': '.png'}, 'primary': True}]",,FR,,France,58483f118f0be44e31961060,45.77173,3.08075,Allianz Dominique Joly,63000,503287a291d4c4b30a586d65,Financial or Legal Service,Auvergne
19,"[{'id': '503287a291d4c4b30a586d65', 'name': 'Financial or Legal Service', 'pluralName': 'Financial or Legal Services', 'shortName': 'Financial / Legal', 'icon': {'prefix': 'https://ss3.4sqi.net/img/categories_v2/shops/financial_', 'suffix': '.png'}, 'primary': True}]",,FR,,France,565da291498e68f25efac91d,45.7753075887956,3.0900380113524553,SCP Barel J.-F. - Pélissier C. - Huissiers de justice,63000,503287a291d4c4b30a586d65,Financial or Legal Service,Auvergne
20,"[{'id': '503287a291d4c4b30a586d65', 'name': 'Financial or Legal Service', 'pluralName': 'Financial or Legal Services', 'shortName': 'Financial / Legal', 'icon': {'prefix': 'https://ss3.4sqi.net/img/categories_v2/shops/financial_', 'suffix': '.png'}, 'primary': True}]",,FR,,France,59ef419c0531e846e35b79f7,45.7598932,3.1303808,Expert & finance Clermont-Ferrand,63000,503287a291d4c4b30a586d65,Financial or Legal Service,Auvergne-Rhône-Alpes
21,"[{'id': '503287a291d4c4b30a586d65', 'name': 'Financial or Legal Service', 'pluralName': 'Financial or Legal Services', 'shortName': 'Financial / Legal', 'icon': {'prefix': 'https://ss3.4sqi.net/img/categories_v2/shops/financial_', 'suffix': '.png'}, 'primary': True}]",,FR,,France,5702529b498efeaf9c8ead99,45.7708968,3.0591366999999536,SELECT'FINANCES,63400,503287a291d4c4b30a586d65,Financial or Legal Service,Auvergne
23,"[{'id': '5032885091d4c4b30a586d66', 'name': 'Real Estate Office', 'pluralName': 'Real Estate Offices', 'shortName': 'Real Estate', 'icon': {'prefix': 'https://ss3.4sqi.net/img/categories_v2/shops/realestate_', 'suffix': '.png'}, 'primary': True}]",,FR,,France,59f8888fefa82a7ff904d96e,45.78024032,3.07154309,Barraud Elisabeth,63000,5032885091d4c4b30a586d66,Real Estate Office,Auvergne-Rhône-Alpes
24,"[{'id': '503287a291d4c4b30a586d65', 'name': 'Financial or Legal Service', 'pluralName': 'Financial or Legal Services', 'shortName': 'Financial / Legal', 'icon': {'prefix': 'https://ss3.4sqi.net/img/categories_v2/shops/financial_', 'suffix': '.png'}, 'primary': True}]",,FR,,France,53346ee811d21487d0b7719f,45.78014,3.084025,ASSU 2000,63000,503287a291d4c4b30a586d65,Financial or Legal Service,Auvergne
25,"[{'id': '503287a291d4c4b30a586d65', 'name': 'Financial or Legal Service', 'pluralName': 'Financial or Legal Services', 'shortName': 'Financial / Legal', 'icon': {'prefix': 'https://ss3.4sqi.net/img/categories_v2/shops/financial_', 'suffix': '.png'}, 'primary': True}]",,FR,,France,58483f0fac136969596807d0,45.78065,3.08487,Allianz Jean-Yves Erard,63000,503287a291d4c4b30a586d65,Financial or Legal Service,Auvergne
26,"[{'id': '503287a291d4c4b30a586d65', 'name': 'Financial or Legal Service', 'pluralName': 'Financial or Legal Services', 'shortName': 'Financial / Legal', 'icon': {'prefix': 'https://ss3.4sqi.net/img/categories_v2/shops/financial_', 'suffix': '.png'}, 'primary': True}]",,FR,,France,507c19f7cc64f9c2424fe110,45.7894115,3.1092748,MAAF Assurances Clermont Ferrand République,63100,503287a291d4c4b30a586d65,Financial or Legal Service,Auvergne-Rhône-Alpes
27,"[{'id': '503287a291d4c4b30a586d65', 'name': 'Financial or Legal Service', 'pluralName': 'Financial or Legal Services', 'shortName': 'Financial / Legal', 'icon': {'prefix': 'https://ss3.4sqi.net/img/categories_v2/shops/financial_', 'suffix': '.png'}, 'primary': True}]",,FR,,France,5c530ab66bdee6002c3f8e2b,45.7823,3.09542,APRIL MON ASSURANCE CLERMONT-FERRAND,63000,503287a291d4c4b30a586d65,Financial or Legal Service,Auvergne-Rhône-Alpes
28,"[{'id': '503287a291d4c4b30a586d65', 'name': 'Financial or Legal Service', 'pluralName': 'Financial or Legal Services', 'shortName': 'Financial / Legal', 'icon': {'prefix': 'https://ss3.4sqi.net/img/categories_v2/shops/financial_', 'suffix': '.png'}, 'primary': True}]",,FR,,France,51b71b9c498ed6d51d581e04,45.774841,3.06275,Primonial,,503287a291d4c4b30a586d65,Financial or Legal Service,
29,"[{'id': '503287a291d4c4b30a586d65', 'name': 'Financial or Legal Service', 'pluralName': 'Financial or Legal Services', 'shortName': 'Financial / Legal', 'icon': {'prefix': 'https://ss3.4sqi.net/img/categories_v2/shops/financial_', 'suffix': '.png'}, 'primary': True}]",,FR,,France,525e9702498e3c2d055b40f9,45.763218,3.099713,Macsf,63000,503287a291d4c4b30a586d65,Financial or Legal Service,Auvergne
30,"[{'id': '503287a291d4c4b30a586d65', 'name': 'Financial or Legal Service', 'pluralName': 'Financial or Legal Services', 'shortName': 'Financial / Legal', 'icon': {'prefix': 'https://ss3.4sqi.net/img/categories_v2/shops/financial_', 'suffix': '.png'}, 'primary': True}]",,FR,,France,561aa293498e6d4881a346e1,45.7925901,3.091204599999969,AXELYA Finances,63100,503287a291d4c4b30a586d65,Financial or Legal Service,Auvergne
31,"[{'id': '503287a291d4c4b30a586d65', 'name': 'Financial or Legal Service', 'pluralName': 'Financial or Legal Services', 'shortName': 'Financial / Legal', 'icon': {'prefix': 'https://ss3.4sqi.net/img/categories_v2/shops/financial_', 'suffix': '.png'}, 'primary': True}]",,FR,,France,5a842d359d6a19217a9538ea,45.81187,3.108525,Eovi Mcd mutuelle,63100,503287a291d4c4b30a586d65,Financial or Legal Service,Auvergne-Rhône-Alpes
32,"[{'id': '503287a291d4c4b30a586d65', 'name': 'Financial or Legal Service', 'pluralName': 'Financial or Legal Services', 'shortName': 'Financial / Legal', 'icon': {'prefix': 'https://ss3.4sqi.net/img/categories_v2/shops/financial_', 'suffix': '.png'}, 'primary': True}]",,FR,,France,5bad4a17d41bb7002c8a7c1f,45.7787368,3.1244513,La Mutuelle Générale,63000,503287a291d4c4b30a586d65,Financial or Legal Service,Auvergne-Rhône-Alpes
34,"[{'id': '503287a291d4c4b30a586d65', 'name': 'Financial or Legal Service', 'pluralName': 'Financial or Legal Services', 'shortName': 'Financial / Legal', 'icon': {'prefix': 'https://ss3.4sqi.net/img/categories_v2/shops/financial_', 'suffix': '.png'}, 'primary': True}]",,FR,,France,5bed4486031320002c613da1,45.7524459,3.11270834,Laurence Perrin,63170,503287a291d4c4b30a586d65,Financial or Legal Service,Auvergne-Rhône-Alpes
35,"[{'id': '5453de49498eade8af355881', 'name': 'Business Service', 'pluralName': 'Business Services', 'shortName': 'Business Services', 'icon': {'prefix': 'https://ss3.4sqi.net/img/categories_v2/building/default_', 'suffix': '.png'}, 'primary': True}]",,FR,,France,59ba5101270ee77dbf956e0f,45.74270527,3.09194311,Euclid Ingénierie,63110,5453de49498eade8af355881,Business Service,Auvergne-Rhône-Alpes
36,"[{'id': '503287a291d4c4b30a586d65', 'name': 'Financial or Legal Service', 'pluralName': 'Financial or Legal Services', 'shortName': 'Financial / Legal', 'icon': {'prefix': 'https://ss3.4sqi.net/img/categories_v2/shops/financial_', 'suffix': '.png'}, 'primary': True}]",,FR,,France,5c542a8de70655002559d5d7,45.78737309,3.10040136,Harmonie Mutuelle,63000,503287a291d4c4b30a586d65,Financial or Legal Service,Auvergne-Rhône-Alpes
37,"[{'id': '503287a291d4c4b30a586d65', 'name': 'Financial or Legal Service', 'pluralName': 'Financial or Legal Services', 'shortName': 'Financial / Legal', 'icon': {'prefix': 'https://ss3.4sqi.net/img/categories_v2/shops/financial_', 'suffix': '.png'}, 'primary': True}]",,FR,,France,5674311d498ec531703a49c2,45.7752239,3.080654099999947,DUPLESSIS Avocats,63000,503287a291d4c4b30a586d65,Financial or Legal Service,Auvergne
38,"[{'id': '503287a291d4c4b30a586d65', 'name': 'Financial or Legal Service', 'pluralName': 'Financial or Legal Services', 'shortName': 'Financial / Legal', 'icon': {'prefix': 'https://ss3.4sqi.net/img/categories_v2/shops/financial_', 'suffix': '.png'}, 'primary': True}]",,FR,,France,58483c47735a4d06e5cd4f98,45.77734,3.07848,Allianz Archer - Chaizy,63000,503287a291d4c4b30a586d65,Financial or Legal Service,Auvergne
39,"[{'id': '503287a291d4c4b30a586d65', 'name': 'Financial or Legal Service', 'pluralName': 'Financial or Legal Services', 'shortName': 'Financial / Legal', 'icon': {'prefix': 'https://ss3.4sqi.net/img/categories_v2/shops/financial_', 'suffix': '.png'}, 'primary': True}]",,FR,,France,5a82dd0fe96d0c255784db0b,45.77522565,3.08064472,Eovi Mcd mutuelle,63000,503287a291d4c4b30a586d65,Financial or Legal Service,Auvergne-Rhône-Alpes
40,"[{'id': '4bf58dd8d48988d10a951735', 'name': 'Bank', 'pluralName': 'Banks', 'shortName': 'Bank', 'icon': {'prefix': 'https://ss3.4sqi.net/img/categories_v2/shops/financial_', 'suffix': '.png'}, 'primary': True}]",,FR,,France,5965b71060d11b48c072542e,45.74962,3.11126,LCL Banque et assurance,63170,4bf58dd8d48988d10a951735,Bank,Auvergne
41,"[{'id': '503287a291d4c4b30a586d65', 'name': 'Financial or Legal Service', 'pluralName': 'Financial or Legal Services', 'shortName': 'Financial / Legal', 'icon': {'prefix': 'https://ss3.4sqi.net/img/categories_v2/shops/financial_', 'suffix': '.png'}, 'primary': True}]",,FR,,France,5c14df039ba3e5002c5a0b55,45.77706962,3.07971498,Action Logement,63000,503287a291d4c4b30a586d65,Financial or Legal Service,Auvergne-Rhône-Alpes
42,"[{'id': '503287a291d4c4b30a586d65', 'name': 'Financial or Legal Service', 'pluralName': 'Financial or Legal Services', 'shortName': 'Financial / Legal', 'icon': {'prefix': 'https://ss3.4sqi.net/img/categories_v2/shops/financial_', 'suffix': '.png'}, 'primary': True}]",,FR,,France,53579049498edc6c2d3803ce,45.77966,3.086279999999988,Central Finances,63100,503287a291d4c4b30a586d65,Financial or Legal Service,Auvergne
43,"[{'id': '503287a291d4c4b30a586d65', 'name': 'Financial or Legal Service', 'pluralName': 'Financial or Legal Services', 'shortName': 'Financial / Legal', 'icon': {'prefix': 'https://ss3.4sqi.net/img/categories_v2/shops/financial_', 'suffix': '.png'}, 'primary': True}]",,FR,,France,5a91655e6e46502b21434daf,45.78026017,3.07159871,PRO BTP,63000,503287a291d4c4b30a586d65,Financial or Legal Service,Auvergne-Rhône-Alpes
44,"[{'id': '503287a291d4c4b30a586d65', 'name': 'Financial or Legal Service', 'pluralName': 'Financial or Legal Services', 'shortName': 'Financial / Legal', 'icon': {'prefix': 'https://ss3.4sqi.net/img/categories_v2/shops/financial_', 'suffix': '.png'}, 'primary': True}]",,FR,,France,5b07e3c616ef67002c0b6d19,45.7758876,3.0805555,MAAF Assurances,63000,503287a291d4c4b30a586d65,Financial or Legal Service,Auvergne-Rhône-Alpes
45,"[{'id': '4bf58dd8d48988d10a951735', 'name': 'Bank', 'pluralName': 'Banks', 'shortName': 'Bank', 'icon': {'prefix': 'https://ss3.4sqi.net/img/categories_v2/shops/financial_', 'suffix': '.png'}, 'primary': True}]",,FR,,France,596537890f013c1243ef94e7,45.78023,3.09095,LCL Banque et assurance,63000,4bf58dd8d48988d10a951735,Bank,Auvergne
46,"[{'id': '4bf58dd8d48988d10a951735', 'name': 'Bank', 'pluralName': 'Banks', 'shortName': 'Bank', 'icon': {'prefix': 'https://ss3.4sqi.net/img/categories_v2/shops/financial_', 'suffix': '.png'}, 'primary': True}]",,FR,,France,5c0837c81c0b34002c7f323e,45.76843015,3.13085516,Credipro Cabinet Auvergne Financement,63000,4bf58dd8d48988d10a951735,Bank,Auvergne-Rhône-Alpes
47,"[{'id': '503287a291d4c4b30a586d65', 'name': 'Financial or Legal Service', 'pluralName': 'Financial or Legal Services', 'shortName': 'Financial / Legal', 'icon': {'prefix': 'https://ss3.4sqi.net/img/categories_v2/shops/financial_', 'suffix': '.png'}, 'primary': True}]",,FR,,France,507c19f7cc64f9c2424fe112,45.776099094806206,3.080093876531867,MAAF Assurances,63000,503287a291d4c4b30a586d65,Financial or Legal Service,Auvergne
48,"[{'id': '503287a291d4c4b30a586d65', 'name': 'Financial or Legal Service', 'pluralName': 'Financial or Legal Services', 'shortName': 'Financial / Legal', 'icon': {'prefix': 'https://ss3.4sqi.net/img/categories_v2/shops/financial_', 'suffix': '.png'}, 'primary': True}]",,FR,,France,5a0c94ca2347246f18a31fed,45.788358,3.106529,AXA,63100,503287a291d4c4b30a586d65,Financial or Legal Service,Auvergne-Rhône-Alpes
49,"[{'id': '503287a291d4c4b30a586d65', 'name': 'Financial or Legal Service', 'pluralName': 'Financial or Legal Services', 'shortName': 'Financial / Legal', 'icon': {'prefix': 'https://ss3.4sqi.net/img/categories_v2/shops/financial_', 'suffix': '.png'}, 'primary': True}]",,FR,,France,5c8691eb9ba3e5002c554b14,45.78045473,3.08267999,Harmonie Mutuelle,63000,503287a291d4c4b30a586d65,Financial or Legal Service,Auvergne-Rhône-Alpes
0,"[{'id': '503287a291d4c4b30a586d65', 'name': 'Financial or Legal Service', 'pluralName': 'Financial or Legal Services', 'shortName': 'Financial / Legal', 'icon': {'prefix': 'https://ss3.4sqi.net/img/categories_v2/shops/financial_', 'suffix': '.png'}, 'primary': True}]",,FR,,France,5c542986f709c1002c157abb,45.842675,3.515392,Harmonie Mutuelle,63300,503287a291d4c4b30a586d65,Financial or Legal Service,Auvergne-Rhône-Alpes
3,"[{'id': '503287a291d4c4b30a586d65', 'name': 'Financial or Legal Service', 'pluralName': 'Financial or Legal Services', 'shortName': 'Financial / Legal', 'icon': {'prefix': 'https://ss3.4sqi.net/img/categories_v2/shops/financial_', 'suffix': '.png'}, 'primary': True}]",,FR,,France,5a84295fd1a4023f0fe90e48,45.84025976,3.51047655,Eovi Mcd mutuelle,63300,503287a291d4c4b30a586d65,Financial or Legal Service,Auvergne-Rhône-Alpes
4,"[{'id': '503287a291d4c4b30a586d65', 'name': 'Financial or Legal Service', 'pluralName': 'Financial or Legal Services', 'shortName': 'Financial / Legal', 'icon': {'prefix': 'https://ss3.4sqi.net/img/categories_v2/shops/financial_', 'suffix': '.png'}, 'primary': True}]",,FR,,France,507c19f7cc64f9c2424fe115,45.8496233,3.5363924,MAAF Assurances,63300,503287a291d4c4b30a586d65,Financial or Legal Service,Auvergne-Rhône-Alpes
6,"[{'id': '503287a291d4c4b30a586d65', 'name': 'Financial or Legal Service', 'pluralName': 'Financial or Legal Services', 'shortName': 'Financial / Legal', 'icon': {'prefix': 'https://ss3.4sqi.net/img/categories_v2/shops/financial_', 'suffix': '.png'}, 'primary': True}]",,FR,,France,577bf181498e9a3044fb0794,45.849409,3.536318,MACIF Assurances,63300,503287a291d4c4b30a586d65,Financial or Legal Service,Auvergne
7,"[{'id': '4bf58dd8d48988d10a951735', 'name': 'Bank', 'pluralName': 'Banks', 'shortName': 'Bank', 'icon': {'prefix': 'https://ss3.4sqi.net/img/categories_v2/shops/financial_', 'suffix': '.png'}, 'primary': True}]",,FR,,France,5965b9f76cf01a0cc359c44e,45.84892,3.53491,LCL Banque et assurance,63300,4bf58dd8d48988d10a951735,Bank,Auvergne
0,"[{'id': '503287a291d4c4b30a586d65', 'name': 'Financial or Legal Service', 'pluralName': 'Financial or Legal Services', 'shortName': 'Financial / Legal', 'icon': {'prefix': 'https://ss3.4sqi.net/img/categories_v2/shops/financial_', 'suffix': '.png'}, 'primary': True}]",,FR,,France,5b31e21e51950e002c2dc0cd,46.1198311,3.429043399999955,Kupa'a Tri Coaching,03200,503287a291d4c4b30a586d65,Financial or Legal Service,Auvergne-Rhône-Alpes
4,"[{'id': '4bf58dd8d48988d10a951735', 'name': 'Bank', 'pluralName': 'Banks', 'shortName': 'Bank', 'icon': {'prefix': 'https://ss3.4sqi.net/img/categories_v2/shops/financial_', 'suffix': '.png'}, 'primary': True}]",,FR,,France,5be460c933627300392fb285,46.13252,3.436464,NEGOCIATION DE TAUX.COM,03300,4bf58dd8d48988d10a951735,Bank,Auvergne-Rhône-Alpes
5,"[{'id': '4bf58dd8d48988d10a951735', 'name': 'Bank', 'pluralName': 'Banks', 'shortName': 'Bank', 'icon': {'prefix': 'https://ss3.4sqi.net/img/categories_v2/shops/financial_', 'suffix': '.png'}, 'primary': True}]",,FR,,France,53ecc418498e33680fdcd8ff,46.1251,3.42455,LCL Banque et assurance,03200,4bf58dd8d48988d10a951735,Bank,Auvergne
6,"[{'id': '503287a291d4c4b30a586d65', 'name': 'Financial or Legal Service', 'pluralName': 'Financial or Legal Services', 'shortName': 'Financial / Legal', 'icon': {'prefix': 'https://ss3.4sqi.net/img/categories_v2/shops/financial_', 'suffix': '.png'}, 'primary': True}]",,FR,,France,507c19f7cc64f9c2424fe106,46.132637,3.456871,MAAF Assurances,03300,503287a291d4c4b30a586d65,Financial or Legal Service,Auvergne
7,"[{'id': '503287a291d4c4b30a586d65', 'name': 'Financial or Legal Service', 'pluralName': 'Financial or Legal Services', 'shortName': 'Financial / Legal', 'icon': {'prefix': 'https://ss3.4sqi.net/img/categories_v2/shops/financial_', 'suffix': '.png'}, 'primary': True}]",,FR,,France,5c87e43d336273002c0c64e0,46.1264237,3.4252643,Harmonie Mutuelle,03200,503287a291d4c4b30a586d65,Financial or Legal Service,Auvergne-Rhône-Alpes
10,"[{'id': '503287a291d4c4b30a586d65', 'name': 'Financial or Legal Service', 'pluralName': 'Financial or Legal Services', 'shortName': 'Financial / Legal', 'icon': {'prefix': 'https://ss3.4sqi.net/img/categories_v2/shops/financial_', 'suffix': '.png'}, 'primary': True}]",,FR,,France,5a0d9e35dee77068b1205285,46.13461443,3.45355401,Office Notarial de Boissy - de Montais - Rouvet,03300,503287a291d4c4b30a586d65,Financial or Legal Service,Auvergne-Rhône-Alpes
12,"[{'id': '503287a291d4c4b30a586d65', 'name': 'Financial or Legal Service', 'pluralName': 'Financial or Legal Services', 'shortName': 'Financial / Legal', 'icon': {'prefix': 'https://ss3.4sqi.net/img/categories_v2/shops/financial_', 'suffix': '.png'}, 'primary': True}]",,FR,,France,5a81a0439de23b09d88f0bea,46.12609212,3.42428658,Eovi Mcd mutuelle,03200,503287a291d4c4b30a586d65,Financial or Legal Service,Auvergne-Rhône-Alpes
13,"[{'id': '503287a291d4c4b30a586d65', 'name': 'Financial or Legal Service', 'pluralName': 'Financial or Legal Services', 'shortName': 'Financial / Legal', 'icon': {'prefix': 'https://ss3.4sqi.net/img/categories_v2/shops/financial_', 'suffix': '.png'}, 'primary': True}]",,FR,,France,5ac0d2f0178a2a20a8cb8fd5,46.12303975,3.42255515,Lathiere Finances,03200,503287a291d4c4b30a586d65,Financial or Legal Service,Auvergne-Rhône-Alpes
14,"[{'id': '4bf58dd8d48988d10a951735', 'name': 'Bank', 'pluralName': 'Banks', 'shortName': 'Bank', 'icon': {'prefix': 'https://ss3.4sqi.net/img/categories_v2/shops/financial_', 'suffix': '.png'}, 'primary': True}]",,FR,,France,5965b7c160255e15a83e32df,46.13328,3.45631,LCL Banque et assurance,03300,4bf58dd8d48988d10a951735,Bank,Auvergne
15,"[{'id': '503287a291d4c4b30a586d65', 'name': 'Financial or Legal Service', 'pluralName': 'Financial or Legal Services', 'shortName': 'Financial / Legal', 'icon': {'prefix': 'https://ss3.4sqi.net/img/categories_v2/shops/financial_', 'suffix': '.png'}, 'primary': True}]",,FR,,France,5b08ccbd2f97ec002c8e9f58,46.1266162,3.4267427,MAAF Assurances,03200,503287a291d4c4b30a586d65,Financial or Legal Service,Auvergne-Rhône-Alpes
16,"[{'id': '503287a291d4c4b30a586d65', 'name': 'Financial or Legal Service', 'pluralName': 'Financial or Legal Services', 'shortName': 'Financial / Legal', 'icon': {'prefix': 'https://ss3.4sqi.net/img/categories_v2/shops/financial_', 'suffix': '.png'}, 'primary': True}]",,FR,,France,5c14fa5b005ac1002c9cac18,46.1272928,3.4230831,Action Logement,03207,503287a291d4c4b30a586d65,Financial or Legal Service,Auvergne-Rhône-Alpes
17,"[{'id': '503287a291d4c4b30a586d65', 'name': 'Financial or Legal Service', 'pluralName': 'Financial or Legal Services', 'shortName': 'Financial / Legal', 'icon': {'prefix': 'https://ss3.4sqi.net/img/categories_v2/shops/financial_', 'suffix': '.png'}, 'primary': True}]",,FR,,France,507c19f7cc64f9c2424fe109,46.124843,3.427531,MAAF Assurances,03200,503287a291d4c4b30a586d65,Financial or Legal Service,Auvergne
2,"[{'id': '503287a291d4c4b30a586d65', 'name': 'Financial or Legal Service', 'pluralName': 'Financial or Legal Services', 'shortName': 'Financial / Legal', 'icon': {'prefix': 'https://ss3.4sqi.net/img/categories_v2/shops/financial_', 'suffix': '.png'}, 'primary': True}]",,FR,,France,5a82e5248c812a68b39a8f69,45.79830657,3.24879879,Eovi Mcd mutuelle,63430,503287a291d4c4b30a586d65,Financial or Legal Service,Auvergne-Rhône-Alpes
0,"[{'id': '503287a291d4c4b30a586d65', 'name': 'Financial or Legal Service', 'pluralName': 'Financial or Legal Services', 'shortName': 'Financial / Legal', 'icon': {'prefix': 'https://ss3.4sqi.net/img/categories_v2/shops/financial_', 'suffix': '.png'}, 'primary': True}]",,FR,,France,58483d3b33a24559e85f8914,45.89342,3.10923,Allianz Manuel Peixoto,63200,503287a291d4c4b30a586d65,Financial or Legal Service,Auvergne
1,"[{'id': '4bf58dd8d48988d10a951735', 'name': 'Bank', 'pluralName': 'Banks', 'shortName': 'Bank', 'icon': {'prefix': 'https://ss3.4sqi.net/img/categories_v2/shops/financial_', 'suffix': '.png'}, 'primary': True}]",,FR,,France,5965b71260d11b48c0725740,45.89385,3.10995,LCL Banque et assurance,63200,4bf58dd8d48988d10a951735,Bank,Auvergne
3,"[{'id': '503287a291d4c4b30a586d65', 'name': 'Financial or Legal Service', 'pluralName': 'Financial or Legal Services', 'shortName': 'Financial / Legal', 'icon': {'prefix': 'https://ss3.4sqi.net/img/categories_v2/shops/financial_', 'suffix': '.png'}, 'primary': True}]",,FR,,France,58483d3dfc73d474f3f46fab,45.89418,3.11058,Allianz Rapciewiez - Rios-Vesseaux,63200,503287a291d4c4b30a586d65,Financial or Legal Service,Auvergne
4,"[{'id': '503287a291d4c4b30a586d65', 'name': 'Financial or Legal Service', 'pluralName': 'Financial or Legal Services', 'shortName': 'Financial / Legal', 'icon': {'prefix': 'https://ss3.4sqi.net/img/categories_v2/shops/financial_', 'suffix': '.png'}, 'primary': True}]",,FR,,France,5c54290d38f216002dd44088,45.89389871,3.1144978,Harmonie Mutuelle,63200,503287a291d4c4b30a586d65,Financial or Legal Service,Auvergne-Rhône-Alpes
5,"[{'id': '503287a291d4c4b30a586d65', 'name': 'Financial or Legal Service', 'pluralName': 'Financial or Legal Services', 'shortName': 'Financial / Legal', 'icon': {'prefix': 'https://ss3.4sqi.net/img/categories_v2/shops/financial_', 'suffix': '.png'}, 'primary': True}]",,FR,,France,507c19f7cc64f9c2424fe114,45.874284,3.071908,MAAF Assurances,63200,503287a291d4c4b30a586d65,Financial or Legal Service,Auvergne-Rhône-Alpes
6,"[{'id': '503287a291d4c4b30a586d65', 'name': 'Financial or Legal Service', 'pluralName': 'Financial or Legal Services', 'shortName': 'Financial / Legal', 'icon': {'prefix': 'https://ss3.4sqi.net/img/categories_v2/shops/financial_', 'suffix': '.png'}, 'primary': True}]",,FR,,France,5a8429b93abcaf29f06a9b02,45.87669549,3.11839903,Eovi Mcd mutuelle,63200,503287a291d4c4b30a586d65,Financial or Legal Service,Auvergne-Rhône-Alpes
0,"[{'id': '503287a291d4c4b30a586d65', 'name': 'Financial or Legal Service', 'pluralName': 'Financial or Legal Services', 'shortName': 'Financial / Legal', 'icon': {'prefix': 'https://ss3.4sqi.net/img/categories_v2/shops/financial_', 'suffix': '.png'}, 'primary': True}]",,FR,,France,5a8328fd4940bc6ac11b3662,45.54993836,3.26800315,Eovi Mcd mutuelle,63500,503287a291d4c4b30a586d65,Financial or Legal Service,Auvergne-Rhône-Alpes
1,"[{'id': '503287a291d4c4b30a586d65', 'name': 'Financial or Legal Service', 'pluralName': 'Financial or Legal Services', 'shortName': 'Financial / Legal', 'icon': {'prefix': 'https://ss3.4sqi.net/img/categories_v2/shops/financial_', 'suffix': '.png'}, 'primary': True}]",,FR,,France,56da88fecd100594a9039ea3,45.54772,3.24947,Allianz Patrick Nairabeze,63500,503287a291d4c4b30a586d65,Financial or Legal Service,Auvergne
3,"[{'id': '503287a291d4c4b30a586d65', 'name': 'Financial or Legal Service', 'pluralName': 'Financial or Legal Services', 'shortName': 'Financial / Legal', 'icon': {'prefix': 'https://ss3.4sqi.net/img/categories_v2/shops/financial_', 'suffix': '.png'}, 'primary': True}]",,FR,,France,5c542947e1f228002c769057,45.5459789,3.2489493,Harmonie Mutuelle,63500,503287a291d4c4b30a586d65,Financial or Legal Service,Auvergne-Rhône-Alpes
4,"[{'id': '503287a291d4c4b30a586d65', 'name': 'Financial or Legal Service', 'pluralName': 'Financial or Legal Services', 'shortName': 'Financial / Legal', 'icon': {'prefix': 'https://ss3.4sqi.net/img/categories_v2/shops/financial_', 'suffix': '.png'}, 'primary': True}]",,FR,,France,58483d30db6cd628a6d761f3,45.54594,3.24856,Allianz Didier Veissiere,63500,503287a291d4c4b30a586d65,Financial or Legal Service,Auvergne
10,"[{'id': '4bf58dd8d48988d10a951735', 'name': 'Bank', 'pluralName': 'Banks', 'shortName': 'Bank', 'icon': {'prefix': 'https://ss3.4sqi.net/img/categories_v2/shops/financial_', 'suffix': '.png'}, 'primary': True}]",,FR,,France,59799dfa065ef514ac7a01f0,45.54332,3.2466,LCL Banque et assurance,63500,4bf58dd8d48988d10a951735,Bank,Auvergne
11,"[{'id': '503287a291d4c4b30a586d65', 'name': 'Financial or Legal Service', 'pluralName': 'Financial or Legal Services', 'shortName': 'Financial / Legal', 'icon': {'prefix': 'https://ss3.4sqi.net/img/categories_v2/shops/financial_', 'suffix': '.png'}, 'primary': True}]",,FR,,France,507c19f7cc64f9c2424fe113,45.5504261,3.2504253,MAAF Assurances,63500,503287a291d4c4b30a586d65,Financial or Legal Service,Auvergne-Rhône-Alpes
12,"[{'id': '503287a291d4c4b30a586d65', 'name': 'Financial or Legal Service', 'pluralName': 'Financial or Legal Services', 'shortName': 'Financial / Legal', 'icon': {'prefix': 'https://ss3.4sqi.net/img/categories_v2/shops/financial_', 'suffix': '.png'}, 'primary': True}]",,FR,,France,5c542a0b628c83002ce48945,45.5464602,3.2503418,Harmonie Mutuelle,81500,503287a291d4c4b30a586d65,Financial or Legal Service,Auvergne-Rhône-Alpes
2,"[{'id': '503287a291d4c4b30a586d65', 'name': 'Financial or Legal Service', 'pluralName': 'Financial or Legal Services', 'shortName': 'Financial / Legal', 'icon': {'prefix': 'https://ss3.4sqi.net/img/categories_v2/shops/financial_', 'suffix': '.png'}, 'primary': True}]",,FR,,France,564223ca498e03ec9229bb41,46.0993037,3.198123799999962,ASSURANCE LAURENT MARTIN,03800,503287a291d4c4b30a586d65,Financial or Legal Service,Auvergne
0,"[{'id': '503287a291d4c4b30a586d65', 'name': 'Financial or Legal Service', 'pluralName': 'Financial or Legal Services', 'shortName': 'Financial / Legal', 'icon': {'prefix': 'https://ss3.4sqi.net/img/categories_v2/shops/financial_', 'suffix': '.png'}, 'primary': True}]",,FR,,France,5aa55b71c0cacb22a5213eb5,45.74127088,3.16159762,Arverne Conseil,63800,503287a291d4c4b30a586d65,Financial or Legal Service,Auvergne-Rhône-Alpes
1,"[{'id': '503287a291d4c4b30a586d65', 'name': 'Financial or Legal Service', 'pluralName': 'Financial or Legal Services', 'shortName': 'Financial / Legal', 'icon': {'prefix': 'https://ss3.4sqi.net/img/categories_v2/shops/financial_', 'suffix': '.png'}, 'primary': True}]",,FR,,France,5a82e627112c6c0c3f543ef5,45.7318211,3.19092355,Eovi Mcd mutuelle,63800,503287a291d4c4b30a586d65,Financial or Legal Service,Auvergne-Rhône-Alpes
2,"[{'id': '503287a291d4c4b30a586d65', 'name': 'Financial or Legal Service', 'pluralName': 'Financial or Legal Services', 'shortName': 'Financial / Legal', 'icon': {'prefix': 'https://ss3.4sqi.net/img/categories_v2/shops/financial_', 'suffix': '.png'}, 'primary': True}]",,FR,,France,5c542acc92e7a9002c9d61c2,45.7314141,3.191515,Harmonie Mutuelle,63800,503287a291d4c4b30a586d65,Financial or Legal Service,Auvergne-Rhône-Alpes
3,"[{'id': '4bf58dd8d48988d10a951735', 'name': 'Bank', 'pluralName': 'Banks', 'shortName': 'Bank', 'icon': {'prefix': 'https://ss3.4sqi.net/img/categories_v2/shops/financial_', 'suffix': '.png'}, 'primary': True}]",,FR,,France,59799df509e283636c97fc8e,45.73962,3.19726,LCL Banque et assurance,63800,4bf58dd8d48988d10a951735,Bank,
0,"[{'id': '503287a291d4c4b30a586d65', 'name': 'Financial or Legal Service', 'pluralName': 'Financial or Legal Services', 'shortName': 'Financial / Legal', 'icon': {'prefix': 'https://ss3.4sqi.net/img/categories_v2/shops/financial_', 'suffix': '.png'}, 'primary': True}]",,FR,,France,5b3f1a530d173f0039dea2dc,45.83678652,3.12355015,JBC Industrie,63118,503287a291d4c4b30a586d65,Financial or Legal Service,Auvergne-Rhône-Alpes
1,"[{'id': '4bf58dd8d48988d104941735', 'name': 'Medical Center', 'pluralName': 'Medical Centers', 'shortName': 'Medical', 'icon': {'prefix': 'https://ss3.4sqi.net/img/categories_v2/building/medical_', 'suffix': '.png'}, 'primary': True}]",,FR,,France,5a4b571fdee77009c7ea9e7a,45.8693757,3.2219595,Stéphanie GOIGOUX,63720,4bf58dd8d48988d104941735,Medical Center,Auvergne-Rhône-Alpes
40,"[{'id': '4bf58dd8d48988d10a951735', 'name': 'Bank', 'pluralName': 'Banks', 'shortName': 'Bank', 'icon': {'prefix': 'https://ss3.4sqi.net/img/categories_v2/shops/financial_', 'suffix': '.png'}, 'primary': True}]",,FR,,France,596537e64f0e587a1fcefe52,45.75244,3.08255,LCL Banque et assurance,63110,4bf58dd8d48988d10a951735,Bank,Auvergne
41,"[{'id': '503287a291d4c4b30a586d65', 'name': 'Financial or Legal Service', 'pluralName': 'Financial or Legal Services', 'shortName': 'Financial / Legal', 'icon': {'prefix': 'https://ss3.4sqi.net/img/categories_v2/shops/financial_', 'suffix': '.png'}, 'primary': True}]",,FR,,France,5c542a6dc58ed7002d04a2b3,45.7607965,3.0888488,Harmonie Mutuelle,63000,503287a291d4c4b30a586d65,Financial or Legal Service,Auvergne-Rhône-Alpes
44,"[{'id': '503287a291d4c4b30a586d65', 'name': 'Financial or Legal Service', 'pluralName': 'Financial or Legal Services', 'shortName': 'Financial / Legal', 'icon': {'prefix': 'https://ss3.4sqi.net/img/categories_v2/shops/financial_', 'suffix': '.png'}, 'primary': True}]",,FR,,France,5c6d5678a6031c002c8ce71b,45.77527605,3.0798072,CVS Assurances,63000,503287a291d4c4b30a586d65,Financial or Legal Service,Auvergne-Rhône-Alpes
45,"[{'id': '4bf58dd8d48988d13b941735', 'name': 'School', 'pluralName': 'Schools', 'shortName': 'School', 'icon': {'prefix': 'https://ss3.4sqi.net/img/categories_v2/building/school_', 'suffix': '.png'}, 'primary': True}]",,FR,,France,58bd8532af7d17615e8ce546,45.75479509,3.09784432,Sens de Vie,63110,4bf58dd8d48988d13b941735,School,Auvergne-Rhône-Alpes
35,"[{'id': '503287a291d4c4b30a586d65', 'name': 'Financial or Legal Service', 'pluralName': 'Financial or Legal Services', 'shortName': 'Financial / Legal', 'icon': {'prefix': 'https://ss3.4sqi.net/img/categories_v2/shops/financial_', 'suffix': '.png'}, 'primary': True}]",,FR,,France,5c542952a35dce002c167924,45.8300878,3.1054434,Harmonie Mutuelle,63118,503287a291d4c4b30a586d65,Financial or Legal Service,Auvergne-Rhône-Alpes
1,"[{'id': '503287a291d4c4b30a586d65', 'name': 'Financial or Legal Service', 'pluralName': 'Financial or Legal Services', 'shortName': 'Financial / Legal', 'icon': {'prefix': 'https://ss3.4sqi.net/img/categories_v2/shops/financial_', 'suffix': '.png'}, 'primary': True}]",,FR,,France,5a56530267af3a710a720a6d,45.89788013,3.22415661,Axa Beaujard Patrice Agent général,63720,503287a291d4c4b30a586d65,Financial or Legal Service,Auvergne-Rhône-Alpes
0,"[{'id': '503287a291d4c4b30a586d65', 'name': 'Financial or Legal Service', 'pluralName': 'Financial or Legal Services', 'shortName': 'Financial / Legal', 'icon': {'prefix': 'https://ss3.4sqi.net/img/categories_v2/shops/financial_', 'suffix': '.png'}, 'primary': True}]",,FR,,France,5a8c0e9afdb9a74c88244c63,45.41359271,3.33155204,Eovi Mcd mutuelle,63570,503287a291d4c4b30a586d65,Financial or Legal Service,Auvergne-Rhône-Alpes
38,"[{'id': '4bf58dd8d48988d1ff941735', 'name': 'Miscellaneous Shop', 'pluralName': 'Miscellaneous Shops', 'shortName': 'Shop', 'icon': {'prefix': 'https://ss3.4sqi.net/img/categories_v2/shops/default_', 'suffix': '.png'}, 'primary': True}]",,FR,,France,5b07c73f88a48b002487034a,45.8228742,3.0489465,Carole Martel El Mehdaoui - Femmes du Peuple,63530,4bf58dd8d48988d1ff941735,Miscellaneous Shop,Auvergne-Rhône-Alpes
0,"[{'id': '503287a291d4c4b30a586d65', 'name': 'Financial or Legal Service', 'pluralName': 'Financial or Legal Services', 'shortName': 'Financial / Legal', 'icon': {'prefix': 'https://ss3.4sqi.net/img/categories_v2/shops/financial_', 'suffix': '.png'}, 'primary': True}]",,FR,,France,589c719b01f077670a8439a9,46.16905318,3.29534143,Desgouttes Didier,03110,503287a291d4c4b30a586d65,Financial or Legal Service,Auvergne-Rhône-Alpes
0,"[{'id': '52f2ab2ebcbc57f1066b8b3f', 'name': 'Lawyer', 'pluralName': 'Lawyers', 'shortName': 'Lawyer', 'icon': {'prefix': 'https://ss3.4sqi.net/img/categories_v2/education/lawschool_', 'suffix': '.png'}, 'primary': True}]",,FR,,France,59157dd24a7aae486ec0f994,45.77957503633593,3.0710649490356445,Avocat Droit Public Teillot & Associés,63400,52f2ab2ebcbc57f1066b8b3f,Lawyer,Auvergne
2,"[{'id': '52f2ab2ebcbc57f1066b8b3f', 'name': 'Lawyer', 'pluralName': 'Lawyers', 'shortName': 'Lawyer', 'icon': {'prefix': 'https://ss3.4sqi.net/img/categories_v2/education/lawschool_', 'suffix': '.png'}, 'primary': True}]",,FR,,France,58499636c960272aec2ab316,45.790511,3.067127,Cesis avocats,63100,52f2ab2ebcbc57f1066b8b3f,Lawyer,Auvergne
3,"[{'id': '52f2ab2ebcbc57f1066b8b3f', 'name': 'Lawyer', 'pluralName': 'Lawyers', 'shortName': 'Lawyer', 'icon': {'prefix': 'https://ss3.4sqi.net/img/categories_v2/education/lawschool_', 'suffix': '.png'}, 'primary': True}]",,FR,,France,5713b1d6498eb7fd79d48d47,45.77748932294886,3.0783688305820855,SCP Freydefont - Laloy,63000,52f2ab2ebcbc57f1066b8b3f,Lawyer,Auvergne
4,"[{'id': '52f2ab2ebcbc57f1066b8b3f', 'name': 'Lawyer', 'pluralName': 'Lawyers', 'shortName': 'Lawyer', 'icon': {'prefix': 'https://ss3.4sqi.net/img/categories_v2/education/lawschool_', 'suffix': '.png'}, 'primary': True}]",,FR,,France,5b31d0c93af988002c97e262,45.7805113,3.0815392,Dompierre Nadia,63000,52f2ab2ebcbc57f1066b8b3f,Lawyer,Auvergne-Rhône-Alpes
0,"[{'id': '52f2ab2ebcbc57f1066b8b3f', 'name': 'Lawyer', 'pluralName': 'Lawyers', 'shortName': 'Lawyer', 'icon': {'prefix': 'https://ss3.4sqi.net/img/categories_v2/education/lawschool_', 'suffix': '.png'}, 'primary': True}]",,FR,,France,5a18035114994629b4bf17ca,45.8571437,3.5500566,Thérond-Lapeyre Patrick,63300,52f2ab2ebcbc57f1066b8b3f,Lawyer,Auvergne-Rhône-Alpes
0,"[{'id': '52f2ab2ebcbc57f1066b8b3f', 'name': 'Lawyer', 'pluralName': 'Lawyers', 'shortName': 'Lawyer', 'icon': {'prefix': 'https://ss3.4sqi.net/img/categories_v2/education/lawschool_', 'suffix': '.png'}, 'primary': True}]",,FR,,France,5b1253de088158002c5dd5cf,45.89334463,3.11826116,Paret Christine,63200,52f2ab2ebcbc57f1066b8b3f,Lawyer,Auvergne-Rhône-Alpes
0,"[{'id': '5744ccdfe4b0c0459246b4d6', 'name': 'Laboratory', 'pluralName': 'Laboratories', 'shortName': 'Laboratory', 'icon': {'prefix': 'https://ss3.4sqi.net/img/categories_v2/education/lab_', 'suffix': '.png'}, 'primary': True}]",,FR,,France,5a1577d198fbfc59100eff0b,45.78319,3.133657,Noreva Laboratoires,,5744ccdfe4b0c0459246b4d6,Laboratory,Auvergne
1,"[{'id': '5744ccdfe4b0c0459246b4d6', 'name': 'Laboratory', 'pluralName': 'Laboratories', 'shortName': 'Laboratory', 'icon': {'prefix': 'https://ss3.4sqi.net/img/categories_v2/education/lab_', 'suffix': '.png'}, 'primary': True}]",,FR,,France,5bbd0db067f62b00392dde02,45.79020922,3.11176569,Chantal Bontemps Sophrologue,63100,5744ccdfe4b0c0459246b4d6,Laboratory,Auvergne-Rhône-Alpes
2,"[{'id': '5744ccdfe4b0c0459246b4d6', 'name': 'Laboratory', 'pluralName': 'Laboratories', 'shortName': 'Laboratory', 'icon': {'prefix': 'https://ss3.4sqi.net/img/categories_v2/education/lab_', 'suffix': '.png'}, 'primary': True}]",,FR,,France,57527e32498e1ca645e7b5b3,45.770653,3.0811536,Cabinet De Neurologie,63000,5744ccdfe4b0c0459246b4d6,Laboratory,Auvergne
0,"[{'id': '5744ccdfe4b0c0459246b4d6', 'name': 'Laboratory', 'pluralName': 'Laboratories', 'shortName': 'Laboratory', 'icon': {'prefix': 'https://ss3.4sqi.net/img/categories_v2/education/lab_', 'suffix': '.png'}, 'primary': True}]",,FR,,France,57a81ba8498ef5164cfacb2b,46.1268,3.423043,Laboratoire Bioval,,5744ccdfe4b0c0459246b4d6,Laboratory,
0,"[{'id': '5744ccdfe4b0c0459246b4d6', 'name': 'Laboratory', 'pluralName': 'Laboratories', 'shortName': 'Laboratory', 'icon': {'prefix': 'https://ss3.4sqi.net/img/categories_v2/education/lab_', 'suffix': '.png'}, 'primary': True}]",,FR,,France,5aa9009078782c37fbf686f8,45.54238594,3.24734713,Cécile Sauvadet Coupat,63500,5744ccdfe4b0c0459246b4d6,Laboratory,Auvergne-Rhône-Alpes
