,categories,categoriesList,cc,city,country,id,lat,lng,name,postalCode,primary_category_id,primary_category_name,state
0,"[{'id': '4bf58dd8d48988d125941735', 'name': 'Tech Startup', 'pluralName': 'Tech Startups', 'shortName': 'Tech Startup', 'icon': {'prefix': 'https://ss3.4sqi.net/img/categories_v2/shops/technology_', 'suffix': '.png'}, 'primary': True}]",,FR,,France,4ee529c1b8f790fe4078eaa2,45.743699951202146,4.873070873581951,Infra | Net HQ,,4bf58dd8d48988d125941735,Tech Startup,
1,"[{'id': '4bf58dd8d48988d125941735', 'name': 'Tech Startup', 'pluralName': 'Tech Startups', 'shortName': 'Tech Startup', 'icon': {'prefix': 'https://ss3.4sqi.net/img/categories_v2/shops/technology_', 'suffix': '.png'}, 'primary': True}]",,FR,,France,5a1e7bbf916bc14874b8a4e6,45.760585,4.850215,Michelin Connected,69003,4bf58dd8d48988d125941735,Tech Startup,Rhône-Alpes
2,"[{'id': '4bf58dd8d48988d125941735', 'name': 'Tech Startup', 'pluralName': 'Tech Startups', 'shortName': 'Tech Startup', 'icon': {'prefix': 'https://ss3.4sqi.net/img/categories_v2/shops/technology_', 'suffix': '.png'}, 'primary': True}]",,FR,,France,5714ced7498e562ea4ec86c5,45.78671383751634,4.813813987835265,Keyrus,,4bf58dd8d48988d125941735,Tech Startup,
3,"[{'id': '4bf58dd8d48988d125941735', 'name': 'Tech Startup', 'pluralName': 'Tech Startups', 'shortName': 'Tech Startup', 'icon': {'prefix': 'https://ss3.4sqi.net/img/categories_v2/shops/technology_', 'suffix': '.png'}, 'primary': True}]",,FR,,France,589c8ccdce66aa29febc8919,45.759007,4.835032,Axeleo,,4bf58dd8d48988d125941735,Tech Startup,Rhône-Alpes
4,"[{'id': '4bf58dd8d48988d125941735', 'name': 'Tech Startup', 'pluralName': 'Tech Startups', 'shortName': 'Tech Startup', 'icon': {'prefix': 'https://ss3.4sqi.net/img/categories_v2/shops/technology_', 'suffix': '.png'}, 'primary': True}]",,FR,,France,51fb5e6d501912e0811e6dd2,45.76644097778441,4.83601211449281,Insign,69001,4bf58dd8d48988d125941735,Tech Startup,Rhône-Alpes
5,"[{'id': '4bf58dd8d48988d125941735', 'name': 'Tech Startup', 'pluralName': 'Tech Startups', 'shortName': 'Tech Startup', 'icon': {'prefix': 'https://ss3.4sqi.net/img/categories_v2/shops/technology_', 'suffix': '.png'}, 'primary': True}]",,FR,,France,5495763e498e4b6250061f43,45.76026867228369,4.858823339521194,TUBA,69003,4bf58dd8d48988d125941735,Tech Startup,Rhône-Alpes
6,"[{'id': '4bf58dd8d48988d125941735', 'name': 'Tech Startup', 'pluralName': 'Tech Startups', 'shortName': 'Tech Startup', 'icon': {'prefix': 'https://ss3.4sqi.net/img/categories_v2/shops/technology_', 'suffix': '.png'}, 'primary': True}]",,FR,,France,544f5122498e45ba30399c2b,45.76540883399915,4.836600661260549,Lelivrescolaire.fr,69002,4bf58dd8d48988d125941735,Tech Startup,Rhône-Alpes
7,"[{'id': '4bf58dd8d48988d125941735', 'name': 'Tech Startup', 'pluralName': 'Tech Startups', 'shortName': 'Tech Startup', 'icon': {'prefix': 'https://ss3.4sqi.net/img/categories_v2/shops/technology_', 'suffix': '.png'}, 'primary': True}]",,FR,,France,534e7e83498e4691bfa2c186,45.77250772316884,4.804731825085835,Reputation vip,69009,4bf58dd8d48988d125941735,Tech Startup,Rhône-Alpes
8,"[{'id': '4bf58dd8d48988d124941735', 'name': 'Office', 'pluralName': 'Offices', 'shortName': 'Office', 'icon': {'prefix': 'https://ss3.4sqi.net/img/categories_v2/building/default_', 'suffix': '.png'}, 'primary': True}]",,FR,,France,4bf5015d94af2d7f6c323b72,45.743120078308145,4.840501589387319,M6 Web,69007,4bf58dd8d48988d124941735,Office,Rhône-Alpes
9,"[{'id': '4bf58dd8d48988d125941735', 'name': 'Tech Startup', 'pluralName': 'Tech Startups', 'shortName': 'Tech Startup', 'icon': {'prefix': 'https://ss3.4sqi.net/img/categories_v2/shops/technology_', 'suffix': '.png'}, 'primary': True}]",,FR,,France,4eb662456da1df9ffae3ae29,45.76379082,4.826468,The Office,,4bf58dd8d48988d125941735,Tech Startup,Rhône-Alpes
10,"[{'id': '4bf58dd8d48988d125941735', 'name': 'Tech Startup', 'pluralName': 'Tech Startups', 'shortName': 'Tech Startup', 'icon': {'prefix': 'https://ss3.4sqi.net/img/categories_v2/shops/technology_', 'suffix': '.png'}, 'primary': True}]",,FR,,France,4dd0cef422718eed7a71a7e5,45.772078,4.843075,HumanSourcing,,4bf58dd8d48988d125941735,Tech Startup,RA
11,"[{'id': '4bf58dd8d48988d125941735', 'name': 'Tech Startup', 'pluralName': 'Tech Startups', 'shortName': 'Tech Startup', 'icon': {'prefix': 'https://ss3.4sqi.net/img/categories_v2/shops/technology_', 'suffix': '.png'}, 'primary': True}]",,FR,,France,52b46f7a11d211f5a13166b4,45.753628338010984,4.838875488002729,MG CONSULTING,69007,4bf58dd8d48988d125941735,Tech Startup,Rhône-Alpes
12,"[{'id': '4bf58dd8d48988d125941735', 'name': 'Tech Startup', 'pluralName': 'Tech Startups', 'shortName': 'Tech Startup', 'icon': {'prefix': 'https://ss3.4sqi.net/img/categories_v2/shops/technology_', 'suffix': '.png'}, 'primary': True}]",,FR,,France,4cc948e95c17b60cff0a0805,45.759075,4.872483,Audros,,4bf58dd8d48988d125941735,Tech Startup,Rhône-Alpes
13,"[{'id': '4bf58dd8d48988d125941735', 'name': 'Tech Startup', 'pluralName': 'Tech Startups', 'shortName': 'Tech Startup', 'icon': {'prefix': 'https://ss3.4sqi.net/img/categories_v2/shops/technology_', 'suffix': '.png'}, 'primary': True}]",,FR,,France,4e7b20b0887783148edc8387,45.78303732773958,4.808850695580899,Webformance,,4bf58dd8d48988d125941735,Tech Startup,
14,"[{'id': '4bf58dd8d48988d125941735', 'name': 'Tech Startup', 'pluralName': 'Tech Startups', 'shortName': 'Tech Startup', 'icon': {'prefix': 'https://ss3.4sqi.net/img/categories_v2/shops/technology_', 'suffix': '.png'}, 'primary': True}]",,FR,,France,4e7491ff483b0cf5ec55c0dd,45.76001739501953,4.833057403564453,ISVTEC,,4bf58dd8d48988d125941735,Tech Startup,
15,"[{'id': '4bf58dd8d48988d125941735', 'name': 'Tech Startup', 'pluralName': 'Tech Startups', 'shortName': 'Tech Startup', 'icon': {'prefix': 'https://ss3.4sqi.net/img/categories_v2/shops/technology_', 'suffix': '.png'}, 'primary': True}]",,FR,,France,4f6b2533e4b0a9c2c162bb87,45.72899765525757,4.844802048561198,V3D,69007,4bf58dd8d48988d125941735,Tech Startup,Rhône-Alpes
16,"[{'id': '4bf58dd8d48988d125941735', 'name': 'Tech Startup', 'pluralName': 'Tech Startups', 'shortName': 'Tech Startup', 'icon': {'prefix': 'https://ss3.4sqi.net/img/categories_v2/shops/technology_', 'suffix': '.png'}, 'primary': True}]",,FR,,France,51a35f5a498e04232396dedc,45.739753,4.851777,Yokogawa,,4bf58dd8d48988d125941735,Tech Startup,
17,"[{'id': '4bf58dd8d48988d125941735', 'name': 'Tech Startup', 'pluralName': 'Tech Startups', 'shortName': 'Tech Startup', 'icon': {'prefix': 'https://ss3.4sqi.net/img/categories_v2/shops/technology_', 'suffix': '.png'}, 'primary': True}]",,FR,,France,4c34927d3896e21e58bbeb90,45.776465,4.867863,Novius Lab,,4bf58dd8d48988d125941735,Tech Startup,
18,"[{'id': '4bf58dd8d48988d125941735', 'name': 'Tech Startup', 'pluralName': 'Tech Startups', 'shortName': 'Tech Startup', 'icon': {'prefix': 'https://ss3.4sqi.net/img/categories_v2/shops/technology_', 'suffix': '.png'}, 'primary': True}]",,FR,,France,4f86c134e4b0af4fd03fad79,45.75813963098769,4.858360918180866,Capseo,69003,4bf58dd8d48988d125941735,Tech Startup,Rhône-Alpes
19,"[{'id': '4bf58dd8d48988d125941735', 'name': 'Tech Startup', 'pluralName': 'Tech Startups', 'shortName': 'Tech Startup', 'icon': {'prefix': 'https://ss3.4sqi.net/img/categories_v2/shops/technology_', 'suffix': '.png'}, 'primary': True}]",,FR,,France,4e0d84f145ddc2c6d16e741e,45.76300701666667,4.835341033333333,La Maison Du Web,69002,4bf58dd8d48988d125941735,Tech Startup,Rhône-Alpes
20,"[{'id': '4bf58dd8d48988d125941735', 'name': 'Tech Startup', 'pluralName': 'Tech Startups', 'shortName': 'Tech Startup', 'icon': {'prefix': 'https://ss3.4sqi.net/img/categories_v2/shops/technology_', 'suffix': '.png'}, 'primary': True}]",,FR,,France,5100e73ce4b0a24b489d90e4,45.774463,4.845521,Erase Studio,,4bf58dd8d48988d125941735,Tech Startup,
21,"[{'id': '4bf58dd8d48988d125941735', 'name': 'Tech Startup', 'pluralName': 'Tech Startups', 'shortName': 'Tech Startup', 'icon': {'prefix': 'https://ss3.4sqi.net/img/categories_v2/shops/technology_', 'suffix': '.png'}, 'primary': True}]",,FR,,France,526104a2498e1058b37fbb68,45.76183473430851,4.876835346221923,Bilans-Thermiques.fr : Diagnostics par Thermographie Infrarouge,69100,4bf58dd8d48988d125941735,Tech Startup,Rhône-Alpes
22,"[{'id': '4bf58dd8d48988d125941735', 'name': 'Tech Startup', 'pluralName': 'Tech Startups', 'shortName': 'Tech Startup', 'icon': {'prefix': 'https://ss3.4sqi.net/img/categories_v2/shops/technology_', 'suffix': '.png'}, 'primary': True}]",,FR,,France,4ff462f8e4b0b8fda8de6e3e,45.752596258575736,4.838594184946079,Architecture,69007,4bf58dd8d48988d125941735,Tech Startup,Rhône-Alpes
23,"[{'id': '4bf58dd8d48988d125941735', 'name': 'Tech Startup', 'pluralName': 'Tech Startups', 'shortName': 'Tech Startup', 'icon': {'prefix': 'https://ss3.4sqi.net/img/categories_v2/shops/technology_', 'suffix': '.png'}, 'primary': True}]",,FR,,France,4ee5c71c0e011d5247658c15,45.771947487222704,4.871947580655791,ELB Group.,69100,4bf58dd8d48988d125941735,Tech Startup,Rhône-Alpes
24,"[{'id': '4bf58dd8d48988d125941735', 'name': 'Tech Startup', 'pluralName': 'Tech Startups', 'shortName': 'Tech Startup', 'icon': {'prefix': 'https://ss3.4sqi.net/img/categories_v2/shops/technology_', 'suffix': '.png'}, 'primary': True}]",,FR,,France,52a1ee7e11d28bcd94370f9d,45.74871791779557,4.8624708282977736,Mutuelle.fr : Purconseil,69003,4bf58dd8d48988d125941735,Tech Startup,Rhône-Alpes
25,"[{'id': '4bf58dd8d48988d125941735', 'name': 'Tech Startup', 'pluralName': 'Tech Startups', 'shortName': 'Tech Startup', 'icon': {'prefix': 'https://ss3.4sqi.net/img/categories_v2/shops/technology_', 'suffix': '.png'}, 'primary': True}]",,FR,,France,58ef71d70868a241860a5321,45.75102550351398,4.84021782875061,Pockero HQ,69003,4bf58dd8d48988d125941735,Tech Startup,Rhône-Alpes
26,"[{'id': '4bf58dd8d48988d125941735', 'name': 'Tech Startup', 'pluralName': 'Tech Startups', 'shortName': 'Tech Startup', 'icon': {'prefix': 'https://ss3.4sqi.net/img/categories_v2/shops/technology_', 'suffix': '.png'}, 'primary': True}]",,FR,,France,4ce4f3ae4039b60cb6dfc306,45.740005,4.814451,EG Digital,69002,4bf58dd8d48988d125941735,Tech Startup,Rhône-Alpes
27,"[{'id': '4d954b06a243a5684965b473', 'name': 'Residential Building (Apartment / Condo)', 'pluralName': 'Residential Buildings (Apartments / Condos)', 'shortName': 'Residential', 'icon': {'prefix': 'https://ss3.4sqi.net/img/categories_v2/building/apartment_', 'suffix': '.png'}, 'primary': True}]",,FR,,France,4c4c852a6e209521b8f050ec,45.76838363031525,4.875880479812622,Damien Clauzel,69100,4d954b06a243a5684965b473,Residential Building (Apartment / Condo),Rhône-Alpes
28,"[{'id': '4bf58dd8d48988d125941735', 'name': 'Tech Startup', 'pluralName': 'Tech Startups', 'shortName': 'Tech Startup', 'icon': {'prefix': 'https://ss3.4sqi.net/img/categories_v2/shops/technology_', 'suffix': '.png'}, 'primary': True}]",,FR,,France,51628e29e4b0999e50b66edc,45.76073347058306,4.862293721598131,Presse Agrumes,69003,4bf58dd8d48988d125941735,Tech Startup,Rhône-Alpes
29,"[{'id': '4bf58dd8d48988d125941735', 'name': 'Tech Startup', 'pluralName': 'Tech Startups', 'shortName': 'Tech Startup', 'icon': {'prefix': 'https://ss3.4sqi.net/img/categories_v2/shops/technology_', 'suffix': '.png'}, 'primary': True}]",,FR,,France,4ff5b503e4b0a7f73ff3012a,45.75732876618193,4.778889387717948,AdvertStream,,4bf58dd8d48988d125941735,Tech Startup,
30,"[{'id': '4bf58dd8d48988d125941735', 'name': 'Tech Startup', 'pluralName': 'Tech Startups', 'shortName': 'Tech Startup', 'icon': {'prefix': 'https://ss3.4sqi.net/img/categories_v2/shops/technology_', 'suffix': '.png'}, 'primary': True}]",,FR,,France,5450e3f0498efe95d307e1b1,45.752326240261,4.827852845191956,percept-studio,69002,4bf58dd8d48988d125941735,Tech Startup,Rhône-Alpes
31,"[{'id': '4bf58dd8d48988d125941735', 'name': 'Tech Startup', 'pluralName': 'Tech Startups', 'shortName': 'Tech Startup', 'icon': {'prefix': 'https://ss3.4sqi.net/img/categories_v2/shops/technology_', 'suffix': '.png'}, 'primary': True}]",,FR,,France,567a80c6498e197706b4ed40,45.760141,4.835717,Applidium Lyon,,4bf58dd8d48988d125941735,Tech Startup,Rhône-Alpes
32,"[{'id': '4bf58dd8d48988d125941735', 'name': 'Tech Startup', 'pluralName': 'Tech Startups', 'shortName': 'Tech Startup', 'icon': {'prefix': 'https://ss3.4sqi.net/img/categories_v2/shops/technology_', 'suffix': '.png'}, 'primary': True}]",,FR,,France,50f95d9ae4b0b37f69564631,45.764209,4.834269,KRDS,69002,4bf58dd8d48988d125941735,Tech Startup,Rhône-Alpes
33,"[{'id': '4bf58dd8d48988d125941735', 'name': 'Tech Startup', 'pluralName': 'Tech Startups', 'shortName': 'Tech Startup', 'icon': {'prefix': 'https://ss3.4sqi.net/img/categories_v2/shops/technology_', 'suffix': '.png'}, 'primary': True}]",,FR,,France,4bd5a81acfa7b713331f26da,45.771143,4.863623,Ir&l,,4bf58dd8d48988d125941735,Tech Startup,
34,"[{'id': '4bf58dd8d48988d125941735', 'name': 'Tech Startup', 'pluralName': 'Tech Startups', 'shortName': 'Tech Startup', 'icon': {'prefix': 'https://ss3.4sqi.net/img/categories_v2/shops/technology_', 'suffix': '.png'}, 'primary': True}]",,FR,,France,574d9794498eccc42b062dd7,45.759233,4.867214,Bigpoint Lyon,69003,4bf58dd8d48988d125941735,Tech Startup,Rhône-Alpes
35,"[{'id': '4bf58dd8d48988d125941735', 'name': 'Tech Startup', 'pluralName': 'Tech Startups', 'shortName': 'Tech Startup', 'icon': {'prefix': 'https://ss3.4sqi.net/img/categories_v2/shops/technology_', 'suffix': '.png'}, 'primary': True}]",,FR,,France,50aca256e4b03e5da3a870da,45.786685,4.812662,Arkoon,,4bf58dd8d48988d125941735,Tech Startup,
36,"[{'id': '4bf58dd8d48988d125941735', 'name': 'Tech Startup', 'pluralName': 'Tech Startups', 'shortName': 'Tech Startup', 'icon': {'prefix': 'https://ss3.4sqi.net/img/categories_v2/shops/technology_', 'suffix': '.png'}, 'primary': True}]",,FR,,France,52986c3311d22f0039177e36,45.77477,4.875027,Wakineo,,4bf58dd8d48988d125941735,Tech Startup,
37,"[{'id': '4bf58dd8d48988d125941735', 'name': 'Tech Startup', 'pluralName': 'Tech Startups', 'shortName': 'Tech Startup', 'icon': {'prefix': 'https://ss3.4sqi.net/img/categories_v2/shops/technology_', 'suffix': '.png'}, 'primary': True}]",,FR,,France,4f546eb0e4b0ac6d0e38a948,45.78310052016315,4.815600925367327,Berger-Levrault,69009,4bf58dd8d48988d125941735,Tech Startup,Rhône-Alpes
38,"[{'id': '4bf58dd8d48988d125941735', 'name': 'Tech Startup', 'pluralName': 'Tech Startups', 'shortName': 'Tech Startup', 'icon': {'prefix': 'https://ss3.4sqi.net/img/categories_v2/shops/technology_', 'suffix': '.png'}, 'primary': True}]",,FR,,France,4ebbd995722e58fca0542625,45.761576504940564,4.868515133857727,bsoft.fr,69003,4bf58dd8d48988d125941735,Tech Startup,Rhône-Alpes
39,"[{'id': '4bf58dd8d48988d125941735', 'name': 'Tech Startup', 'pluralName': 'Tech Startups', 'shortName': 'Tech Startup', 'icon': {'prefix': 'https://ss3.4sqi.net/img/categories_v2/shops/technology_', 'suffix': '.png'}, 'primary': True}]",,FR,,France,4b9f55a1f964a520261d37e3,45.775426,4.820786,Ho2C,69004,4bf58dd8d48988d125941735,Tech Startup,Rhône-Alpes
40,"[{'id': '4bf58dd8d48988d125941735', 'name': 'Tech Startup', 'pluralName': 'Tech Startups', 'shortName': 'Tech Startup', 'icon': {'prefix': 'https://ss3.4sqi.net/img/categories_v2/shops/technology_', 'suffix': '.png'}, 'primary': True}]",,FR,,France,524d9b4c11d284e7301f4a3e,45.792264,4.819464,HUME Network,69009,4bf58dd8d48988d125941735,Tech Startup,Rhône-Alpes
41,"[{'id': '4bf58dd8d48988d125941735', 'name': 'Tech Startup', 'pluralName': 'Tech Startups', 'shortName': 'Tech Startup', 'icon': {'prefix': 'https://ss3.4sqi.net/img/categories_v2/shops/technology_', 'suffix': '.png'}, 'primary': True}]",,FR,,France,5216052b11d28592df1357cb,45.75505,4.84418,Peaks,,4bf58dd8d48988d125941735,Tech Startup,
42,"[{'id': '4bf58dd8d48988d125941735', 'name': 'Tech Startup', 'pluralName': 'Tech Startups', 'shortName': 'Tech Startup', 'icon': {'prefix': 'https://ss3.4sqi.net/img/categories_v2/shops/technology_', 'suffix': '.png'}, 'primary': True}]",,FR,,France,4ea901b26da1bfeaab443c23,45.72466158748001,4.8412918698325935,Ep Factory,69007,4bf58dd8d48988d125941735,Tech Startup,Rhône-Alpes
43,"[{'id': '4bf58dd8d48988d125941735', 'name': 'Tech Startup', 'pluralName': 'Tech Startups', 'shortName': 'Tech Startup', 'icon': {'prefix': 'https://ss3.4sqi.net/img/categories_v2/shops/technology_', 'suffix': '.png'}, 'primary': True}]",,FR,,France,4fce0bbde4b032142f7eccf2,45.772949373700335,4.838449546507266,idetop,69001,4bf58dd8d48988d125941735,Tech Startup,Rhône-Alpes
44,"[{'id': '4bf58dd8d48988d125941735', 'name': 'Tech Startup', 'pluralName': 'Tech Startups', 'shortName': 'Tech Startup', 'icon': {'prefix': 'https://ss3.4sqi.net/img/categories_v2/shops/technology_', 'suffix': '.png'}, 'primary': True}]",,FR,,France,506a7fc6e4b02bd540adbbae,45.73107536710551,4.829660405762916,ActivInnov,69007,4bf58dd8d48988d125941735,Tech Startup,Rhône-Alpes
45,"[{'id': '4bf58dd8d48988d125941735', 'name': 'Tech Startup', 'pluralName': 'Tech Startups', 'shortName': 'Tech Startup', 'icon': {'prefix': 'https://ss3.4sqi.net/img/categories_v2/shops/technology_', 'suffix': '.png'}, 'primary': True}]",,FR,,France,56fd10ed498e194cda009482,45.745988,4.835069,Applidium Lyon,,4bf58dd8d48988d125941735,Tech Startup,
46,"[{'id': '4bf58dd8d48988d125941735', 'name': 'Tech Startup', 'pluralName': 'Tech Startups', 'shortName': 'Tech Startup', 'icon': {'prefix': 'https://ss3.4sqi.net/img/categories_v2/shops/technology_', 'suffix': '.png'}, 'primary': True}]",,FR,,France,579722a6498e897c6bd0d1ec,45.77597938653282,4.847550988197327,Div'in IT,99999,4bf58dd8d48988d125941735,Tech Startup,World
47,"[{'id': '4bf58dd8d48988d125941735', 'name': 'Tech Startup', 'pluralName': 'Tech Startups', 'shortName': 'Tech Startup', 'icon': {'prefix': 'https://ss3.4sqi.net/img/categories_v2/shops/technology_', 'suffix': '.png'}, 'primary': True}]",,FR,,France,4e959d7a5c5ca8d363f799cc,45.762654680249156,4.854601542497418,Auxane Concept,69100,4bf58dd8d48988d125941735,Tech Startup,Rhône-Alpes
48,"[{'id': '4bf58dd8d48988d125941735', 'name': 'Tech Startup', 'pluralName': 'Tech Startups', 'shortName': 'Tech Startup', 'icon': {'prefix': 'https://ss3.4sqi.net/img/categories_v2/shops/technology_', 'suffix': '.png'}, 'primary': True}]",,FR,,France,513a1190e4b04559b331a6e7,45.73152489592939,4.829524141754062,Fluid Topics,69007,4bf58dd8d48988d125941735,Tech Startup,Rhône-Alpes
49,"[{'id': '4bf58dd8d48988d125941735', 'name': 'Tech Startup', 'pluralName': 'Tech Startups', 'shortName': 'Tech Startup', 'icon': {'prefix': 'https://ss3.4sqi.net/img/categories_v2/shops/technology_', 'suffix': '.png'}, 'primary': True}]",,FR,,France,51ad79a5498ef1a2206af198,45.76220823333375,4.835608300277133,Telamon,69002,4bf58dd8d48988d125941735,Tech Startup,Rhône-Alpes
0,"[{'id': '4bf58dd8d48988d125941735', 'name': 'Tech Startup', 'pluralName': 'Tech Startups', 'shortName': 'Tech Startup', 'icon': {'prefix': 'https://ss3.4sqi.net/img/categories_v2/shops/technology_', 'suffix': '.png'}, 'primary': True}]",,FR,,France,55365469498e7ac28c57518d,45.669892,4.910748,socotec,,4bf58dd8d48988d125941735,Tech Startup,
1,"[{'id': '4bf58dd8d48988d125941735', 'name': 'Tech Startup', 'pluralName': 'Tech Startups', 'shortName': 'Tech Startup', 'icon': {'prefix': 'https://ss3.4sqi.net/img/categories_v2/shops/technology_', 'suffix': '.png'}, 'primary': True}]",,FR,,France,4fd1ff98e4b096c7d30a8ca3,45.710713,4.860568,Dymension Studio,,4bf58dd8d48988d125941735,Tech Startup,
2,"[{'id': '4bf58dd8d48988d125941735', 'name': 'Tech Startup', 'pluralName': 'Tech Startups', 'shortName': 'Tech Startup', 'icon': {'prefix': 'https://ss3.4sqi.net/img/categories_v2/shops/technology_', 'suffix': '.png'}, 'primary': True}]",,FR,,France,50659043e4b02eba67365b35,45.72043851682148,4.858958367353015,SPIE Sud Est,,4bf58dd8d48988d125941735,Tech Startup,
8,"[{'id': '4bf58dd8d48988d125941735', 'name': 'Tech Startup', 'pluralName': 'Tech Startups', 'shortName': 'Tech Startup', 'icon': {'prefix': 'https://ss3.4sqi.net/img/categories_v2/shops/technology_', 'suffix': '.png'}, 'primary': True}]",,FR,,France,4f8beb80e4b0af04c2c26a4e,45.780993,4.896968,Genius Labs,,4bf58dd8d48988d125941735,Tech Startup,
29,"[{'id': '4bf58dd8d48988d125941735', 'name': 'Tech Startup', 'pluralName': 'Tech Startups', 'shortName': 'Tech Startup', 'icon': {'prefix': 'https://ss3.4sqi.net/img/categories_v2/shops/technology_', 'suffix': '.png'}, 'primary': True}]",,FR,,France,51839d7a498ed063afccbbad,45.75652024153844,4.898519999155995,Artilinki,69100,4bf58dd8d48988d125941735,Tech Startup,Rhône-Alpes
40,"[{'id': '4bf58dd8d48988d125941735', 'name': 'Tech Startup', 'pluralName': 'Tech Startups', 'shortName': 'Tech Startup', 'icon': {'prefix': 'https://ss3.4sqi.net/img/categories_v2/shops/technology_', 'suffix': '.png'}, 'primary': True}]",,FR,,France,4effb0c377c885c3359c2cc4,45.77565861542257,4.859741568001155,Arawak,69100,4bf58dd8d48988d125941735,Tech Startup,Rhône-Alpes
41,"[{'id': '4bf58dd8d48988d125941735', 'name': 'Tech Startup', 'pluralName': 'Tech Startups', 'shortName': 'Tech Startup', 'icon': {'prefix': 'https://ss3.4sqi.net/img/categories_v2/shops/technology_', 'suffix': '.png'}, 'primary': True}]",,FR,,France,4cdaa55f4006a143c602d3b2,45.77249237,4.838997,COBALT - Lighting Designer,69001,4bf58dd8d48988d125941735,Tech Startup,Rhône-Alpes
42,"[{'id': '4bf58dd8d48988d125941735', 'name': 'Tech Startup', 'pluralName': 'Tech Startups', 'shortName': 'Tech Startup', 'icon': {'prefix': 'https://ss3.4sqi.net/img/categories_v2/shops/technology_', 'suffix': '.png'}, 'primary': True}]",,FR,,France,4cb712bc589f236a84033c3d,45.74325414444444,4.84998765,FH Sarl,,4bf58dd8d48988d125941735,Tech Startup,
43,"[{'id': '4bf58dd8d48988d125941735', 'name': 'Tech Startup', 'pluralName': 'Tech Startups', 'shortName': 'Tech Startup', 'icon': {'prefix': 'https://ss3.4sqi.net/img/categories_v2/shops/technology_', 'suffix': '.png'}, 'primary': True}]",,FR,,France,4f5a753fe4b01014b8ef6f3b,45.77542852100504,4.8395357190125505,mix.dj HQ,69004,4bf58dd8d48988d125941735,Tech Startup,Rhône-Alpes
44,"[{'id': '4bf58dd8d48988d125941735', 'name': 'Tech Startup', 'pluralName': 'Tech Startups', 'shortName': 'Tech Startup', 'icon': {'prefix': 'https://ss3.4sqi.net/img/categories_v2/shops/technology_', 'suffix': '.png'}, 'primary': True}]",,FR,,France,4fdae84d6d869d7411164d3b,45.762830216049224,4.83747124671936,VariousAd,69002,4bf58dd8d48988d125941735,Tech Startup,Rhône-Alpes
45,"[{'id': '4bf58dd8d48988d125941735', 'name': 'Tech Startup', 'pluralName': 'Tech Startups', 'shortName': 'Tech Startup', 'icon': {'prefix': 'https://ss3.4sqi.net/img/categories_v2/shops/technology_', 'suffix': '.png'}, 'primary': True}]",,FR,,France,4d91f7c6270e6ea82bbb5eff,45.787432,4.909364,Kozea,69120,4bf58dd8d48988d125941735,Tech Startup,
46,"[{'id': '4bf58dd8d48988d125941735', 'name': 'Tech Startup', 'pluralName': 'Tech Startups', 'shortName': 'Tech Startup', 'icon': {'prefix': 'https://ss3.4sqi.net/img/categories_v2/shops/technology_', 'suffix': '.png'}, 'primary': True}]",,FR,,France,4f084ff9e4b026656e0cc440,45.74335316521578,4.870412389845866,L'As de pique,69008,4bf58dd8d48988d125941735,Tech Startup,Rhône-Alpes
47,"[{'id': '4bf58dd8d48988d125941735', 'name': 'Tech Startup', 'pluralName': 'Tech Startups', 'shortName': 'Tech Startup', 'icon': {'prefix': 'https://ss3.4sqi.net/img/categories_v2/shops/technology_', 'suffix': '.png'}, 'primary': True}]",,FR,,France,4d45e4fc14aa8cfa4847773d,45.777279,4.869467,WebActus Headquarter,69100,4bf58dd8d48988d125941735,Tech Startup,Rhône-Alpes
48,"[{'id': '4bf58dd8d48988d125941735', 'name': 'Tech Startup', 'pluralName': 'Tech Startups', 'shortName': 'Tech Startup', 'icon': {'prefix': 'https://ss3.4sqi.net/img/categories_v2/shops/technology_', 'suffix': '.png'}, 'primary': True}]",,FR,,France,4c4ec47ffb742d7fb9c5d02e,45.75775099999999,4.835466,Idep Multimédia,69002,4bf58dd8d48988d125941735,Tech Startup,Rhône-Alpes
49,"[{'id': '4bf58dd8d48988d125941735', 'name': 'Tech Startup', 'pluralName': 'Tech Startups', 'shortName': 'Tech Startup', 'icon': {'prefix': 'https://ss3.4sqi.net/img/categories_v2/shops/technology_', 'suffix': '.png'}, 'primary': True}]",,FR,,France,4de8bfd8e4cd157353fd035c,45.780694342836895,4.88828994064594,Ciril,69100,4bf58dd8d48988d125941735,Tech Startup,RA
0,"[{'id': '4bf58dd8d48988d125941735', 'name': 'Tech Startup', 'pluralName': 'Tech Startups', 'shortName': 'Tech Startup', 'icon': {'prefix': 'https://ss3.4sqi.net/img/categories_v2/shops/technology_', 'suffix': '.png'}, 'primary': True}]",,FR,,France,4d231871dd6a236a47f54c38,45.6755595,4.7818499,Multi Active Communication,69230,4bf58dd8d48988d125941735,Tech Startup,Rhône-Alpes
0,"[{'id': '4bf58dd8d48988d125941735', 'name': 'Tech Startup', 'pluralName': 'Tech Startups', 'shortName': 'Tech Startup', 'icon': {'prefix': 'https://ss3.4sqi.net/img/categories_v2/shops/technology_', 'suffix': '.png'}, 'primary': True}]",,FR,,France,52877b4111d217872499eb43,45.53838415308907,4.866342544555664,AmaZili agence de communication,38200,4bf58dd8d48988d125941735,Tech Startup,Rhône-Alpes
1,"[{'id': '4bf58dd8d48988d125941735', 'name': 'Tech Startup', 'pluralName': 'Tech Startups', 'shortName': 'Tech Startup', 'icon': {'prefix': 'https://ss3.4sqi.net/img/categories_v2/shops/technology_', 'suffix': '.png'}, 'primary': True}]",,FR,,France,4ef0444c02d50bd85710f047,45.51521682739258,4.851929187774658,Myeshop,,4bf58dd8d48988d125941735,Tech Startup,
0,"[{'id': '4bf58dd8d48988d125941735', 'name': 'Tech Startup', 'pluralName': 'Tech Startups', 'shortName': 'Tech Startup', 'icon': {'prefix': 'https://ss3.4sqi.net/img/categories_v2/shops/technology_', 'suffix': '.png'}, 'primary': True}]",,FR,,France,50699e8de4b0e370b338f8d3,45.47395316320311,4.393845493098389,Qweeby SAS,,4bf58dd8d48988d125941735,Tech Startup,
1,"[{'id': '4bf58dd8d48988d125941735', 'name': 'Tech Startup', 'pluralName': 'Tech Startups', 'shortName': 'Tech Startup', 'icon': {'prefix': 'https://ss3.4sqi.net/img/categories_v2/shops/technology_', 'suffix': '.png'}, 'primary': True}]",,FR,,France,568e2706498eeb057eb6559c,45.45287,4.386892,HigherEdMe,,4bf58dd8d48988d125941735,Tech Startup,
2,"[{'id': '4bf58dd8d48988d125941735', 'name': 'Tech Startup', 'pluralName': 'Tech Startups', 'shortName': 'Tech Startup', 'icon': {'prefix': 'https://ss3.4sqi.net/img/categories_v2/shops/technology_', 'suffix': '.png'}, 'primary': True}]",,FR,,France,4f508148e4b0b5f9a525eaf9,45.455649,4.38378,Arkesys - Alegia Formation,42000,4bf58dd8d48988d125941735,Tech Startup,Rhône-Alpes
3,"[{'id': '4bf58dd8d48988d124941735', 'name': 'Office', 'pluralName': 'Offices', 'shortName': 'Office', 'icon': {'prefix': 'https://ss3.4sqi.net/img/categories_v2/building/default_', 'suffix': '.png'}, 'primary': True}]",,FR,,France,4c067f4f761ac9b6a3052174,45.42141051313145,4.368914591372386,Axome Agence Web,42100,4bf58dd8d48988d124941735,Office,Rhône-Alpes
4,"[{'id': '5453de49498eade8af355881', 'name': 'Business Service', 'pluralName': 'Business Services', 'shortName': 'Business Services', 'icon': {'prefix': 'https://ss3.4sqi.net/img/categories_v2/building/default_', 'suffix': '.png'}, 'primary': True}]",,FR,,France,4fa13048e4b0953f4903b43e,45.45556356033265,4.392745239508089,Effitel,42000,5453de49498eade8af355881,Business Service,Rhône-Alpes
8,"[{'id': '4bf58dd8d48988d125941735', 'name': 'Tech Startup', 'pluralName': 'Tech Startups', 'shortName': 'Tech Startup', 'icon': {'prefix': 'https://ss3.4sqi.net/img/categories_v2/shops/technology_', 'suffix': '.png'}, 'primary': True}]",,FR,,France,4fdee268e4b0e07803d9b33a,45.734806060791016,4.832028865814209,Ipter,,4bf58dd8d48988d125941735,Tech Startup,
9,"[{'id': '4bf58dd8d48988d125941735', 'name': 'Tech Startup', 'pluralName': 'Tech Startups', 'shortName': 'Tech Startup', 'icon': {'prefix': 'https://ss3.4sqi.net/img/categories_v2/shops/technology_', 'suffix': '.png'}, 'primary': True}]",,FR,,France,4e7af721091a58064b54853d,45.737595005021454,4.830511436869604,Viadigis,69007,4bf58dd8d48988d125941735,Tech Startup,Rhône-Alpes
10,"[{'id': '4bf58dd8d48988d125941735', 'name': 'Tech Startup', 'pluralName': 'Tech Startups', 'shortName': 'Tech Startup', 'icon': {'prefix': 'https://ss3.4sqi.net/img/categories_v2/shops/technology_', 'suffix': '.png'}, 'primary': True}]",,FR,,France,5204fc632fc6b49b5a50a621,45.72105150408152,4.7976914048194885,Habegger IT Services,69600,4bf58dd8d48988d125941735,Tech Startup,Rhône-Alpes
11,"[{'id': '4bf58dd8d48988d125941735', 'name': 'Tech Startup', 'pluralName': 'Tech Startups', 'shortName': 'Tech Startup', 'icon': {'prefix': 'https://ss3.4sqi.net/img/categories_v2/shops/technology_', 'suffix': '.png'}, 'primary': True}]",,FR,,France,50532e1ce4b0e59cc72e1bd8,45.73150184973413,4.829537243744528,Antidot Information Factory - le workflow de traitement de données,69007,4bf58dd8d48988d125941735,Tech Startup,Rhône-Alpes
12,"[{'id': '4bf58dd8d48988d125941735', 'name': 'Tech Startup', 'pluralName': 'Tech Startups', 'shortName': 'Tech Startup', 'icon': {'prefix': 'https://ss3.4sqi.net/img/categories_v2/shops/technology_', 'suffix': '.png'}, 'primary': True}]",,FR,,France,4f991b6ce4b028100330659e,45.727582,4.836244,ALTRABio,,4bf58dd8d48988d125941735,Tech Startup,
13,"[{'id': '4bf58dd8d48988d125941735', 'name': 'Tech Startup', 'pluralName': 'Tech Startups', 'shortName': 'Tech Startup', 'icon': {'prefix': 'https://ss3.4sqi.net/img/categories_v2/shops/technology_', 'suffix': '.png'}, 'primary': True}]",,FR,,France,50756013e4b0817b79a977f7,45.72952292347212,4.82376897639641,Jetpulp [ex. Add Online],69007,4bf58dd8d48988d125941735,Tech Startup,Rhône-Alpes
14,"[{'id': '4bf58dd8d48988d125941735', 'name': 'Tech Startup', 'pluralName': 'Tech Startups', 'shortName': 'Tech Startup', 'icon': {'prefix': 'https://ss3.4sqi.net/img/categories_v2/shops/technology_', 'suffix': '.png'}, 'primary': True}]",,FR,,France,554740d4498e2f65fd8854c6,45.731787,4.876442,allcoms,,4bf58dd8d48988d125941735,Tech Startup,
15,"[{'id': '4bf58dd8d48988d125941735', 'name': 'Tech Startup', 'pluralName': 'Tech Startups', 'shortName': 'Tech Startup', 'icon': {'prefix': 'https://ss3.4sqi.net/img/categories_v2/shops/technology_', 'suffix': '.png'}, 'primary': True}]",,FR,,France,4ddbd1bf7d8b771c0b075316,45.74314385024816,4.840516007452543,Clubic,69007,4bf58dd8d48988d125941735,Tech Startup,Rhône-Alpes
16,"[{'id': '4bf58dd8d48988d125941735', 'name': 'Tech Startup', 'pluralName': 'Tech Startups', 'shortName': 'Tech Startup', 'icon': {'prefix': 'https://ss3.4sqi.net/img/categories_v2/shops/technology_', 'suffix': '.png'}, 'primary': True}]",,FR,,France,50f7bd32e4b0688fe90e412a,45.744029980689085,4.849335517888664,Succursale BeMyApp Lyon,,4bf58dd8d48988d125941735,Tech Startup,
17,"[{'id': '4bf58dd8d48988d125941735', 'name': 'Tech Startup', 'pluralName': 'Tech Startups', 'shortName': 'Tech Startup', 'icon': {'prefix': 'https://ss3.4sqi.net/img/categories_v2/shops/technology_', 'suffix': '.png'}, 'primary': True}]",,FR,,France,50532d6ee4b0d070fb952093,45.73150422178875,4.82948468422224,Antidot Finder Suite - le meilleur moteur de recherche,69007,4bf58dd8d48988d125941735,Tech Startup,Rhône-Alpes
18,"[{'id': '4bf58dd8d48988d125941735', 'name': 'Tech Startup', 'pluralName': 'Tech Startups', 'shortName': 'Tech Startup', 'icon': {'prefix': 'https://ss3.4sqi.net/img/categories_v2/shops/technology_', 'suffix': '.png'}, 'primary': True}]",,FR,,France,4ff188f5e4b0cf98814cf584,45.74134826660156,4.815508842468262,Egdigital,,4bf58dd8d48988d125941735,Tech Startup,Rhône-Alpes
20,"[{'id': '4bf58dd8d48988d125941735', 'name': 'Tech Startup', 'pluralName': 'Tech Startups', 'shortName': 'Tech Startup', 'icon': {'prefix': 'https://ss3.4sqi.net/img/categories_v2/shops/technology_', 'suffix': '.png'}, 'primary': True}]",,FR,,France,51c8ade6498ed5c6204fe94d,45.711104,4.816732,Delcreating,,4bf58dd8d48988d125941735,Tech Startup,
21,"[{'id': '4bf58dd8d48988d125941735', 'name': 'Tech Startup', 'pluralName': 'Tech Startups', 'shortName': 'Tech Startup', 'icon': {'prefix': 'https://ss3.4sqi.net/img/categories_v2/shops/technology_', 'suffix': '.png'}, 'primary': True}]",,FR,,France,5433a0fd498e9bcafb884c98,45.73010474477388,4.854594469070435,IziWeb Crea,69008,4bf58dd8d48988d125941735,Tech Startup,Rhône-Alpes
22,"[{'id': '4bf58dd8d48988d125941735', 'name': 'Tech Startup', 'pluralName': 'Tech Startups', 'shortName': 'Tech Startup', 'icon': {'prefix': 'https://ss3.4sqi.net/img/categories_v2/shops/technology_', 'suffix': '.png'}, 'primary': True}]",,FR,,France,4e73830c81dcfd7f1ac07bb1,45.745189594931595,4.844600558280945,Zenhysteria,69007,4bf58dd8d48988d125941735,Tech Startup,Rhône-Alpes
23,"[{'id': '4bf58dd8d48988d125941735', 'name': 'Tech Startup', 'pluralName': 'Tech Startups', 'shortName': 'Tech Startup', 'icon': {'prefix': 'https://ss3.4sqi.net/img/categories_v2/shops/technology_', 'suffix': '.png'}, 'primary': True}]",,FR,,France,5229c41b11d2775e65f22085,45.71429574422695,4.820246887089441,High Connexion,,4bf58dd8d48988d125941735,Tech Startup,
24,"[{'id': '4bf58dd8d48988d125941735', 'name': 'Tech Startup', 'pluralName': 'Tech Startups', 'shortName': 'Tech Startup', 'icon': {'prefix': 'https://ss3.4sqi.net/img/categories_v2/shops/technology_', 'suffix': '.png'}, 'primary': True}]",,FR,,France,4eb3a45f823131626e751e43,45.734374503393674,4.8378088746420005,Rue89Lyon,69007,4bf58dd8d48988d125941735,Tech Startup,Rhône-Alpes
25,"[{'id': '4bf58dd8d48988d125941735', 'name': 'Tech Startup', 'pluralName': 'Tech Startups', 'shortName': 'Tech Startup', 'icon': {'prefix': 'https://ss3.4sqi.net/img/categories_v2/shops/technology_', 'suffix': '.png'}, 'primary': True}]",,FR,,France,4c46a65a0f5aa593336f7b76,45.7451966923139,4.846195812086391,MacGeneration,69007,4bf58dd8d48988d125941735,Tech Startup,Rhône-Alpes
26,"[{'id': '4bf58dd8d48988d125941735', 'name': 'Tech Startup', 'pluralName': 'Tech Startups', 'shortName': 'Tech Startup', 'icon': {'prefix': 'https://ss3.4sqi.net/img/categories_v2/shops/technology_', 'suffix': '.png'}, 'primary': True}]",,FR,,France,539ef694498e91468948068e,45.739543,4.834518,octiplex,69007,4bf58dd8d48988d125941735,Tech Startup,Rhône-Alpes
27,"[{'id': '4bf58dd8d48988d125941735', 'name': 'Tech Startup', 'pluralName': 'Tech Startups', 'shortName': 'Tech Startup', 'icon': {'prefix': 'https://ss3.4sqi.net/img/categories_v2/shops/technology_', 'suffix': '.png'}, 'primary': True}]",,FR,,France,50532f40e4b0d070fb963b6c,45.73151477804768,4.829568563672808,Antidot Collaboration Services - la palette de services collaboratifs,69007,4bf58dd8d48988d125941735,Tech Startup,Rhône-Alpes
28,"[{'id': '4bf58dd8d48988d125941735', 'name': 'Tech Startup', 'pluralName': 'Tech Startups', 'shortName': 'Tech Startup', 'icon': {'prefix': 'https://ss3.4sqi.net/img/categories_v2/shops/technology_', 'suffix': '.png'}, 'primary': True}]",,FR,,France,4e7c442d814d3907a7220e2a,45.734985583411714,4.831825867295265,ICE Development,69007,4bf58dd8d48988d125941735,Tech Startup,Rhône-Alpes
29,"[{'id': '4bf58dd8d48988d125941735', 'name': 'Tech Startup', 'pluralName': 'Tech Startups', 'shortName': 'Tech Startup', 'icon': {'prefix': 'https://ss3.4sqi.net/img/categories_v2/shops/technology_', 'suffix': '.png'}, 'primary': True}]",,FR,,France,4dd61d24fa76ad96d103f806,45.73111057477397,4.829504693209157,Novaway,69003,4bf58dd8d48988d125941735,Tech Startup,Rhône-Alpes
30,"[{'id': '4bf58dd8d48988d125941735', 'name': 'Tech Startup', 'pluralName': 'Tech Startups', 'shortName': 'Tech Startup', 'icon': {'prefix': 'https://ss3.4sqi.net/img/categories_v2/shops/technology_', 'suffix': '.png'}, 'primary': True}]",,FR,,France,57078c5e498eaad5a35d090a,45.73126296862093,4.8297682184706225,Antidot Content Classifier,69007,4bf58dd8d48988d125941735,Tech Startup,Rhône-Alpes
31,"[{'id': '4bf58dd8d48988d125941735', 'name': 'Tech Startup', 'pluralName': 'Tech Startups', 'shortName': 'Tech Startup', 'icon': {'prefix': 'https://ss3.4sqi.net/img/categories_v2/shops/technology_', 'suffix': '.png'}, 'primary': True}]",,FR,,France,508653e5e4b0d578bc1a7513,45.73149585658118,4.829524074669678,Linked Enterprise Data - les données au cœur de l'entreprise,69007,4bf58dd8d48988d125941735,Tech Startup,Rhône-Alpes
32,"[{'id': '4bf58dd8d48988d130951735', 'name': 'Taxi', 'pluralName': 'Taxis', 'shortName': 'Taxi', 'icon': {'prefix': 'https://ss3.4sqi.net/img/categories_v2/travel/taxi_', 'suffix': '.png'}, 'primary': True}]",,FR,,France,58206f73c30e677f6b09d596,45.72321430406,4.81375515460968,EcoTa.co,69350,4bf58dd8d48988d130951735,Taxi,Rhône-Alpes
33,"[{'id': '4bf58dd8d48988d125941735', 'name': 'Tech Startup', 'pluralName': 'Tech Startups', 'shortName': 'Tech Startup', 'icon': {'prefix': 'https://ss3.4sqi.net/img/categories_v2/shops/technology_', 'suffix': '.png'}, 'primary': True}]",,FR,,France,4f9674d3e4b0489d4dec3c34,45.72790705962275,4.826917963424104,CoSMo,,4bf58dd8d48988d125941735,Tech Startup,
34,"[{'id': '4bf58dd8d48988d125941735', 'name': 'Tech Startup', 'pluralName': 'Tech Startups', 'shortName': 'Tech Startup', 'icon': {'prefix': 'https://ss3.4sqi.net/img/categories_v2/shops/technology_', 'suffix': '.png'}, 'primary': True}]",,FR,,France,52a722b4498ea570815fcda6,45.731531113426755,4.829569095240957,AFS@Store - le moteur de searchandising qui booste le taux de conversion de votre site marchand,69007,4bf58dd8d48988d125941735,Tech Startup,Rhône-Alpes
36,"[{'id': '4bf58dd8d48988d125941735', 'name': 'Tech Startup', 'pluralName': 'Tech Startups', 'shortName': 'Tech Startup', 'icon': {'prefix': 'https://ss3.4sqi.net/img/categories_v2/shops/technology_', 'suffix': '.png'}, 'primary': True}]",,FR,,France,52ce6d55498e39a9c74a8ecb,45.725229,4.814863,Jobenjoy,,4bf58dd8d48988d125941735,Tech Startup,
37,"[{'id': '4bf58dd8d48988d104941735', 'name': 'Medical Center', 'pluralName': 'Medical Centers', 'shortName': 'Medical', 'icon': {'prefix': 'https://ss3.4sqi.net/img/categories_v2/building/medical_', 'suffix': '.png'}, 'primary': True}]",,FR,,France,4c3c0d14933b0f47aa98e321,45.73127753,4.82953198,Agence Interactive 2,69003,4bf58dd8d48988d104941735,Medical Center,Auvergne-Rhône-Alpes
0,"[{'id': '4bf58dd8d48988d125941735', 'name': 'Tech Startup', 'pluralName': 'Tech Startups', 'shortName': 'Tech Startup', 'icon': {'prefix': 'https://ss3.4sqi.net/img/categories_v2/shops/technology_', 'suffix': '.png'}, 'primary': True}]",,FR,,France,519387682fc6156e3f94ec05,45.80123625226328,4.788215160369873,La Fabrik du Crédit agricole Centre-est,69410,4bf58dd8d48988d125941735,Tech Startup,Rhône-Alpes
2,"[{'id': '4bf58dd8d48988d125941735', 'name': 'Tech Startup', 'pluralName': 'Tech Startups', 'shortName': 'Tech Startup', 'icon': {'prefix': 'https://ss3.4sqi.net/img/categories_v2/shops/technology_', 'suffix': '.png'}, 'primary': True}]",,FR,,France,504ef51ae4b0afdbdfd8d554,45.763125745155904,4.728580555163896,iGerip.fr,,4bf58dd8d48988d125941735,Tech Startup,
11,"[{'id': '4bf58dd8d48988d125941735', 'name': 'Tech Startup', 'pluralName': 'Tech Startups', 'shortName': 'Tech Startup', 'icon': {'prefix': 'https://ss3.4sqi.net/img/categories_v2/shops/technology_', 'suffix': '.png'}, 'primary': True}]",,FR,,France,4c3c8085933b0f47cc1de421,45.800312,4.770337,Toggezer,69570,4bf58dd8d48988d125941735,Tech Startup,Rhône-Alpes
12,"[{'id': '4bf58dd8d48988d125941735', 'name': 'Tech Startup', 'pluralName': 'Tech Startups', 'shortName': 'Tech Startup', 'icon': {'prefix': 'https://ss3.4sqi.net/img/categories_v2/shops/technology_', 'suffix': '.png'}, 'primary': True}]",,FR,,France,4c6a4db7d0bdc9b64a2ca80b,45.800514,4.770249,Togezzer,,4bf58dd8d48988d125941735,Tech Startup,
13,"[{'id': '4bf58dd8d48988d125941735', 'name': 'Tech Startup', 'pluralName': 'Tech Startups', 'shortName': 'Tech Startup', 'icon': {'prefix': 'https://ss3.4sqi.net/img/categories_v2/shops/technology_', 'suffix': '.png'}, 'primary': True}]",,FR,,France,4c1f751082109c74e41fd459,45.744798266554035,4.771778769022185,3999 France,,4bf58dd8d48988d125941735,Tech Startup,69340
14,"[{'id': '4bf58dd8d48988d125941735', 'name': 'Tech Startup', 'pluralName': 'Tech Startups', 'shortName': 'Tech Startup', 'icon': {'prefix': 'https://ss3.4sqi.net/img/categories_v2/shops/technology_', 'suffix': '.png'}, 'primary': True}]",,FR,,France,556ead5c498e98bd19a16414,45.77422848708637,4.813632358889387,Keyrus,,4bf58dd8d48988d125941735,Tech Startup,
15,"[{'id': '4bf58dd8d48988d125941735', 'name': 'Tech Startup', 'pluralName': 'Tech Startups', 'shortName': 'Tech Startup', 'icon': {'prefix': 'https://ss3.4sqi.net/img/categories_v2/shops/technology_', 'suffix': '.png'}, 'primary': True}]",,FR,,France,5168232ae4b0099252987cc9,45.764625549316406,4.807250499725342,Arkanite,,4bf58dd8d48988d125941735,Tech Startup,
16,"[{'id': '4bf58dd8d48988d125941735', 'name': 'Tech Startup', 'pluralName': 'Tech Startups', 'shortName': 'Tech Startup', 'icon': {'prefix': 'https://ss3.4sqi.net/img/categories_v2/shops/technology_', 'suffix': '.png'}, 'primary': True}]",,FR,,France,54abe370498ee5c58252c569,45.763893127441406,4.800941467285156,Acyba,69000,4bf58dd8d48988d125941735,Tech Startup,Rhône-Alpes
17,"[{'id': '4bf58dd8d48988d125941735', 'name': 'Tech Startup', 'pluralName': 'Tech Startups', 'shortName': 'Tech Startup', 'icon': {'prefix': 'https://ss3.4sqi.net/img/categories_v2/shops/technology_', 'suffix': '.png'}, 'primary': True}]",,FR,,France,4bc781a62f94d13abd0d127f,45.76762,4.83388,Twemple HQ,69001,4bf58dd8d48988d125941735,Tech Startup,Rhône-Alpes
18,"[{'id': '4bf58dd8d48988d125941735', 'name': 'Tech Startup', 'pluralName': 'Tech Startups', 'shortName': 'Tech Startup', 'icon': {'prefix': 'https://ss3.4sqi.net/img/categories_v2/shops/technology_', 'suffix': '.png'}, 'primary': True}]",,FR,,France,4f54dc45e4b0d3a8f7621067,45.7781750873434,4.750744804985917,Gerip,,4bf58dd8d48988d125941735,Tech Startup,
19,"[{'id': '4bf58dd8d48988d125941735', 'name': 'Tech Startup', 'pluralName': 'Tech Startups', 'shortName': 'Tech Startup', 'icon': {'prefix': 'https://ss3.4sqi.net/img/categories_v2/shops/technology_', 'suffix': '.png'}, 'primary': True}]",,FR,,France,4f69f9db771669d5a1ea1e20,45.768323758177026,4.8280298709869385,Alpine Lab,69001,4bf58dd8d48988d125941735,Tech Startup,Rhône-Alpes
20,"[{'id': '4bf58dd8d48988d125941735', 'name': 'Tech Startup', 'pluralName': 'Tech Startups', 'shortName': 'Tech Startup', 'icon': {'prefix': 'https://ss3.4sqi.net/img/categories_v2/shops/technology_', 'suffix': '.png'}, 'primary': True}]",,FR,,France,5624e732498e717653f2dbeb,45.80676270014871,4.775347777702692,BiBOARD HQ,,4bf58dd8d48988d125941735,Tech Startup,
21,"[{'id': '4bf58dd8d48988d125941735', 'name': 'Tech Startup', 'pluralName': 'Tech Startups', 'shortName': 'Tech Startup', 'icon': {'prefix': 'https://ss3.4sqi.net/img/categories_v2/shops/technology_', 'suffix': '.png'}, 'primary': True}]",,FR,,France,531ec060498e1202a127895f,45.80131392158058,4.7755223740823425,GiSmartware,,4bf58dd8d48988d125941735,Tech Startup,
22,"[{'id': '4bf58dd8d48988d125941735', 'name': 'Tech Startup', 'pluralName': 'Tech Startups', 'shortName': 'Tech Startup', 'icon': {'prefix': 'https://ss3.4sqi.net/img/categories_v2/shops/technology_', 'suffix': '.png'}, 'primary': True}]",,FR,,France,5167d670164857095f9eb9ba,45.773487493836356,4.797549247741699,ITIS Commerce,69009,4bf58dd8d48988d125941735,Tech Startup,Rhône-Alpes
23,"[{'id': '4bf58dd8d48988d125941735', 'name': 'Tech Startup', 'pluralName': 'Tech Startups', 'shortName': 'Tech Startup', 'icon': {'prefix': 'https://ss3.4sqi.net/img/categories_v2/shops/technology_', 'suffix': '.png'}, 'primary': True}]",,FR,,France,4fd982eee4b0318de79fe5c6,45.7795295715332,4.8244428634643555,69 rue henon,,4bf58dd8d48988d125941735,Tech Startup,
24,"[{'id': '4bf58dd8d48988d125941735', 'name': 'Tech Startup', 'pluralName': 'Tech Startups', 'shortName': 'Tech Startup', 'icon': {'prefix': 'https://ss3.4sqi.net/img/categories_v2/shops/technology_', 'suffix': '.png'}, 'primary': True}]",,FR,,France,5168236de4b01d70bd20c6d1,45.76487154941279,4.806873934632661,Arkanite.fr,,4bf58dd8d48988d125941735,Tech Startup,
25,"[{'id': '4bf58dd8d48988d125941735', 'name': 'Tech Startup', 'pluralName': 'Tech Startups', 'shortName': 'Tech Startup', 'icon': {'prefix': 'https://ss3.4sqi.net/img/categories_v2/shops/technology_', 'suffix': '.png'}, 'primary': True}]",,FR,,France,4f5de86e771636118a4b0226,45.813889696923596,4.759574939859243,IN MY SHOP,69570,4bf58dd8d48988d125941735,Tech Startup,Rhône-Alpes
26,"[{'id': '4bf58dd8d48988d125941735', 'name': 'Tech Startup', 'pluralName': 'Tech Startups', 'shortName': 'Tech Startup', 'icon': {'prefix': 'https://ss3.4sqi.net/img/categories_v2/shops/technology_', 'suffix': '.png'}, 'primary': True}]",,FR,,France,5167a2fd498e6b92140e0a1b,45.75912615739291,4.7603813715165195,Semarchy,69160,4bf58dd8d48988d125941735,Tech Startup,Rhône-Alpes
27,"[{'id': '4bf58dd8d48988d125941735', 'name': 'Tech Startup', 'pluralName': 'Tech Startups', 'shortName': 'Tech Startup', 'icon': {'prefix': 'https://ss3.4sqi.net/img/categories_v2/shops/technology_', 'suffix': '.png'}, 'primary': True}]",,FR,,France,4c7b6b32df08a1cdcc75e05d,45.769215,4.799881,Plebicom,69009,4bf58dd8d48988d125941735,Tech Startup,Rhône-Alpes
28,"[{'id': '4bf58dd8d48988d125941735', 'name': 'Tech Startup', 'pluralName': 'Tech Startups', 'shortName': 'Tech Startup', 'icon': {'prefix': 'https://ss3.4sqi.net/img/categories_v2/shops/technology_', 'suffix': '.png'}, 'primary': True}]",,FR,,France,514835efe4b047c161897847,45.757883,4.762227,"Quality, Marketing And Support Desk",,4bf58dd8d48988d125941735,Tech Startup,
29,"[{'id': '4bf58dd8d48988d125941735', 'name': 'Tech Startup', 'pluralName': 'Tech Startups', 'shortName': 'Tech Startup', 'icon': {'prefix': 'https://ss3.4sqi.net/img/categories_v2/shops/technology_', 'suffix': '.png'}, 'primary': True}]",,FR,,France,581b7bf0da40597dbb0a211c,45.801289,4.780026,L&A RONDOT SAS,,4bf58dd8d48988d125941735,Tech Startup,
30,"[{'id': '4bf58dd8d48988d125941735', 'name': 'Tech Startup', 'pluralName': 'Tech Startups', 'shortName': 'Tech Startup', 'icon': {'prefix': 'https://ss3.4sqi.net/img/categories_v2/shops/technology_', 'suffix': '.png'}, 'primary': True}]",,FR,,France,58a59ae29435a93af2bc03c4,45.77067,4.811319,Upfluence,69009,4bf58dd8d48988d125941735,Tech Startup,Rhône-Alpes
31,"[{'id': '4bf58dd8d48988d125941735', 'name': 'Tech Startup', 'pluralName': 'Tech Startups', 'shortName': 'Tech Startup', 'icon': {'prefix': 'https://ss3.4sqi.net/img/categories_v2/shops/technology_', 'suffix': '.png'}, 'primary': True}]",,FR,,France,50a15086e4b047228b4b1eea,45.758381,4.825603,Iboo Interactive,69007,4bf58dd8d48988d125941735,Tech Startup,Rhône-Alpes
32,"[{'id': '4bf58dd8d48988d125941735', 'name': 'Tech Startup', 'pluralName': 'Tech Startups', 'shortName': 'Tech Startup', 'icon': {'prefix': 'https://ss3.4sqi.net/img/categories_v2/shops/technology_', 'suffix': '.png'}, 'primary': True}]",,FR,,France,4c6cead1fe77bfb721eda023,45.788956,4.814138,EffiTIC,69009,4bf58dd8d48988d125941735,Tech Startup,Rhône-Alpes
33,"[{'id': '4bf58dd8d48988d125941735', 'name': 'Tech Startup', 'pluralName': 'Tech Startups', 'shortName': 'Tech Startup', 'icon': {'prefix': 'https://ss3.4sqi.net/img/categories_v2/shops/technology_', 'suffix': '.png'}, 'primary': True}]",,FR,,France,52401da611d2f8b3515a9102,45.770017,4.798753,Sutunam,69009,4bf58dd8d48988d125941735,Tech Startup,Rhône-Alpes
34,"[{'id': '4bf58dd8d48988d125941735', 'name': 'Tech Startup', 'pluralName': 'Tech Startups', 'shortName': 'Tech Startup', 'icon': {'prefix': 'https://ss3.4sqi.net/img/categories_v2/shops/technology_', 'suffix': '.png'}, 'primary': True}]",,FR,,France,4f3d338de4b00758879411f9,45.80768158360737,4.7742342622586085,Genesis NTIC,69760,4bf58dd8d48988d125941735,Tech Startup,Rhône-Alpes
35,"[{'id': '4bf58dd8d48988d125941735', 'name': 'Tech Startup', 'pluralName': 'Tech Startups', 'shortName': 'Tech Startup', 'icon': {'prefix': 'https://ss3.4sqi.net/img/categories_v2/shops/technology_', 'suffix': '.png'}, 'primary': True}]",,FR,,France,54abe54e498ef7a42cc905a1,45.762725830078125,4.802101135253906,Hikari Software,69000,4bf58dd8d48988d125941735,Tech Startup,Rhône-Alpes
36,"[{'id': '4bf58dd8d48988d125941735', 'name': 'Tech Startup', 'pluralName': 'Tech Startups', 'shortName': 'Tech Startup', 'icon': {'prefix': 'https://ss3.4sqi.net/img/categories_v2/shops/technology_', 'suffix': '.png'}, 'primary': True}]",,FR,,France,4bbc8766e5b0d13a93536f7c,45.76333033333333,4.8326481,2803 Media,69002,4bf58dd8d48988d125941735,Tech Startup,Rhône-Alpes
37,"[{'id': '4bf58dd8d48988d125941735', 'name': 'Tech Startup', 'pluralName': 'Tech Startups', 'shortName': 'Tech Startup', 'icon': {'prefix': 'https://ss3.4sqi.net/img/categories_v2/shops/technology_', 'suffix': '.png'}, 'primary': True}]",,FR,,France,4fc4763fe4b0821fe509ae2b,45.773177519861335,4.765450609984231,Axemble,,4bf58dd8d48988d125941735,Tech Startup,
38,"[{'id': '4bf58dd8d48988d125941735', 'name': 'Tech Startup', 'pluralName': 'Tech Startups', 'shortName': 'Tech Startup', 'icon': {'prefix': 'https://ss3.4sqi.net/img/categories_v2/shops/technology_', 'suffix': '.png'}, 'primary': True}]",,FR,,France,5379b61b11d282a3ccf007c9,45.809102,4.777889,Inlog,,4bf58dd8d48988d125941735,Tech Startup,
39,"[{'id': '4bf58dd8d48988d125941735', 'name': 'Tech Startup', 'pluralName': 'Tech Startups', 'shortName': 'Tech Startup', 'icon': {'prefix': 'https://ss3.4sqi.net/img/categories_v2/shops/technology_', 'suffix': '.png'}, 'primary': True}]",,FR,,France,57c94f88498e982da225c273,45.804986,4.774269,Certilience,69760,4bf58dd8d48988d125941735,Tech Startup,Rhône-Alpes
40,"[{'id': '4bf58dd8d48988d125941735', 'name': 'Tech Startup', 'pluralName': 'Tech Startups', 'shortName': 'Tech Startup', 'icon': {'prefix': 'https://ss3.4sqi.net/img/categories_v2/shops/technology_', 'suffix': '.png'}, 'primary': True}]",,FR,,France,50feccee72daa37fb690d01a,45.77207312682679,4.8344457149505615,Agence My Lucky Day,69001,4bf58dd8d48988d125941735,Tech Startup,Rhône-Alpes
41,"[{'id': '4bf58dd8d48988d125941735', 'name': 'Tech Startup', 'pluralName': 'Tech Startups', 'shortName': 'Tech Startup', 'icon': {'prefix': 'https://ss3.4sqi.net/img/categories_v2/shops/technology_', 'suffix': '.png'}, 'primary': True}]",,FR,,France,5275190411d2a513feb11080,45.773815,4.833582,bim HQ,,4bf58dd8d48988d125941735,Tech Startup,
42,"[{'id': '4bf58dd8d48988d125941735', 'name': 'Tech Startup', 'pluralName': 'Tech Startups', 'shortName': 'Tech Startup', 'icon': {'prefix': 'https://ss3.4sqi.net/img/categories_v2/shops/technology_', 'suffix': '.png'}, 'primary': True}]",,FR,,France,521eeac6498eb81339d86eab,45.7809944152832,4.780014991760254,Cognik,,4bf58dd8d48988d125941735,Tech Startup,
43,"[{'id': '4bf58dd8d48988d125941735', 'name': 'Tech Startup', 'pluralName': 'Tech Startups', 'shortName': 'Tech Startup', 'icon': {'prefix': 'https://ss3.4sqi.net/img/categories_v2/shops/technology_', 'suffix': '.png'}, 'primary': True}]",,FR,,France,4f69d885e4b035664e984156,45.80812072753906,4.774938583374023,Axsolu Information System,69760,4bf58dd8d48988d125941735,Tech Startup,Rhône-Alpes
44,"[{'id': '4bf58dd8d48988d125941735', 'name': 'Tech Startup', 'pluralName': 'Tech Startups', 'shortName': 'Tech Startup', 'icon': {'prefix': 'https://ss3.4sqi.net/img/categories_v2/shops/technology_', 'suffix': '.png'}, 'primary': True}]",,FR,,France,51b5a8625019136d3cd8b8e4,45.80855456420903,4.770960509777069,Action on Line,69574,4bf58dd8d48988d125941735,Tech Startup,Rhône-Alpes
45,"[{'id': '4bf58dd8d48988d125941735', 'name': 'Tech Startup', 'pluralName': 'Tech Startups', 'shortName': 'Tech Startup', 'icon': {'prefix': 'https://ss3.4sqi.net/img/categories_v2/shops/technology_', 'suffix': '.png'}, 'primary': True}]",,FR,,France,4fe864b7e4b05b60faf6704b,45.768383995689064,4.802060760498883,O2Sources,69009,4bf58dd8d48988d125941735,Tech Startup,Rhône-Alpes
46,"[{'id': '4bf58dd8d48988d125941735', 'name': 'Tech Startup', 'pluralName': 'Tech Startups', 'shortName': 'Tech Startup', 'icon': {'prefix': 'https://ss3.4sqi.net/img/categories_v2/shops/technology_', 'suffix': '.png'}, 'primary': True}]",,FR,,France,4d345b61c75a6ea812d81eae,45.76384053333334,4.777853750000001,Ecole Maternelle,69160,4bf58dd8d48988d125941735,Tech Startup,Rhône-Alpes
47,"[{'id': '4bf58dd8d48988d125941735', 'name': 'Tech Startup', 'pluralName': 'Tech Startups', 'shortName': 'Tech Startup', 'icon': {'prefix': 'https://ss3.4sqi.net/img/categories_v2/shops/technology_', 'suffix': '.png'}, 'primary': True}]",,FR,,France,526a13fc11d25008d34c6122,45.75783157348633,4.762842178344727,Ludo Factory,69160,4bf58dd8d48988d125941735,Tech Startup,Rhône-Alpes
48,"[{'id': '4bf58dd8d48988d125941735', 'name': 'Tech Startup', 'pluralName': 'Tech Startups', 'shortName': 'Tech Startup', 'icon': {'prefix': 'https://ss3.4sqi.net/img/categories_v2/shops/technology_', 'suffix': '.png'}, 'primary': True}]",,FR,,France,4eb295c2e3008b2901f8aab7,45.75718008380353,4.825564927201232,Square Glasses,69005,4bf58dd8d48988d125941735,Tech Startup,Rhône-Alpes
49,"[{'id': '4bf58dd8d48988d125941735', 'name': 'Tech Startup', 'pluralName': 'Tech Startups', 'shortName': 'Tech Startup', 'icon': {'prefix': 'https://ss3.4sqi.net/img/categories_v2/shops/technology_', 'suffix': '.png'}, 'primary': True}]",,FR,,France,5331bdfd498e7e6e24b01d3b,45.77236716708856,4.795854842474092,Valoricert - Cabinet Européen de Certification,,4bf58dd8d48988d125941735,Tech Startup,
3,"[{'id': '4bf58dd8d48988d125941735', 'name': 'Tech Startup', 'pluralName': 'Tech Startups', 'shortName': 'Tech Startup', 'icon': {'prefix': 'https://ss3.4sqi.net/img/categories_v2/shops/technology_', 'suffix': '.png'}, 'primary': True}]",,FR,,France,4e24386fa80968cf3e5afde6,45.73888231178423,4.932363985459298,Parc d'activité Du Chêne (Bron),69500,4bf58dd8d48988d125941735,Tech Startup,Rhône-Alpes
18,"[{'id': '4bf58dd8d48988d125941735', 'name': 'Tech Startup', 'pluralName': 'Tech Startups', 'shortName': 'Tech Startup', 'icon': {'prefix': 'https://ss3.4sqi.net/img/categories_v2/shops/technology_', 'suffix': '.png'}, 'primary': True}]",,FR,,France,4deffafffa76042fed6c456d,45.765351272330186,4.865189327319531,Allocab Lyon Office,69003,4bf58dd8d48988d125941735,Tech Startup,Rhône-Alpes
19,"[{'id': '4bf58dd8d48988d125941735', 'name': 'Tech Startup', 'pluralName': 'Tech Startups', 'shortName': 'Tech Startup', 'icon': {'prefix': 'https://ss3.4sqi.net/img/categories_v2/shops/technology_', 'suffix': '.png'}, 'primary': True}]",,FR,,France,4ce171de3644a093df2c5d9f,45.75040825436045,4.87386080703156,UbicMedia,69003,4bf58dd8d48988d125941735,Tech Startup,Rhône-Alpes
20,"[{'id': '4bf58dd8d48988d125941735', 'name': 'Tech Startup', 'pluralName': 'Tech Startups', 'shortName': 'Tech Startup', 'icon': {'prefix': 'https://ss3.4sqi.net/img/categories_v2/shops/technology_', 'suffix': '.png'}, 'primary': True}]",,FR,,France,5177f3a7e4b0a28d48e7714d,45.75045977445751,4.843937964933204,rezopole (Bureaux),69007,4bf58dd8d48988d125941735,Tech Startup,Rhône-Alpes
21,"[{'id': '4bf58dd8d48988d125941735', 'name': 'Tech Startup', 'pluralName': 'Tech Startups', 'shortName': 'Tech Startup', 'icon': {'prefix': 'https://ss3.4sqi.net/img/categories_v2/shops/technology_', 'suffix': '.png'}, 'primary': True}]",,FR,,France,4ef33a410e015e413be7f395,45.75941930288805,4.862999048808569,Neovira,69003,4bf58dd8d48988d125941735,Tech Startup,Rhône-Alpes
23,"[{'id': '4bf58dd8d48988d125941735', 'name': 'Tech Startup', 'pluralName': 'Tech Startups', 'shortName': 'Tech Startup', 'icon': {'prefix': 'https://ss3.4sqi.net/img/categories_v2/shops/technology_', 'suffix': '.png'}, 'primary': True}]",,FR,,France,4dac297f5da3ba8a47afa6b5,45.750888,4.853368,Lyonresto,,4bf58dd8d48988d125941735,Tech Startup,
24,"[{'id': '4bf58dd8d48988d125941735', 'name': 'Tech Startup', 'pluralName': 'Tech Startups', 'shortName': 'Tech Startup', 'icon': {'prefix': 'https://ss3.4sqi.net/img/categories_v2/shops/technology_', 'suffix': '.png'}, 'primary': True}]",,FR,,France,506d485ce4b0a3f3b2d969e8,45.76351108963196,4.870900164804233,publish-it,,4bf58dd8d48988d125941735,Tech Startup,
25,"[{'id': '4bf58dd8d48988d125941735', 'name': 'Tech Startup', 'pluralName': 'Tech Startups', 'shortName': 'Tech Startup', 'icon': {'prefix': 'https://ss3.4sqi.net/img/categories_v2/shops/technology_', 'suffix': '.png'}, 'primary': True}]",,FR,,France,57244bae498e42f6f2255b55,45.754,4.8561397,Norsys,69008,4bf58dd8d48988d125941735,Tech Startup,Rhône-Alpes
27,"[{'id': '4bf58dd8d48988d125941735', 'name': 'Tech Startup', 'pluralName': 'Tech Startups', 'shortName': 'Tech Startup', 'icon': {'prefix': 'https://ss3.4sqi.net/img/categories_v2/shops/technology_', 'suffix': '.png'}, 'primary': True}]",,FR,,France,50b933cfe4b0f3072a6cbdbc,45.7686767578125,4.880614280700684,Coletta Films,,4bf58dd8d48988d125941735,Tech Startup,
28,"[{'id': '4bf58dd8d48988d125941735', 'name': 'Tech Startup', 'pluralName': 'Tech Startups', 'shortName': 'Tech Startup', 'icon': {'prefix': 'https://ss3.4sqi.net/img/categories_v2/shops/technology_', 'suffix': '.png'}, 'primary': True}]",,FR,,France,4be1bd1fa145c928db684e80,45.769847,4.892655,IDCI Consulting,69100,4bf58dd8d48988d125941735,Tech Startup,Rhône-Alpes
29,"[{'id': '4bf58dd8d48988d125941735', 'name': 'Tech Startup', 'pluralName': 'Tech Startups', 'shortName': 'Tech Startup', 'icon': {'prefix': 'https://ss3.4sqi.net/img/categories_v2/shops/technology_', 'suffix': '.png'}, 'primary': True}]",,FR,,France,550a8563498e712c7904f2b1,45.709473,4.933604,Shin Etsu cosmetic lab,,4bf58dd8d48988d125941735,Tech Startup,
31,"[{'id': '4bf58dd8d48988d125941735', 'name': 'Tech Startup', 'pluralName': 'Tech Startups', 'shortName': 'Tech Startup', 'icon': {'prefix': 'https://ss3.4sqi.net/img/categories_v2/shops/technology_', 'suffix': '.png'}, 'primary': True}]",,FR,,France,4e8b1170550385f0953c0017,45.757467,4.861457,Knp Lyon,69003,4bf58dd8d48988d125941735,Tech Startup,Rhône-Alpes
32,"[{'id': '4bf58dd8d48988d125941735', 'name': 'Tech Startup', 'pluralName': 'Tech Startups', 'shortName': 'Tech Startup', 'icon': {'prefix': 'https://ss3.4sqi.net/img/categories_v2/shops/technology_', 'suffix': '.png'}, 'primary': True}]",,FR,,France,4e019469e4cd338f2d489290,45.767497,4.880443,B-APPLI Diffusion,69100,4bf58dd8d48988d125941735,Tech Startup,RA
33,"[{'id': '4bf58dd8d48988d125941735', 'name': 'Tech Startup', 'pluralName': 'Tech Startups', 'shortName': 'Tech Startup', 'icon': {'prefix': 'https://ss3.4sqi.net/img/categories_v2/shops/technology_', 'suffix': '.png'}, 'primary': True}]",,FR,,France,50644bece4b039b08f15a8c7,45.763912200927734,4.866215229034424,Genymobile Lyon,69006,4bf58dd8d48988d125941735,Tech Startup,Rhône-Alpes
34,"[{'id': '4bf58dd8d48988d124941735', 'name': 'Office', 'pluralName': 'Offices', 'shortName': 'Office', 'icon': {'prefix': 'https://ss3.4sqi.net/img/categories_v2/building/default_', 'suffix': '.png'}, 'primary': True}]",,FR,,France,4b629491f964a520ec4b2ae3,45.756972,4.86264,Visual Link Lyon,69003,4bf58dd8d48988d124941735,Office,Rhône-Alpes
36,"[{'id': '4bf58dd8d48988d125941735', 'name': 'Tech Startup', 'pluralName': 'Tech Startups', 'shortName': 'Tech Startup', 'icon': {'prefix': 'https://ss3.4sqi.net/img/categories_v2/shops/technology_', 'suffix': '.png'}, 'primary': True}]",,FR,,France,50ae5131e4b0af52195f22a4,45.771263122558594,4.873631000518799,Kalitys / Clab,69100,4bf58dd8d48988d125941735,Tech Startup,Rhône-Alpes
37,"[{'id': '4bf58dd8d48988d125941735', 'name': 'Tech Startup', 'pluralName': 'Tech Startups', 'shortName': 'Tech Startup', 'icon': {'prefix': 'https://ss3.4sqi.net/img/categories_v2/shops/technology_', 'suffix': '.png'}, 'primary': True}]",,FR,,France,4bbdc6dd8a4fb713fa503d9d,45.75171525438898,4.855865325207281,Kreactive Technologies,69007,4bf58dd8d48988d125941735,Tech Startup,Rhône-Alpes
39,"[{'id': '4bf58dd8d48988d125941735', 'name': 'Tech Startup', 'pluralName': 'Tech Startups', 'shortName': 'Tech Startup', 'icon': {'prefix': 'https://ss3.4sqi.net/img/categories_v2/shops/technology_', 'suffix': '.png'}, 'primary': True}]",,FR,,France,532cace5498e96a86395bd43,45.74867474265563,4.842696189880371,Empirik,69007,4bf58dd8d48988d125941735,Tech Startup,Rhône-Alpes
43,"[{'id': '4bf58dd8d48988d125941735', 'name': 'Tech Startup', 'pluralName': 'Tech Startups', 'shortName': 'Tech Startup', 'icon': {'prefix': 'https://ss3.4sqi.net/img/categories_v2/shops/technology_', 'suffix': '.png'}, 'primary': True}]",,FR,,France,57c93681cd1043c5b10979cf,45.75273610642236,4.857788980007172,theWebLines,69003,4bf58dd8d48988d125941735,Tech Startup,Rhône-Alpes
44,"[{'id': '4bf58dd8d48988d125941735', 'name': 'Tech Startup', 'pluralName': 'Tech Startups', 'shortName': 'Tech Startup', 'icon': {'prefix': 'https://ss3.4sqi.net/img/categories_v2/shops/technology_', 'suffix': '.png'}, 'primary': True}]",,FR,,France,4eba67356da17451ddd8eff8,45.76163595653959,4.868555608758473,My Band Market,69001,4bf58dd8d48988d125941735,Tech Startup,Rhône-Alpes
45,"[{'id': '4bf58dd8d48988d125941735', 'name': 'Tech Startup', 'pluralName': 'Tech Startups', 'shortName': 'Tech Startup', 'icon': {'prefix': 'https://ss3.4sqi.net/img/categories_v2/shops/technology_', 'suffix': '.png'}, 'primary': True}]",,FR,,France,4c878c3df554236a238ccd55,45.761189460754395,4.907578825950623,Izeo,69100,4bf58dd8d48988d125941735,Tech Startup,Rhône-Alpes
46,"[{'id': '4bf58dd8d48988d125941735', 'name': 'Tech Startup', 'pluralName': 'Tech Startups', 'shortName': 'Tech Startup', 'icon': {'prefix': 'https://ss3.4sqi.net/img/categories_v2/shops/technology_', 'suffix': '.png'}, 'primary': True}]",,FR,,France,4d0a208a33d6b60c01c59885,45.759596706746024,4.86470103263855,MCE-5 Development,69003,4bf58dd8d48988d125941735,Tech Startup,Rhône-Alpes
47,"[{'id': '4bf58dd8d48988d125941735', 'name': 'Tech Startup', 'pluralName': 'Tech Startups', 'shortName': 'Tech Startup', 'icon': {'prefix': 'https://ss3.4sqi.net/img/categories_v2/shops/technology_', 'suffix': '.png'}, 'primary': True}]",,FR,,France,535f8261498e018d8201ca03,45.75844955444336,4.852370262145996,Cityzen Sciences HQ,69003,4bf58dd8d48988d125941735,Tech Startup,Rhône-Alpes
48,"[{'id': '4bf58dd8d48988d125941735', 'name': 'Tech Startup', 'pluralName': 'Tech Startups', 'shortName': 'Tech Startup', 'icon': {'prefix': 'https://ss3.4sqi.net/img/categories_v2/shops/technology_', 'suffix': '.png'}, 'primary': True}]",,FR,,France,52824fef498ee37d05029b20,45.75133931442998,4.855895487820479,OnlySO,Rhône,4bf58dd8d48988d125941735,Tech Startup,69003
49,"[{'id': '4bf58dd8d48988d125941735', 'name': 'Tech Startup', 'pluralName': 'Tech Startups', 'shortName': 'Tech Startup', 'icon': {'prefix': 'https://ss3.4sqi.net/img/categories_v2/shops/technology_', 'suffix': '.png'}, 'primary': True}]",,FR,,France,4edc96be0aaf49e02c24059f,45.726768493652344,4.922177314758301,Agence ComputaCenter,,4bf58dd8d48988d125941735,Tech Startup,
1,"[{'id': '4bf58dd8d48988d125941735', 'name': 'Tech Startup', 'pluralName': 'Tech Startups', 'shortName': 'Tech Startup', 'icon': {'prefix': 'https://ss3.4sqi.net/img/categories_v2/shops/technology_', 'suffix': '.png'}, 'primary': True}]",,FR,,France,4c6519f5cdb6e21ec02f343e,45.68781514,4.98478446,Teepy France,,4bf58dd8d48988d125941735,Tech Startup,
3,"[{'id': '4bf58dd8d48988d125941735', 'name': 'Tech Startup', 'pluralName': 'Tech Startups', 'shortName': 'Tech Startup', 'icon': {'prefix': 'https://ss3.4sqi.net/img/categories_v2/shops/technology_', 'suffix': '.png'}, 'primary': True}]",,FR,,France,5035ee55e4b07cc1aab740bf,45.719478008432425,4.970604026640404,O.M.S Distribution,,4bf58dd8d48988d125941735,Tech Startup,
4,"[{'id': '4bf58dd8d48988d125941735', 'name': 'Tech Startup', 'pluralName': 'Tech Startups', 'shortName': 'Tech Startup', 'icon': {'prefix': 'https://ss3.4sqi.net/img/categories_v2/shops/technology_', 'suffix': '.png'}, 'primary': True}]",,FR,,France,50810e25e4b0d2d662b857d9,45.713683,4.926813,Le Mur A Saucisse,,4bf58dd8d48988d125941735,Tech Startup,
5,"[{'id': '4bf58dd8d48988d125941735', 'name': 'Tech Startup', 'pluralName': 'Tech Startups', 'shortName': 'Tech Startup', 'icon': {'prefix': 'https://ss3.4sqi.net/img/categories_v2/shops/technology_', 'suffix': '.png'}, 'primary': True}]",,FR,,France,4d4bbafc7a45721edfe4bc54,45.80876465,4.83212269,REEL S.A.S.,69450,4bf58dd8d48988d125941735,Tech Startup,Rhône-Alpes
43,"[{'id': '4bf58dd8d48988d125941735', 'name': 'Tech Startup', 'pluralName': 'Tech Startups', 'shortName': 'Tech Startup', 'icon': {'prefix': 'https://ss3.4sqi.net/img/categories_v2/shops/technology_', 'suffix': '.png'}, 'primary': True}]",,FR,,France,4d8d1f83d00a6ea87dde9a4f,45.77647496333064,4.843872018746082,Grrre.eu,69001,4bf58dd8d48988d125941735,Tech Startup,Rhône-Alpes
44,"[{'id': '4bf58dd8d48988d125941735', 'name': 'Tech Startup', 'pluralName': 'Tech Startups', 'shortName': 'Tech Startup', 'icon': {'prefix': 'https://ss3.4sqi.net/img/categories_v2/shops/technology_', 'suffix': '.png'}, 'primary': True}]",,FR,,France,51a27b1d498e557622179daa,45.768079,4.84579,Extra Communication,,4bf58dd8d48988d125941735,Tech Startup,Rhône-Alpes
46,"[{'id': '4bf58dd8d48988d125941735', 'name': 'Tech Startup', 'pluralName': 'Tech Startups', 'shortName': 'Tech Startup', 'icon': {'prefix': 'https://ss3.4sqi.net/img/categories_v2/shops/technology_', 'suffix': '.png'}, 'primary': True}]",,FR,,France,508114e5e4b0616695eea3ae,45.77279013395598,4.860020016906682,OpenWide,69100,4bf58dd8d48988d125941735,Tech Startup,Rhône-Alpes
47,"[{'id': '4bf58dd8d48988d125941735', 'name': 'Tech Startup', 'pluralName': 'Tech Startups', 'shortName': 'Tech Startup', 'icon': {'prefix': 'https://ss3.4sqi.net/img/categories_v2/shops/technology_', 'suffix': '.png'}, 'primary': True}]",,FR,,France,526a9585498e35533e5d8e80,45.773389,4.844113,Square,,4bf58dd8d48988d125941735,Tech Startup,Rhône-Alpes
48,"[{'id': '4bf58dd8d48988d125941735', 'name': 'Tech Startup', 'pluralName': 'Tech Startups', 'shortName': 'Tech Startup', 'icon': {'prefix': 'https://ss3.4sqi.net/img/categories_v2/shops/technology_', 'suffix': '.png'}, 'primary': True}]",,FR,,France,57271f58498e8d0ac5d64952,45.778458,4.868114,Netcats / Dékalée,69100,4bf58dd8d48988d125941735,Tech Startup,Rhône-Alpes
30,"[{'id': '4bf58dd8d48988d125941735', 'name': 'Tech Startup', 'pluralName': 'Tech Startups', 'shortName': 'Tech Startup', 'icon': {'prefix': 'https://ss3.4sqi.net/img/categories_v2/shops/technology_', 'suffix': '.png'}, 'primary': True}]",,FR,,France,503fdbcee4b0c996b1f5e521,45.756414,4.847308,Lacompany,69003,4bf58dd8d48988d125941735,Tech Startup,Rhône-Alpes
32,"[{'id': '4bf58dd8d48988d125941735', 'name': 'Tech Startup', 'pluralName': 'Tech Startups', 'shortName': 'Tech Startup', 'icon': {'prefix': 'https://ss3.4sqi.net/img/categories_v2/shops/technology_', 'suffix': '.png'}, 'primary': True}]",,FR,,France,50ea9c61e4b0c5df407214fa,45.7462180520088,4.824495607077517,In Buzz We Trust,69006,4bf58dd8d48988d125941735,Tech Startup,Rhône-Alpes
33,"[{'id': '4bf58dd8d48988d125941735', 'name': 'Tech Startup', 'pluralName': 'Tech Startups', 'shortName': 'Tech Startup', 'icon': {'prefix': 'https://ss3.4sqi.net/img/categories_v2/shops/technology_', 'suffix': '.png'}, 'primary': True}]",,FR,,France,50333cd2e4b00d8f16c084f0,45.755989482862795,4.842356903865556,Square Glasses,,4bf58dd8d48988d125941735,Tech Startup,Rhône-Alpes
35,"[{'id': '4bf58dd8d48988d125941735', 'name': 'Tech Startup', 'pluralName': 'Tech Startups', 'shortName': 'Tech Startup', 'icon': {'prefix': 'https://ss3.4sqi.net/img/categories_v2/shops/technology_', 'suffix': '.png'}, 'primary': True}]",,FR,,France,4bcd84b6fb84c9b68216223e,45.75507646415945,4.845474779626323,Zepass.com,69003,4bf58dd8d48988d125941735,Tech Startup,Rhône-Alpes
37,"[{'id': '4bf58dd8d48988d125941735', 'name': 'Tech Startup', 'pluralName': 'Tech Startups', 'shortName': 'Tech Startup', 'icon': {'prefix': 'https://ss3.4sqi.net/img/categories_v2/shops/technology_', 'suffix': '.png'}, 'primary': True}]",,FR,,France,54476cd8498e578995ebd946,45.75169178396571,4.824725389480591,Flytem - Photo et vidéo aérienne par drone,69002,4bf58dd8d48988d125941735,Tech Startup,Rhône-Alpes
38,"[{'id': '4bf58dd8d48988d125941735', 'name': 'Tech Startup', 'pluralName': 'Tech Startups', 'shortName': 'Tech Startup', 'icon': {'prefix': 'https://ss3.4sqi.net/img/categories_v2/shops/technology_', 'suffix': '.png'}, 'primary': True}]",,FR,,France,51a2a91d498efd44da91b2a6,45.747802,4.838325,Piment Givré,,4bf58dd8d48988d125941735,Tech Startup,Rhône-Alpes
42,"[{'id': '4bf58dd8d48988d125941735', 'name': 'Tech Startup', 'pluralName': 'Tech Startups', 'shortName': 'Tech Startup', 'icon': {'prefix': 'https://ss3.4sqi.net/img/categories_v2/shops/technology_', 'suffix': '.png'}, 'primary': True}]",,FR,,France,4c6949313bad2d7f7d64afee,45.75494093333333,4.8455373250000005,Kreactive,69003,4bf58dd8d48988d125941735,Tech Startup,Rhône-Alpes
20,"[{'id': '4bf58dd8d48988d125941735', 'name': 'Tech Startup', 'pluralName': 'Tech Startups', 'shortName': 'Tech Startup', 'icon': {'prefix': 'https://ss3.4sqi.net/img/categories_v2/shops/technology_', 'suffix': '.png'}, 'primary': True}]",,FR,,France,4df9aae4b61c7e9df14cf013,45.78055,4.933379,Cup And Co,69120,4bf58dd8d48988d125941735,Tech Startup,RA
24,"[{'id': '4bf58dd8d48988d125941735', 'name': 'Tech Startup', 'pluralName': 'Tech Startups', 'shortName': 'Tech Startup', 'icon': {'prefix': 'https://ss3.4sqi.net/img/categories_v2/shops/technology_', 'suffix': '.png'}, 'primary': True}]",,FR,,France,4f717036e4b007de8fc5e081,45.782159999324314,4.859448008744796,microsoft Lyon,69003,4bf58dd8d48988d125941735,Tech Startup,Rhône-Alpes
25,"[{'id': '4bf58dd8d48988d125941735', 'name': 'Tech Startup', 'pluralName': 'Tech Startups', 'shortName': 'Tech Startup', 'icon': {'prefix': 'https://ss3.4sqi.net/img/categories_v2/shops/technology_', 'suffix': '.png'}, 'primary': True}]",,FR,,France,4c50150b3a6f2d7fc9c0f076,45.77779024169256,4.860162734985352,Corexpert,69100,4bf58dd8d48988d125941735,Tech Startup,Rhône-Alpes
28,"[{'id': '4bf58dd8d48988d125941735', 'name': 'Tech Startup', 'pluralName': 'Tech Startups', 'shortName': 'Tech Startup', 'icon': {'prefix': 'https://ss3.4sqi.net/img/categories_v2/shops/technology_', 'suffix': '.png'}, 'primary': True}]",,FR,,France,58a5e10d8cfe5451eb5c71a5,45.767012,4.859405,Newtone Technologies,,4bf58dd8d48988d125941735,Tech Startup,
29,"[{'id': '4bf58dd8d48988d174941735', 'name': 'Coworking Space', 'pluralName': 'Coworking Spaces', 'shortName': 'Coworking Space', 'icon': {'prefix': 'https://ss3.4sqi.net/img/categories_v2/building/office_coworkingspace_', 'suffix': '.png'}, 'primary': True}]",,FR,,France,4c356d7d213c2d7fb72f3a5d,45.772069,4.868696,altima°,69100,4bf58dd8d48988d174941735,Coworking Space,Rhône-Alpes
30,"[{'id': '4bf58dd8d48988d124941735', 'name': 'Office', 'pluralName': 'Offices', 'shortName': 'Office', 'icon': {'prefix': 'https://ss3.4sqi.net/img/categories_v2/building/default_', 'suffix': '.png'}, 'primary': True}]",,FR,,France,4c1a283d9990d13aec5d7c17,45.77701203015191,4.85994815826416,ELAO,69100,4bf58dd8d48988d124941735,Office,Rhône-Alpes
31,"[{'id': '4bf58dd8d48988d125941735', 'name': 'Tech Startup', 'pluralName': 'Tech Startups', 'shortName': 'Tech Startup', 'icon': {'prefix': 'https://ss3.4sqi.net/img/categories_v2/shops/technology_', 'suffix': '.png'}, 'primary': True}]",,FR,,France,51da661eccdab179cd117405,45.775118835575874,4.928247928619385,iOnWeb,69120,4bf58dd8d48988d125941735,Tech Startup,Rhône-Alpes
33,"[{'id': '4bf58dd8d48988d125941735', 'name': 'Tech Startup', 'pluralName': 'Tech Startups', 'shortName': 'Tech Startup', 'icon': {'prefix': 'https://ss3.4sqi.net/img/categories_v2/shops/technology_', 'suffix': '.png'}, 'primary': True}]",,FR,,France,4dfe320db0fb709b61e2eb5a,45.781907,4.872734,Tumbup HQ,69100,4bf58dd8d48988d125941735,Tech Startup,Rhône-Alpes
35,"[{'id': '4bf58dd8d48988d125941735', 'name': 'Tech Startup', 'pluralName': 'Tech Startups', 'shortName': 'Tech Startup', 'icon': {'prefix': 'https://ss3.4sqi.net/img/categories_v2/shops/technology_', 'suffix': '.png'}, 'primary': True}]",,FR,,France,4d2b1f8f4ab78eec466d3126,45.78326404094696,4.880053997039795,Kalistick,69100,4bf58dd8d48988d125941735,Tech Startup,Rhône-Alpes
36,"[{'id': '4bf58dd8d48988d125941735', 'name': 'Tech Startup', 'pluralName': 'Tech Startups', 'shortName': 'Tech Startup', 'icon': {'prefix': 'https://ss3.4sqi.net/img/categories_v2/shops/technology_', 'suffix': '.png'}, 'primary': True}]",,FR,,France,52a215e011d212bf7c62d88f,45.788758875728504,4.908871650695801,Entreprise Habouki,69120,4bf58dd8d48988d125941735,Tech Startup,Rhône-Alpes
38,"[{'id': '4bf58dd8d48988d125941735', 'name': 'Tech Startup', 'pluralName': 'Tech Startups', 'shortName': 'Tech Startup', 'icon': {'prefix': 'https://ss3.4sqi.net/img/categories_v2/shops/technology_', 'suffix': '.png'}, 'primary': True}]",,FR,,France,4e244dd918a88345f0691374,45.782663,4.874367,Resideclic,,4bf58dd8d48988d125941735,Tech Startup,Rhône-Alpes
39,"[{'id': '4bf58dd8d48988d125941735', 'name': 'Tech Startup', 'pluralName': 'Tech Startups', 'shortName': 'Tech Startup', 'icon': {'prefix': 'https://ss3.4sqi.net/img/categories_v2/shops/technology_', 'suffix': '.png'}, 'primary': True}]",,FR,,France,4dc925ce887721632c7158cc,45.78653773991957,4.882109364894802,Crealys,,4bf58dd8d48988d125941735,Tech Startup,
40,"[{'id': '4bf58dd8d48988d125941735', 'name': 'Tech Startup', 'pluralName': 'Tech Startups', 'shortName': 'Tech Startup', 'icon': {'prefix': 'https://ss3.4sqi.net/img/categories_v2/shops/technology_', 'suffix': '.png'}, 'primary': True}]",,FR,,France,4ba7a45bf964a52053a539e3,45.778666851570364,4.868328839288549,CyberCité,,4bf58dd8d48988d125941735,Tech Startup,Rhône-Alpes
41,"[{'id': '4bf58dd8d48988d125941735', 'name': 'Tech Startup', 'pluralName': 'Tech Startups', 'shortName': 'Tech Startup', 'icon': {'prefix': 'https://ss3.4sqi.net/img/categories_v2/shops/technology_', 'suffix': '.png'}, 'primary': True}]",,FR,,France,4fd868a7e4b000122d740ac7,45.7732905048565,4.858836195728736,MAGELLAN,,4bf58dd8d48988d125941735,Tech Startup,Rhône-Alpes
42,"[{'id': '4bf58dd8d48988d125941735', 'name': 'Tech Startup', 'pluralName': 'Tech Startups', 'shortName': 'Tech Startup', 'icon': {'prefix': 'https://ss3.4sqi.net/img/categories_v2/shops/technology_', 'suffix': '.png'}, 'primary': True}]",,FR,,France,4dda0b5cb0fb8af380c4ee30,45.782928788901565,4.8803339659929,SysFera,69100,4bf58dd8d48988d125941735,Tech Startup,RA
43,"[{'id': '4bf58dd8d48988d125941735', 'name': 'Tech Startup', 'pluralName': 'Tech Startups', 'shortName': 'Tech Startup', 'icon': {'prefix': 'https://ss3.4sqi.net/img/categories_v2/shops/technology_', 'suffix': '.png'}, 'primary': True}]",,FR,,France,4e5f4d2d88771c94689c6306,45.78621413453563,4.879506838938611,Neovenz,,4bf58dd8d48988d125941735,Tech Startup,Rhône-Alpes
47,"[{'id': '4d954b06a243a5684965b473', 'name': 'Residential Building (Apartment / Condo)', 'pluralName': 'Residential Buildings (Apartments / Condos)', 'shortName': 'Residential', 'icon': {'prefix': 'https://ss3.4sqi.net/img/categories_v2/building/apartment_', 'suffix': '.png'}, 'primary': True}]",,FR,,France,4ffd94598302b48bbb1cd32a,45.76840608235052,4.875837564468384,Damien Clauzel,69100,4d954b06a243a5684965b473,Residential Building (Apartment / Condo),Rhône-Alpes
48,"[{'id': '4bf58dd8d48988d125941735', 'name': 'Tech Startup', 'pluralName': 'Tech Startups', 'shortName': 'Tech Startup', 'icon': {'prefix': 'https://ss3.4sqi.net/img/categories_v2/shops/technology_', 'suffix': '.png'}, 'primary': True}]",,FR,,France,51262a9ce4b0977530c1a7b1,45.750327,4.875191,Chez Duc Viet,,4bf58dd8d48988d125941735,Tech Startup,
49,"[{'id': '4bf58dd8d48988d125941735', 'name': 'Tech Startup', 'pluralName': 'Tech Startups', 'shortName': 'Tech Startup', 'icon': {'prefix': 'https://ss3.4sqi.net/img/categories_v2/shops/technology_', 'suffix': '.png'}, 'primary': True}]",,FR,,France,5791dacd498e5988d22a8787,45.76252,4.864076,iRevolution,69003,4bf58dd8d48988d125941735,Tech Startup,Rhône-Alpes
0,"[{'id': '4bf58dd8d48988d125941735', 'name': 'Tech Startup', 'pluralName': 'Tech Startups', 'shortName': 'Tech Startup', 'icon': {'prefix': 'https://ss3.4sqi.net/img/categories_v2/shops/technology_', 'suffix': '.png'}, 'primary': True}]",,FR,,France,54af91d2498e93921ae3818f,45.880407629253206,4.708998799324036,AS-PC Solutions Informatiques - Lyon (siège),69380,4bf58dd8d48988d125941735,Tech Startup,Rhones Alpes
0,"[{'id': '4bf58dd8d48988d125941735', 'name': 'Tech Startup', 'pluralName': 'Tech Startups', 'shortName': 'Tech Startup', 'icon': {'prefix': 'https://ss3.4sqi.net/img/categories_v2/shops/technology_', 'suffix': '.png'}, 'primary': True}]",,FR,,France,4eb41c75b634a0485f928267,45.616262,5.235663,Dezup,,4bf58dd8d48988d125941735,Tech Startup,Rhône-Alpes
31,"[{'id': '4bf58dd8d48988d125941735', 'name': 'Tech Startup', 'pluralName': 'Tech Startups', 'shortName': 'Tech Startup', 'icon': {'prefix': 'https://ss3.4sqi.net/img/categories_v2/shops/technology_', 'suffix': '.png'}, 'primary': True}]",,FR,,France,4db924e46e818f67a9b83a94,45.787168671463924,4.810380133305228,Akka Technologies,69009,4bf58dd8d48988d125941735,Tech Startup,Rhône-Alpes
32,"[{'id': '4bf58dd8d48988d125941735', 'name': 'Tech Startup', 'pluralName': 'Tech Startups', 'shortName': 'Tech Startup', 'icon': {'prefix': 'https://ss3.4sqi.net/img/categories_v2/shops/technology_', 'suffix': '.png'}, 'primary': True}]",,FR,,France,50445343e4b0379868965ede,45.806278888706906,4.769017642516091,Nomadvance,,4bf58dd8d48988d125941735,Tech Startup,Rhône-Alpes
6,"[{'id': '4bf58dd8d48988d124941735', 'name': 'Office', 'pluralName': 'Offices', 'shortName': 'Office', 'icon': {'prefix': 'https://ss3.4sqi.net/img/categories_v2/building/default_', 'suffix': '.png'}, 'primary': True}]",,FR,,France,4da6cd39a86e2156816bc2f6,45.737343878442665,4.695597309695589,GAEANOVA sas,69260,4bf58dd8d48988d124941735,Office,Rhône-Alpes
7,"[{'id': '4bf58dd8d48988d125941735', 'name': 'Tech Startup', 'pluralName': 'Tech Startups', 'shortName': 'Tech Startup', 'icon': {'prefix': 'https://ss3.4sqi.net/img/categories_v2/shops/technology_', 'suffix': '.png'}, 'primary': True}]",,FR,,France,4d4686e00bcd2c0f7d462ea1,45.73732381642083,4.695582389831543,cMo conseils,69290,4bf58dd8d48988d125941735,Tech Startup,Rhône-Alpes
0,"[{'id': '4bf58dd8d48988d125941735', 'name': 'Tech Startup', 'pluralName': 'Tech Startups', 'shortName': 'Tech Startup', 'icon': {'prefix': 'https://ss3.4sqi.net/img/categories_v2/shops/technology_', 'suffix': '.png'}, 'primary': True}]",,FR,,France,538830ea498e39acdc8dd3e0,45.76877212524414,5.037792682647705,WDB,69330,4bf58dd8d48988d125941735,Tech Startup,Rhône-Alpes
0,"[{'id': '4bf58dd8d48988d125941735', 'name': 'Tech Startup', 'pluralName': 'Tech Startups', 'shortName': 'Tech Startup', 'icon': {'prefix': 'https://ss3.4sqi.net/img/categories_v2/shops/technology_', 'suffix': '.png'}, 'primary': True}]",,FR,,France,5326f03011d2ffc33bf20ae2,45.65010605271567,5.100845245427539,Missler Software,,4bf58dd8d48988d125941735,Tech Startup,
37,"[{'id': '4bf58dd8d48988d125941735', 'name': 'Tech Startup', 'pluralName': 'Tech Startups', 'shortName': 'Tech Startup', 'icon': {'prefix': 'https://ss3.4sqi.net/img/categories_v2/shops/technology_', 'suffix': '.png'}, 'primary': True}]",,FR,,France,4bbc6d50e4529521edd655a4,45.764987,4.836269,weezim.com,69002,4bf58dd8d48988d125941735,Tech Startup,Rhône-Alpes
16,"[{'id': '4bf58dd8d48988d125941735', 'name': 'Tech Startup', 'pluralName': 'Tech Startups', 'shortName': 'Tech Startup', 'icon': {'prefix': 'https://ss3.4sqi.net/img/categories_v2/shops/technology_', 'suffix': '.png'}, 'primary': True}]",,FR,,France,54b3ec59498e594f4be13849,45.728902617800905,4.9041355318424,Valoricert Group - Siège,69500,4bf58dd8d48988d125941735,Tech Startup,Rhône-Alpes
0,"[{'id': '4bf58dd8d48988d125941735', 'name': 'Tech Startup', 'pluralName': 'Tech Startups', 'shortName': 'Tech Startup', 'icon': {'prefix': 'https://ss3.4sqi.net/img/categories_v2/shops/technology_', 'suffix': '.png'}, 'primary': True}]",,FR,,France,514b6061e4b0bfb828d6dafb,45.85857,4.771682,JTD Office,,4bf58dd8d48988d125941735,Tech Startup,
0,"[{'id': '4bf58dd8d48988d125941735', 'name': 'Tech Startup', 'pluralName': 'Tech Startups', 'shortName': 'Tech Startup', 'icon': {'prefix': 'https://ss3.4sqi.net/img/categories_v2/shops/technology_', 'suffix': '.png'}, 'primary': True}]",,FR,,France,4f2fb868e4b067066f740f84,45.85329,4.90945,PC COMET,,4bf58dd8d48988d125941735,Tech Startup,Rhône-Alpes
0,"[{'id': '4bf58dd8d48988d124941735', 'name': 'Office', 'pluralName': 'Offices', 'shortName': 'Office', 'icon': {'prefix': 'https://ss3.4sqi.net/img/categories_v2/building/default_', 'suffix': '.png'}, 'primary': True}]",,FR,,France,4d00cf5d75d3236ad171ecf7,45.76477729395646,4.846003090417724,Orange Business Services,69006,4bf58dd8d48988d124941735,Office,Rhône-Alpes
1,"[{'id': '4bf58dd8d48988d174941735', 'name': 'Coworking Space', 'pluralName': 'Coworking Spaces', 'shortName': 'Coworking Space', 'icon': {'prefix': 'https://ss3.4sqi.net/img/categories_v2/building/office_coworkingspace_', 'suffix': '.png'}, 'primary': True}]",,FR,,France,4ff2d51de4b0d76472adca0d,45.780617,4.884089,Boccard,,4bf58dd8d48988d174941735,Coworking Space,
2,"[{'id': '4bf58dd8d48988d174941735', 'name': 'Coworking Space', 'pluralName': 'Coworking Spaces', 'shortName': 'Coworking Space', 'icon': {'prefix': 'https://ss3.4sqi.net/img/categories_v2/building/office_coworkingspace_', 'suffix': '.png'}, 'primary': True}]",,FR,,France,4bc83e1a92b376b0c206513a,45.78765246779621,4.813453478515264,SQLI Lyon,69009,4bf58dd8d48988d174941735,Coworking Space,Rhône-Alpes
3,"[{'id': '4bf58dd8d48988d174941735', 'name': 'Coworking Space', 'pluralName': 'Coworking Spaces', 'shortName': 'Coworking Space', 'icon': {'prefix': 'https://ss3.4sqi.net/img/categories_v2/building/office_coworkingspace_', 'suffix': '.png'}, 'primary': True}]",,FR,,France,5acb00c5e65d0c7dca13ede1,45.767877,4.870055,Salle 2 Formation,69100,4bf58dd8d48988d174941735,Coworking Space,Rhône-Alpes
4,"[{'id': '4bf58dd8d48988d1e0931735', 'name': 'Coffee Shop', 'pluralName': 'Coffee Shops', 'shortName': 'Coffee Shop', 'icon': {'prefix': 'https://ss3.4sqi.net/img/categories_v2/food/coffeeshop_', 'suffix': '.png'}, 'primary': True}]",,FR,,France,5888691bfc73d43a0e2fe49e,45.7662006568329,4.835215196007993,Anticafé,69001,4bf58dd8d48988d1e0931735,Coffee Shop,Rhône-Alpes
5,"[{'id': '4bf58dd8d48988d174941735', 'name': 'Coworking Space', 'pluralName': 'Coworking Spaces', 'shortName': 'Coworking Space', 'icon': {'prefix': 'https://ss3.4sqi.net/img/categories_v2/building/office_coworkingspace_', 'suffix': '.png'}, 'primary': True}]",,FR,,France,4bea80b962c0c9289adfe0d4,45.794276972337165,4.844898907446748,Apicil,,4bf58dd8d48988d174941735,Coworking Space,Rhône-Alpes
6,"[{'id': '4bf58dd8d48988d174941735', 'name': 'Coworking Space', 'pluralName': 'Coworking Spaces', 'shortName': 'Coworking Space', 'icon': {'prefix': 'https://ss3.4sqi.net/img/categories_v2/building/office_coworkingspace_', 'suffix': '.png'}, 'primary': True}]",,FR,,France,596e4f74ff190262a6758ea5,45.759074,4.841683,In-Sted,69003,4bf58dd8d48988d174941735,Coworking Space,Rhône-Alpes
7,"[{'id': '4bf58dd8d48988d174941735', 'name': 'Coworking Space', 'pluralName': 'Coworking Spaces', 'shortName': 'Coworking Space', 'icon': {'prefix': 'https://ss3.4sqi.net/img/categories_v2/building/office_coworkingspace_', 'suffix': '.png'}, 'primary': True}]",,FR,,France,5a6af7b8dee770696f57b712,45.751486,4.824476,Le Simone - Coworking Cafe,69002,4bf58dd8d48988d174941735,Coworking Space,Rhône-Alpes
8,"[{'id': '4bf58dd8d48988d174941735', 'name': 'Coworking Space', 'pluralName': 'Coworking Spaces', 'shortName': 'Coworking Space', 'icon': {'prefix': 'https://ss3.4sqi.net/img/categories_v2/building/office_coworkingspace_', 'suffix': '.png'}, 'primary': True}]",,FR,,France,4c763f9bff1fb60c4156f8a7,45.739880702375174,4.888285428256989,Bioparc laennec,,4bf58dd8d48988d174941735,Coworking Space,Rhône-Alpes
9,"[{'id': '4bf58dd8d48988d174941735', 'name': 'Coworking Space', 'pluralName': 'Coworking Spaces', 'shortName': 'Coworking Space', 'icon': {'prefix': 'https://ss3.4sqi.net/img/categories_v2/building/office_coworkingspace_', 'suffix': '.png'}, 'primary': True}]",,FR,,France,5c1257b4418686002c96b5fa,45.758546,4.836296,Nextdoor,69002,4bf58dd8d48988d174941735,Coworking Space,Rhône-Alpes
10,"[{'id': '4bf58dd8d48988d174941735', 'name': 'Coworking Space', 'pluralName': 'Coworking Spaces', 'shortName': 'Coworking Space', 'icon': {'prefix': 'https://ss3.4sqi.net/img/categories_v2/building/office_coworkingspace_', 'suffix': '.png'}, 'primary': True}]",,FR,,France,5bc6fa47345cbe002c4fd6d9,45.742035,4.8190026,Rokoriko,69002,4bf58dd8d48988d174941735,Coworking Space,Auvergne-Rhône-Alpes
11,"[{'id': '4bf58dd8d48988d174941735', 'name': 'Coworking Space', 'pluralName': 'Coworking Spaces', 'shortName': 'Coworking Space', 'icon': {'prefix': 'https://ss3.4sqi.net/img/categories_v2/building/office_coworkingspace_', 'suffix': '.png'}, 'primary': True}]",,FR,,France,55e566ca498e5edc930d7af2,45.76826927828874,4.833968513246683,Sofffa,69001,4bf58dd8d48988d174941735,Coworking Space,Rhône-Alpes
12,"[{'id': '4bf58dd8d48988d174941735', 'name': 'Coworking Space', 'pluralName': 'Coworking Spaces', 'shortName': 'Coworking Space', 'icon': {'prefix': 'https://ss3.4sqi.net/img/categories_v2/building/office_coworkingspace_', 'suffix': '.png'}, 'primary': True}]",,FR,,France,50d0667ae4b0ce0a78fd7e9a,45.771562,4.832059,Factory 51,,4bf58dd8d48988d174941735,Coworking Space,
13,"[{'id': '4bf58dd8d48988d174941735', 'name': 'Coworking Space', 'pluralName': 'Coworking Spaces', 'shortName': 'Coworking Space', 'icon': {'prefix': 'https://ss3.4sqi.net/img/categories_v2/building/office_coworkingspace_', 'suffix': '.png'}, 'primary': True}]",,FR,,France,4e5f8e90e4cda5eeaf75cd2d,45.791786346744445,4.819148989989139,Apicil,,4bf58dd8d48988d174941735,Coworking Space,
14,"[{'id': '4bf58dd8d48988d174941735', 'name': 'Coworking Space', 'pluralName': 'Coworking Spaces', 'shortName': 'Coworking Space', 'icon': {'prefix': 'https://ss3.4sqi.net/img/categories_v2/building/office_coworkingspace_', 'suffix': '.png'}, 'primary': True}]",,FR,,France,4bc46626f8219c74de41b710,45.75632648427999,4.831082440348822,Agence Bolero,,4bf58dd8d48988d174941735,Coworking Space,Lyon
15,"[{'id': '4bf58dd8d48988d174941735', 'name': 'Coworking Space', 'pluralName': 'Coworking Spaces', 'shortName': 'Coworking Space', 'icon': {'prefix': 'https://ss3.4sqi.net/img/categories_v2/building/office_coworkingspace_', 'suffix': '.png'}, 'primary': True}]",,FR,,France,59d266c90336930aa8fa7890,45.749618,4.843236,La Cordée - Jean Macé,69007,4bf58dd8d48988d174941735,Coworking Space,Rhône-Alpes
16,"[{'id': '4bf58dd8d48988d174941735', 'name': 'Coworking Space', 'pluralName': 'Coworking Spaces', 'shortName': 'Coworking Space', 'icon': {'prefix': 'https://ss3.4sqi.net/img/categories_v2/building/office_coworkingspace_', 'suffix': '.png'}, 'primary': True}]",,FR,,France,4da44f807c1d4eb9cff721c6,45.77118249891569,4.838087040596768,L'Atelier des médias - coworking Lyon,69001,4bf58dd8d48988d174941735,Coworking Space,Rhône-Alpes
17,"[{'id': '4bf58dd8d48988d174941735', 'name': 'Coworking Space', 'pluralName': 'Coworking Spaces', 'shortName': 'Coworking Space', 'icon': {'prefix': 'https://ss3.4sqi.net/img/categories_v2/building/office_coworkingspace_', 'suffix': '.png'}, 'primary': True}]",,FR,,France,592c2fc5da2e0026b1fcf1aa,45.75267621749068,4.838785529136658,Sofffa Guillotière,69007,4bf58dd8d48988d174941735,Coworking Space,Rhône-Alpes
18,"[{'id': '4bf58dd8d48988d174941735', 'name': 'Coworking Space', 'pluralName': 'Coworking Spaces', 'shortName': 'Coworking Space', 'icon': {'prefix': 'https://ss3.4sqi.net/img/categories_v2/building/office_coworkingspace_', 'suffix': '.png'}, 'primary': True}]",,FR,,France,4c19e3776e02b71384d2627b,45.7995734065418,4.807415769823308,Sword,69771,4bf58dd8d48988d174941735,Coworking Space,Rhône-Alpes
19,"[{'id': '4bf58dd8d48988d174941735', 'name': 'Coworking Space', 'pluralName': 'Coworking Spaces', 'shortName': 'Coworking Space', 'icon': {'prefix': 'https://ss3.4sqi.net/img/categories_v2/building/office_coworkingspace_', 'suffix': '.png'}, 'primary': True}]",,FR,,France,52834c9b11d245a6b60782cc,45.76177,4.848449,Regie Pedrini,,4bf58dd8d48988d174941735,Coworking Space,
20,"[{'id': '4bf58dd8d48988d174941735', 'name': 'Coworking Space', 'pluralName': 'Coworking Spaces', 'shortName': 'Coworking Space', 'icon': {'prefix': 'https://ss3.4sqi.net/img/categories_v2/building/office_coworkingspace_', 'suffix': '.png'}, 'primary': True}]",,FR,,France,4c73931b57b6a143d16dc8cc,45.76587016465938,4.858206405022396,Centre De Biomecanique Du Sport,69006,4bf58dd8d48988d174941735,Coworking Space,Rhône-Alpes
21,"[{'id': '4bf58dd8d48988d174941735', 'name': 'Coworking Space', 'pluralName': 'Coworking Spaces', 'shortName': 'Coworking Space', 'icon': {'prefix': 'https://ss3.4sqi.net/img/categories_v2/building/office_coworkingspace_', 'suffix': '.png'}, 'primary': True}]",,FR,,France,4f6c9412e4b03b3f387b0e4d,45.757042954539344,4.842796203586344,Mouvement des Jeunes Socialistes du Rhône,69003,4bf58dd8d48988d174941735,Coworking Space,Rhône-Alpes
22,"[{'id': '4bf58dd8d48988d174941735', 'name': 'Coworking Space', 'pluralName': 'Coworking Spaces', 'shortName': 'Coworking Space', 'icon': {'prefix': 'https://ss3.4sqi.net/img/categories_v2/building/office_coworkingspace_', 'suffix': '.png'}, 'primary': True}]",,FR,,France,4c349551213c2d7f52ad385d,45.776555,4.868126,Accueil Novius,,4bf58dd8d48988d174941735,Coworking Space,
23,"[{'id': '4bf58dd8d48988d174941735', 'name': 'Coworking Space', 'pluralName': 'Coworking Spaces', 'shortName': 'Coworking Space', 'icon': {'prefix': 'https://ss3.4sqi.net/img/categories_v2/building/office_coworkingspace_', 'suffix': '.png'}, 'primary': True}]",,FR,,France,4e9e769eb6340e3e3496227b,45.761889,4.859621,Dsi TCL,,4bf58dd8d48988d174941735,Coworking Space,Rhône-Alpes
24,"[{'id': '4bf58dd8d48988d174941735', 'name': 'Coworking Space', 'pluralName': 'Coworking Spaces', 'shortName': 'Coworking Space', 'icon': {'prefix': 'https://ss3.4sqi.net/img/categories_v2/building/office_coworkingspace_', 'suffix': '.png'}, 'primary': True}]",,FR,,France,5898d8c39526bc23b6120108,45.75358629999999,4.838632500000017,coworking en face de la piscine,69007,4bf58dd8d48988d174941735,Coworking Space,Rhône-Alpes
25,"[{'id': '4bf58dd8d48988d174941735', 'name': 'Coworking Space', 'pluralName': 'Coworking Spaces', 'shortName': 'Coworking Space', 'icon': {'prefix': 'https://ss3.4sqi.net/img/categories_v2/building/office_coworkingspace_', 'suffix': '.png'}, 'primary': True}]",,FR,,France,50a3a46c498eb13a3da6f2ac,45.751444,4.842599,Locaux Motiv',69007,4bf58dd8d48988d174941735,Coworking Space,Rhône-Alpes
26,"[{'id': '4bf58dd8d48988d174941735', 'name': 'Coworking Space', 'pluralName': 'Coworking Spaces', 'shortName': 'Coworking Space', 'icon': {'prefix': 'https://ss3.4sqi.net/img/categories_v2/building/office_coworkingspace_', 'suffix': '.png'}, 'primary': True}]",,FR,,France,4dac17f8f7b145b3703303aa,45.77019132,4.81259426,Le Grand Golf,69009,4bf58dd8d48988d174941735,Coworking Space,Rhône-Alpes
27,"[{'id': '58daa1558bbb0b01f18ec1f1', 'name': 'Insurance Office', 'pluralName': 'Insurance Offices', 'shortName': 'Insurance Office', 'icon': {'prefix': 'https://ss3.4sqi.net/img/categories_v2/shops/financial_', 'suffix': '.png'}, 'primary': True}]",,FR,,France,54a27982498ef340b3a32307,45.77136578,4.81155742,AXA Assurance Frederic Cornet,69009,58daa1558bbb0b01f18ec1f1,Insurance Office,Auvergne-Rhône-Alpes
28,"[{'id': '4bf58dd8d48988d174941735', 'name': 'Coworking Space', 'pluralName': 'Coworking Spaces', 'shortName': 'Coworking Space', 'icon': {'prefix': 'https://ss3.4sqi.net/img/categories_v2/building/office_coworkingspace_', 'suffix': '.png'}, 'primary': True}]",,FR,,France,51cc6aa7498ef762a2863e78,45.75174141390651,4.830961992666774,TrenteDeux Rue Franklin,,4bf58dd8d48988d174941735,Coworking Space,
29,"[{'id': '4bf58dd8d48988d174941735', 'name': 'Coworking Space', 'pluralName': 'Coworking Spaces', 'shortName': 'Coworking Space', 'icon': {'prefix': 'https://ss3.4sqi.net/img/categories_v2/building/office_coworkingspace_', 'suffix': '.png'}, 'primary': True}]",,FR,,France,564c44e7498eefae64c146fe,45.765194,4.782272,Adrénaline,,4bf58dd8d48988d174941735,Coworking Space,
30,"[{'id': '4bf58dd8d48988d174941735', 'name': 'Coworking Space', 'pluralName': 'Coworking Spaces', 'shortName': 'Coworking Space', 'icon': {'prefix': 'https://ss3.4sqi.net/img/categories_v2/building/office_coworkingspace_', 'suffix': '.png'}, 'primary': True}]",,FR,,France,4c6d26bc23c1a1cdb05e1bcf,45.7769501209259,4.871481657028198,Les Tanukis - Pôle Web,69100,4bf58dd8d48988d174941735,Coworking Space,Rhône-Alpes
31,"[{'id': '4bf58dd8d48988d174941735', 'name': 'Coworking Space', 'pluralName': 'Coworking Spaces', 'shortName': 'Coworking Space', 'icon': {'prefix': 'https://ss3.4sqi.net/img/categories_v2/building/office_coworkingspace_', 'suffix': '.png'}, 'primary': True}]",,FR,,France,4e1b0c0d52b1340b48c29eb4,45.72636299902748,4.824121996239524,Aguettant,69007,4bf58dd8d48988d174941735,Coworking Space,Rhône-Alpes
32,"[{'id': '4bf58dd8d48988d174941735', 'name': 'Coworking Space', 'pluralName': 'Coworking Spaces', 'shortName': 'Coworking Space', 'icon': {'prefix': 'https://ss3.4sqi.net/img/categories_v2/building/office_coworkingspace_', 'suffix': '.png'}, 'primary': True}]",,FR,,France,4e81e514469032a28cc32f07,45.769551,4.832421,Digitz,69001,4bf58dd8d48988d174941735,Coworking Space,Rhône-Alpes
33,"[{'id': '4bf58dd8d48988d174941735', 'name': 'Coworking Space', 'pluralName': 'Coworking Spaces', 'shortName': 'Coworking Space', 'icon': {'prefix': 'https://ss3.4sqi.net/img/categories_v2/building/office_coworkingspace_', 'suffix': '.png'}, 'primary': True}]",,FR,,France,4c3470dd09a99c7410220c2a,45.77006750788246,4.837846755981445,magazine,69001,4bf58dd8d48988d174941735,Coworking Space,Rhône-Alpes
34,"[{'id': '4bf58dd8d48988d174941735', 'name': 'Coworking Space', 'pluralName': 'Coworking Spaces', 'shortName': 'Coworking Space', 'icon': {'prefix': 'https://ss3.4sqi.net/img/categories_v2/building/office_coworkingspace_', 'suffix': '.png'}, 'primary': True}]",,FR,,France,4f1062abe4b04720438feebf,45.76339157010074,4.845764636993408,TAI Assistance,69003,4bf58dd8d48988d174941735,Coworking Space,Rhône-Alpes
35,"[{'id': '4bf58dd8d48988d174941735', 'name': 'Coworking Space', 'pluralName': 'Coworking Spaces', 'shortName': 'Coworking Space', 'icon': {'prefix': 'https://ss3.4sqi.net/img/categories_v2/building/office_coworkingspace_', 'suffix': '.png'}, 'primary': True}]",,FR,,France,51792249e4b06f57e1de7cd0,45.747124777660616,4.824757353910575,baya Access,,4bf58dd8d48988d174941735,Coworking Space,Rhône-Alpes
36,"[{'id': '4bf58dd8d48988d174941735', 'name': 'Coworking Space', 'pluralName': 'Coworking Spaces', 'shortName': 'Coworking Space', 'icon': {'prefix': 'https://ss3.4sqi.net/img/categories_v2/building/office_coworkingspace_', 'suffix': '.png'}, 'primary': True}]",,FR,,France,5137174e526276cc64803611,45.746997706249836,4.8041582107543945,Kubiweb,69110,4bf58dd8d48988d174941735,Coworking Space,Rhône-Alpes
37,"[{'id': '4bf58dd8d48988d174941735', 'name': 'Coworking Space', 'pluralName': 'Coworking Spaces', 'shortName': 'Coworking Space', 'icon': {'prefix': 'https://ss3.4sqi.net/img/categories_v2/building/office_coworkingspace_', 'suffix': '.png'}, 'primary': True}]",,FR,,France,4c6e87b7e6b7b1f7fdbfac8e,45.745485271893486,4.849642420356623,CoSpirit,69007,4bf58dd8d48988d174941735,Coworking Space,Rhône-Alpes
38,"[{'id': '4bf58dd8d48988d174941735', 'name': 'Coworking Space', 'pluralName': 'Coworking Spaces', 'shortName': 'Coworking Space', 'icon': {'prefix': 'https://ss3.4sqi.net/img/categories_v2/building/office_coworkingspace_', 'suffix': '.png'}, 'primary': True}]",,FR,,France,4db8f35393a0f369e86534b4,45.772668,4.860212,L'Arc,69100,4bf58dd8d48988d174941735,Coworking Space,Rhône-Alpes
39,"[{'id': '4bf58dd8d48988d174941735', 'name': 'Coworking Space', 'pluralName': 'Coworking Spaces', 'shortName': 'Coworking Space', 'icon': {'prefix': 'https://ss3.4sqi.net/img/categories_v2/building/office_coworkingspace_', 'suffix': '.png'}, 'primary': True}]",,FR,,France,4eef0f1e754aeaf80d025072,45.76709606010578,4.837258998053636,GRAME,69002,4bf58dd8d48988d174941735,Coworking Space,Rhône-Alpes
40,"[{'id': '4bf58dd8d48988d174941735', 'name': 'Coworking Space', 'pluralName': 'Coworking Spaces', 'shortName': 'Coworking Space', 'icon': {'prefix': 'https://ss3.4sqi.net/img/categories_v2/building/office_coworkingspace_', 'suffix': '.png'}, 'primary': True}]",,FR,,France,502d1e76e4b04d70bd43c84a,45.7696057310902,4.851235080710647,Vestiaire des filles,69006,4bf58dd8d48988d174941735,Coworking Space,Rhône-Alpes
41,"[{'id': '4bf58dd8d48988d174941735', 'name': 'Coworking Space', 'pluralName': 'Coworking Spaces', 'shortName': 'Coworking Space', 'icon': {'prefix': 'https://ss3.4sqi.net/img/categories_v2/building/office_coworkingspace_', 'suffix': '.png'}, 'primary': True}]",,FR,,France,5198847c498e6cc07a478c20,45.762046813964844,4.859125137329102,Yahoo France,,4bf58dd8d48988d174941735,Coworking Space,Rhône-Alpes
42,"[{'id': '4bf58dd8d48988d174941735', 'name': 'Coworking Space', 'pluralName': 'Coworking Spaces', 'shortName': 'Coworking Space', 'icon': {'prefix': 'https://ss3.4sqi.net/img/categories_v2/building/office_coworkingspace_', 'suffix': '.png'}, 'primary': True}]",,FR,,France,51a28591498ee3b3fcd98059,45.768648,4.834575,La boite -Atelier Graphique,,4bf58dd8d48988d174941735,Coworking Space,
43,"[{'id': '4bf58dd8d48988d174941735', 'name': 'Coworking Space', 'pluralName': 'Coworking Spaces', 'shortName': 'Coworking Space', 'icon': {'prefix': 'https://ss3.4sqi.net/img/categories_v2/building/office_coworkingspace_', 'suffix': '.png'}, 'primary': True}]",,FR,,France,547c8ab6498e8830737b0426,45.77780846295114,4.860623268982893,Siege Adecco Groupe France,69100,4bf58dd8d48988d174941735,Coworking Space,Rhône-Alpes
44,"[{'id': '4bf58dd8d48988d174941735', 'name': 'Coworking Space', 'pluralName': 'Coworking Spaces', 'shortName': 'Coworking Space', 'icon': {'prefix': 'https://ss3.4sqi.net/img/categories_v2/building/office_coworkingspace_', 'suffix': '.png'}, 'primary': True}]",,FR,,France,4edc68fbb6344371f94168b1,45.73457598554687,4.817882167181185,Paierie Régionale Rhône-Alpes,,4bf58dd8d48988d174941735,Coworking Space,
45,"[{'id': '4bf58dd8d48988d174941735', 'name': 'Coworking Space', 'pluralName': 'Coworking Spaces', 'shortName': 'Coworking Space', 'icon': {'prefix': 'https://ss3.4sqi.net/img/categories_v2/building/office_coworkingspace_', 'suffix': '.png'}, 'primary': True}]",,FR,,France,563b1789cd109bb13f3d7b9f,45.746091,4.843458,webup space,69007,4bf58dd8d48988d174941735,Coworking Space,Rhône-Alpes
46,"[{'id': '4bf58dd8d48988d174941735', 'name': 'Coworking Space', 'pluralName': 'Coworking Spaces', 'shortName': 'Coworking Space', 'icon': {'prefix': 'https://ss3.4sqi.net/img/categories_v2/building/office_coworkingspace_', 'suffix': '.png'}, 'primary': True}]",,FR,,France,5a0afa7cfc9e9441bbb508a1,45.78846785326117,4.814889192548435,Coworkimmo Lyon,69009,4bf58dd8d48988d174941735,Coworking Space,Rhône-Alpes
47,"[{'id': '4bf58dd8d48988d174941735', 'name': 'Coworking Space', 'pluralName': 'Coworking Spaces', 'shortName': 'Coworking Space', 'icon': {'prefix': 'https://ss3.4sqi.net/img/categories_v2/building/office_coworkingspace_', 'suffix': '.png'}, 'primary': True}]",,FR,,France,4c98b33805a1b1f7f1898f53,45.75114109125612,4.770139036363182,Alcatraz information security,69340,4bf58dd8d48988d174941735,Coworking Space,Rhône-Alpes
48,"[{'id': '4bf58dd8d48988d174941735', 'name': 'Coworking Space', 'pluralName': 'Coworking Spaces', 'shortName': 'Coworking Space', 'icon': {'prefix': 'https://ss3.4sqi.net/img/categories_v2/building/office_coworkingspace_', 'suffix': '.png'}, 'primary': True}]",,FR,,France,4fa947b7e4b0f293ac29015b,45.759529,4.846301,Autoécole Chaumienne,,4bf58dd8d48988d174941735,Coworking Space,
