,categories,categoriesList,cc,city,country,id,lat,lng,name,postalCode,primary_category_id,primary_category_name,state
0,"[{'id': '4bf58dd8d48988d125941735', 'name': 'Tech Startup', 'pluralName': 'Tech Startups', 'shortName': 'Tech Startup', 'icon': {'prefix': 'https://ss3.4sqi.net/img/categories_v2/shops/technology_', 'suffix': '.png'}, 'primary': True}]",,FR,,France,4c19d2d9d4d9c9281494f129,43.31068418417893,5.373924602484055,Datacenter interxion MRS1,,4bf58dd8d48988d125941735,Tech Startup,Provence-Alpes-Côte d'Azur
1,"[{'id': '4bf58dd8d48988d125941735', 'name': 'Tech Startup', 'pluralName': 'Tech Startups', 'shortName': 'Tech Startup', 'icon': {'prefix': 'https://ss3.4sqi.net/img/categories_v2/shops/technology_', 'suffix': '.png'}, 'primary': True}]",,FR,,France,51481fdbe4b03dfb48849c7d,43.31034343603781,5.37113428243639,Exmagina,13003,4bf58dd8d48988d125941735,Tech Startup,Provence-Alpes-Côte d'Azur
2,"[{'id': '4bf58dd8d48988d125941735', 'name': 'Tech Startup', 'pluralName': 'Tech Startups', 'shortName': 'Tech Startup', 'icon': {'prefix': 'https://ss3.4sqi.net/img/categories_v2/shops/technology_', 'suffix': '.png'}, 'primary': True}]",,FR,,France,4c63dd29e1621b8dd6e52653,43.290933,5.377511,Atlantis Multimedia,,4bf58dd8d48988d125941735,Tech Startup,Provence-Alpes-Côte
3,"[{'id': '4bf58dd8d48988d125941735', 'name': 'Tech Startup', 'pluralName': 'Tech Startups', 'shortName': 'Tech Startup', 'icon': {'prefix': 'https://ss3.4sqi.net/img/categories_v2/shops/technology_', 'suffix': '.png'}, 'primary': True}]",,FR,,France,53568bda498eb101bd5703c1,43.3092535556181,5.389974117279053,Ubiq Toolbox,13033,4bf58dd8d48988d125941735,Tech Startup,Provence-Alpes-Côte d'Azur
4,"[{'id': '4bf58dd8d48988d125941735', 'name': 'Tech Startup', 'pluralName': 'Tech Startups', 'shortName': 'Tech Startup', 'icon': {'prefix': 'https://ss3.4sqi.net/img/categories_v2/shops/technology_', 'suffix': '.png'}, 'primary': True}]",,FR,,France,51135b54e4b006dae0f18d6f,43.286114,5.377294,BibLibre,13006,4bf58dd8d48988d125941735,Tech Startup,Provence-Alpes-Côte d'Azur
5,"[{'id': '4bf58dd8d48988d125941735', 'name': 'Tech Startup', 'pluralName': 'Tech Startups', 'shortName': 'Tech Startup', 'icon': {'prefix': 'https://ss3.4sqi.net/img/categories_v2/shops/technology_', 'suffix': '.png'}, 'primary': True}]",,FR,,France,50ed2734e4b0e5d3c662e202,43.309399936057055,5.369224548339844,WATCHEVER Marseille,13002,4bf58dd8d48988d125941735,Tech Startup,Provence-Alpes-Côte d'Azur
6,"[{'id': '4bf58dd8d48988d125941735', 'name': 'Tech Startup', 'pluralName': 'Tech Startups', 'shortName': 'Tech Startup', 'icon': {'prefix': 'https://ss3.4sqi.net/img/categories_v2/shops/technology_', 'suffix': '.png'}, 'primary': True}]",,FR,,France,4f1432a4e4b067841381b55b,43.278102032147935,5.389044657730482,PrintaBit.ch,13008,4bf58dd8d48988d125941735,Tech Startup,Provence-Alpes-Côte d'Azur
7,"[{'id': '4bf58dd8d48988d125941735', 'name': 'Tech Startup', 'pluralName': 'Tech Startups', 'shortName': 'Tech Startup', 'icon': {'prefix': 'https://ss3.4sqi.net/img/categories_v2/shops/technology_', 'suffix': '.png'}, 'primary': True}]",,FR,,France,525967a011d280a8af9dc081,43.29613020952051,5.384960153776696,Agence Petit Carnet,13001,4bf58dd8d48988d125941735,Tech Startup,Provence-Alpes-Côte d'Azur
8,"[{'id': '4bf58dd8d48988d125941735', 'name': 'Tech Startup', 'pluralName': 'Tech Startups', 'shortName': 'Tech Startup', 'icon': {'prefix': 'https://ss3.4sqi.net/img/categories_v2/shops/technology_', 'suffix': '.png'}, 'primary': True}]",,FR,,France,4bc2dd06b492d13ab802a860,43.277782,5.389863,Alliage (bureau d'études),13008,4bf58dd8d48988d125941735,Tech Startup,Provence-Alpes-Côte
9,"[{'id': '4bf58dd8d48988d125941735', 'name': 'Tech Startup', 'pluralName': 'Tech Startups', 'shortName': 'Tech Startup', 'icon': {'prefix': 'https://ss3.4sqi.net/img/categories_v2/shops/technology_', 'suffix': '.png'}, 'primary': True}]",,FR,,France,51becff77dd2f7fc05b0c86e,43.30943311557421,5.389866828918457,Amiriel,13003,4bf58dd8d48988d125941735,Tech Startup,Provence-Alpes-Côte d'Azur
10,"[{'id': '4bf58dd8d48988d125941735', 'name': 'Tech Startup', 'pluralName': 'Tech Startups', 'shortName': 'Tech Startup', 'icon': {'prefix': 'https://ss3.4sqi.net/img/categories_v2/shops/technology_', 'suffix': '.png'}, 'primary': True}]",,FR,,France,4ff3f6ade4b024f55895a682,43.29645753790746,5.374129181186957,Gamned,,4bf58dd8d48988d125941735,Tech Startup,
11,"[{'id': '4bf58dd8d48988d125941735', 'name': 'Tech Startup', 'pluralName': 'Tech Startups', 'shortName': 'Tech Startup', 'icon': {'prefix': 'https://ss3.4sqi.net/img/categories_v2/shops/technology_', 'suffix': '.png'}, 'primary': True}]",,FR,,France,4ed62cd49a529c405b6b7eac,43.306350793675975,5.36759784434254,Futur Telecom,,4bf58dd8d48988d125941735,Tech Startup,
12,"[{'id': '4bf58dd8d48988d125941735', 'name': 'Tech Startup', 'pluralName': 'Tech Startups', 'shortName': 'Tech Startup', 'icon': {'prefix': 'https://ss3.4sqi.net/img/categories_v2/shops/technology_', 'suffix': '.png'}, 'primary': True}]",,FR,,France,50ab63e1582f0c228a73f415,43.307348626028805,5.4125261306762695,Com In Box,13012,4bf58dd8d48988d125941735,Tech Startup,Provence-Alpes-Côte d'Azur
13,"[{'id': '4bf58dd8d48988d125941735', 'name': 'Tech Startup', 'pluralName': 'Tech Startups', 'shortName': 'Tech Startup', 'icon': {'prefix': 'https://ss3.4sqi.net/img/categories_v2/shops/technology_', 'suffix': '.png'}, 'primary': True}]",,FR,,France,4bd548f17b1876b0468d8a86,43.284511,5.381936,Particles,13006,4bf58dd8d48988d125941735,Tech Startup,Provence-Alpes-Côte
14,"[{'id': '4bf58dd8d48988d125941735', 'name': 'Tech Startup', 'pluralName': 'Tech Startups', 'shortName': 'Tech Startup', 'icon': {'prefix': 'https://ss3.4sqi.net/img/categories_v2/shops/technology_', 'suffix': '.png'}, 'primary': True}]",,FR,,France,4f0eb1cfe4b023b37a0f0eaf,43.264129638671875,5.39297342300415,le bureau de 4h18,,4bf58dd8d48988d125941735,Tech Startup,
15,"[{'id': '4bf58dd8d48988d125941735', 'name': 'Tech Startup', 'pluralName': 'Tech Startups', 'shortName': 'Tech Startup', 'icon': {'prefix': 'https://ss3.4sqi.net/img/categories_v2/shops/technology_', 'suffix': '.png'}, 'primary': True}]",,FR,,France,55daffb4498e500ebfd59c40,43.296379,5.373916,makazi,,4bf58dd8d48988d125941735,Tech Startup,
16,"[{'id': '4bf58dd8d48988d125941735', 'name': 'Tech Startup', 'pluralName': 'Tech Startups', 'shortName': 'Tech Startup', 'icon': {'prefix': 'https://ss3.4sqi.net/img/categories_v2/shops/technology_', 'suffix': '.png'}, 'primary': True}]",,FR,,France,4f97da4ae4b0c6b4f3a3051e,43.28140598126963,5.35616961497914,VeryLastRoom,13007,4bf58dd8d48988d125941735,Tech Startup,Provence-Alpes-Côte d'Azur
17,"[{'id': '4bf58dd8d48988d125941735', 'name': 'Tech Startup', 'pluralName': 'Tech Startups', 'shortName': 'Tech Startup', 'icon': {'prefix': 'https://ss3.4sqi.net/img/categories_v2/shops/technology_', 'suffix': '.png'}, 'primary': True}]",,FR,,France,4c4731f276d72d7f7a643c4d,43.309191099856854,5.389566421508789,Evolix,13003,4bf58dd8d48988d125941735,Tech Startup,Provence-Alpes-Côte
18,"[{'id': '4bf58dd8d48988d125941735', 'name': 'Tech Startup', 'pluralName': 'Tech Startups', 'shortName': 'Tech Startup', 'icon': {'prefix': 'https://ss3.4sqi.net/img/categories_v2/shops/technology_', 'suffix': '.png'}, 'primary': True}]",,FR,,France,53830777498e7fa5d027229c,43.27657096466095,5.391340081329777,YUZU,13008,4bf58dd8d48988d125941735,Tech Startup,Provence-Alpes-Côte d'Azur
19,"[{'id': '4bf58dd8d48988d125941735', 'name': 'Tech Startup', 'pluralName': 'Tech Startups', 'shortName': 'Tech Startup', 'icon': {'prefix': 'https://ss3.4sqi.net/img/categories_v2/shops/technology_', 'suffix': '.png'}, 'primary': True}]",,FR,,France,4ef03e049adf96dc8f5dc93b,43.30965346513857,5.389787294899674,So-Buzz,13002,4bf58dd8d48988d125941735,Tech Startup,Provence-Alpes-Côte d'Azur
20,"[{'id': '4bf58dd8d48988d125941735', 'name': 'Tech Startup', 'pluralName': 'Tech Startups', 'shortName': 'Tech Startup', 'icon': {'prefix': 'https://ss3.4sqi.net/img/categories_v2/shops/technology_', 'suffix': '.png'}, 'primary': True}]",,FR,,France,4fbdef91e4b02646e91d16bd,43.292045296306924,5.371737338296144,L'Atelier Ping,,4bf58dd8d48988d125941735,Tech Startup,
21,"[{'id': '4bf58dd8d48988d125941735', 'name': 'Tech Startup', 'pluralName': 'Tech Startups', 'shortName': 'Tech Startup', 'icon': {'prefix': 'https://ss3.4sqi.net/img/categories_v2/shops/technology_', 'suffix': '.png'}, 'primary': True}]",,FR,,France,506d5db9e4b0f909ffedcad4,43.277032076294795,5.383666872880708,IProspect Marseille,13008,4bf58dd8d48988d125941735,Tech Startup,Provence-Alpes-Côte d'Azur
22,"[{'id': '4bf58dd8d48988d125941735', 'name': 'Tech Startup', 'pluralName': 'Tech Startups', 'shortName': 'Tech Startup', 'icon': {'prefix': 'https://ss3.4sqi.net/img/categories_v2/shops/technology_', 'suffix': '.png'}, 'primary': True}]",,FR,,France,536753dd11d2727e1850496c,43.29268893902971,5.371052512635226,Calinda Software,,4bf58dd8d48988d125941735,Tech Startup,
23,"[{'id': '4bf58dd8d48988d125941735', 'name': 'Tech Startup', 'pluralName': 'Tech Startups', 'shortName': 'Tech Startup', 'icon': {'prefix': 'https://ss3.4sqi.net/img/categories_v2/shops/technology_', 'suffix': '.png'}, 'primary': True}]",,FR,,France,4f475310e4b0e132287eb9db,43.293245,5.372058,Cabinet gasior colonna,,4bf58dd8d48988d125941735,Tech Startup,
24,"[{'id': '4bf58dd8d48988d125941735', 'name': 'Tech Startup', 'pluralName': 'Tech Startups', 'shortName': 'Tech Startup', 'icon': {'prefix': 'https://ss3.4sqi.net/img/categories_v2/shops/technology_', 'suffix': '.png'}, 'primary': True}]",,FR,,France,4d47cb7cea3f37041f58230a,43.298303,5.397937,Internethic,,4bf58dd8d48988d125941735,Tech Startup,
25,"[{'id': '4bf58dd8d48988d125941735', 'name': 'Tech Startup', 'pluralName': 'Tech Startups', 'shortName': 'Tech Startup', 'icon': {'prefix': 'https://ss3.4sqi.net/img/categories_v2/shops/technology_', 'suffix': '.png'}, 'primary': True}]",,FR,,France,4e9702d3f79068de88e9208e,43.32609430694365,5.394596774018397,Tassha Studio,,4bf58dd8d48988d125941735,Tech Startup,
26,"[{'id': '4bf58dd8d48988d125941735', 'name': 'Tech Startup', 'pluralName': 'Tech Startups', 'shortName': 'Tech Startup', 'icon': {'prefix': 'https://ss3.4sqi.net/img/categories_v2/shops/technology_', 'suffix': '.png'}, 'primary': True}]",,FR,,France,56a88703498eebc4a110742d,43.27447138224242,5.390650033950805,Légimétrie,13008,4bf58dd8d48988d125941735,Tech Startup,PACA
27,"[{'id': '4bf58dd8d48988d125941735', 'name': 'Tech Startup', 'pluralName': 'Tech Startups', 'shortName': 'Tech Startup', 'icon': {'prefix': 'https://ss3.4sqi.net/img/categories_v2/shops/technology_', 'suffix': '.png'}, 'primary': True}]",,FR,,France,51b6d7adabd85924fcbc4925,43.29069281469112,5.391110023631535,Brizeglace Technology,13005,4bf58dd8d48988d125941735,Tech Startup,Provence-Alpes-Côte d'Azur
28,"[{'id': '4bf58dd8d48988d125941735', 'name': 'Tech Startup', 'pluralName': 'Tech Startups', 'shortName': 'Tech Startup', 'icon': {'prefix': 'https://ss3.4sqi.net/img/categories_v2/shops/technology_', 'suffix': '.png'}, 'primary': True}]",,FR,,France,4f8f08dbe4b0e77df4168477,43.296409606933594,5.377312183380127,Smile Marseille,13001,4bf58dd8d48988d125941735,Tech Startup,Provence-Alpes-Côte d'Azur
29,"[{'id': '4bf58dd8d48988d125941735', 'name': 'Tech Startup', 'pluralName': 'Tech Startups', 'shortName': 'Tech Startup', 'icon': {'prefix': 'https://ss3.4sqi.net/img/categories_v2/shops/technology_', 'suffix': '.png'}, 'primary': True}]",,FR,,France,4f0ffb77e4b0044a21a34643,43.28077578786805,5.3994182428172355,Digital Virgo France,,4bf58dd8d48988d125941735,Tech Startup,
30,"[{'id': '4bf58dd8d48988d125941735', 'name': 'Tech Startup', 'pluralName': 'Tech Startups', 'shortName': 'Tech Startup', 'icon': {'prefix': 'https://ss3.4sqi.net/img/categories_v2/shops/technology_', 'suffix': '.png'}, 'primary': True}]",,FR,,France,4bb641442f70c9b659208530,43.30953336324879,5.38891685285823,Voxinzebox,,4bf58dd8d48988d125941735,Tech Startup,Provence-Alpes-Côte
31,"[{'id': '4bf58dd8d48988d125941735', 'name': 'Tech Startup', 'pluralName': 'Tech Startups', 'shortName': 'Tech Startup', 'icon': {'prefix': 'https://ss3.4sqi.net/img/categories_v2/shops/technology_', 'suffix': '.png'}, 'primary': True}]",,FR,,France,4e771d2b1495be5171d7b512,43.29422893618857,5.387214518901098,WikiTrip Subsidiary,,4bf58dd8d48988d125941735,Tech Startup,Provence-Alpes-Côte d'Azur
32,"[{'id': '50328a8e91d4c4b30a586d6c', 'name': 'Non-Profit', 'pluralName': 'Non-Profits', 'shortName': 'Non-Profit', 'icon': {'prefix': 'https://ss3.4sqi.net/img/categories_v2/building/default_', 'suffix': '.png'}, 'primary': True}]",,FR,,France,4dde6b68ae60c6eb2a59cc3c,43.301680326713225,5.390757322311401,Flux(o),13001,50328a8e91d4c4b30a586d6c,Non-Profit,Provence-Alpes-Côte d'Azur
33,"[{'id': '4bf58dd8d48988d125941735', 'name': 'Tech Startup', 'pluralName': 'Tech Startups', 'shortName': 'Tech Startup', 'icon': {'prefix': 'https://ss3.4sqi.net/img/categories_v2/shops/technology_', 'suffix': '.png'}, 'primary': True}]",,FR,,France,4c0e488ec700c9b6b693a3dd,43.27848821105375,5.388813828723468,BleuRoy.com,13008,4bf58dd8d48988d125941735,Tech Startup,Provence-Alpes-Côte
34,"[{'id': '4bf58dd8d48988d125941735', 'name': 'Tech Startup', 'pluralName': 'Tech Startups', 'shortName': 'Tech Startup', 'icon': {'prefix': 'https://ss3.4sqi.net/img/categories_v2/shops/technology_', 'suffix': '.png'}, 'primary': True}]",,FR,,France,4fb2024be4b0d327d5df9641,43.30899873571212,5.38964278828709,exkee,,4bf58dd8d48988d125941735,Tech Startup,
35,"[{'id': '4bf58dd8d48988d125941735', 'name': 'Tech Startup', 'pluralName': 'Tech Startups', 'shortName': 'Tech Startup', 'icon': {'prefix': 'https://ss3.4sqi.net/img/categories_v2/shops/technology_', 'suffix': '.png'}, 'primary': True}]",,FR,,France,51b59525498e29f9a07305c8,43.272634,5.385384,Newtelnet,,4bf58dd8d48988d125941735,Tech Startup,
36,"[{'id': '4bf58dd8d48988d125941735', 'name': 'Tech Startup', 'pluralName': 'Tech Startups', 'shortName': 'Tech Startup', 'icon': {'prefix': 'https://ss3.4sqi.net/img/categories_v2/shops/technology_', 'suffix': '.png'}, 'primary': True}]",,FR,,France,51a4a3d9498e46100a147bef,43.285202,5.394134,Destinomundo.com,,4bf58dd8d48988d125941735,Tech Startup,
37,"[{'id': '4bf58dd8d48988d125941735', 'name': 'Tech Startup', 'pluralName': 'Tech Startups', 'shortName': 'Tech Startup', 'icon': {'prefix': 'https://ss3.4sqi.net/img/categories_v2/shops/technology_', 'suffix': '.png'}, 'primary': True}]",,FR,,France,4f634cc07beb9049f25947ab,43.28599996404285,5.40402889251709,Bricosoft.com,13010,4bf58dd8d48988d125941735,Tech Startup,Provence-Alpes-Côte d'Azur
38,"[{'id': '4bf58dd8d48988d125941735', 'name': 'Tech Startup', 'pluralName': 'Tech Startups', 'shortName': 'Tech Startup', 'icon': {'prefix': 'https://ss3.4sqi.net/img/categories_v2/shops/technology_', 'suffix': '.png'}, 'primary': True}]",,FR,,France,4f9483b3e4b0f888ddf85e0e,43.29566660664111,5.401688511453309,Benko,,4bf58dd8d48988d125941735,Tech Startup,
39,"[{'id': '4bf58dd8d48988d125941735', 'name': 'Tech Startup', 'pluralName': 'Tech Startups', 'shortName': 'Tech Startup', 'icon': {'prefix': 'https://ss3.4sqi.net/img/categories_v2/shops/technology_', 'suffix': '.png'}, 'primary': True}]",,FR,,France,4de24c3bd4c0704405680d81,43.265002,5.396205,CGR,,4bf58dd8d48988d125941735,Tech Startup,Provence-Alpes-Côte d'Azur
40,"[{'id': '4bf58dd8d48988d125941735', 'name': 'Tech Startup', 'pluralName': 'Tech Startups', 'shortName': 'Tech Startup', 'icon': {'prefix': 'https://ss3.4sqi.net/img/categories_v2/shops/technology_', 'suffix': '.png'}, 'primary': True}]",,FR,,France,4e147120b61c18a8270195c4,43.2972298,5.3654703,Robertson,13002,4bf58dd8d48988d125941735,Tech Startup,Provence-Alpes-Côte d'Azur
41,"[{'id': '4bf58dd8d48988d125941735', 'name': 'Tech Startup', 'pluralName': 'Tech Startups', 'shortName': 'Tech Startup', 'icon': {'prefix': 'https://ss3.4sqi.net/img/categories_v2/shops/technology_', 'suffix': '.png'}, 'primary': True}]",,FR,,France,50130ebde4b0befd12b99d22,43.280801,5.389118,Trafic d'Influence,,4bf58dd8d48988d125941735,Tech Startup,Provence-Alpes-Côte d'Azur
42,"[{'id': '4bf58dd8d48988d125941735', 'name': 'Tech Startup', 'pluralName': 'Tech Startups', 'shortName': 'Tech Startup', 'icon': {'prefix': 'https://ss3.4sqi.net/img/categories_v2/shops/technology_', 'suffix': '.png'}, 'primary': True}]",,FR,,France,4f53791977165bc6a680e010,43.30778582826221,5.366864204406738,level 2,13002,4bf58dd8d48988d125941735,Tech Startup,Provence-Alpes-Côte d'Azur
43,"[{'id': '4bf58dd8d48988d125941735', 'name': 'Tech Startup', 'pluralName': 'Tech Startups', 'shortName': 'Tech Startup', 'icon': {'prefix': 'https://ss3.4sqi.net/img/categories_v2/shops/technology_', 'suffix': '.png'}, 'primary': True}]",,FR,,France,4bc5cf7b6a3e9c74cb53f648,43.289449,5.376177,STONEPOWER,13006,4bf58dd8d48988d125941735,Tech Startup,PACA
44,"[{'id': '4bf58dd8d48988d125941735', 'name': 'Tech Startup', 'pluralName': 'Tech Startups', 'shortName': 'Tech Startup', 'icon': {'prefix': 'https://ss3.4sqi.net/img/categories_v2/shops/technology_', 'suffix': '.png'}, 'primary': True}]",,FR,,France,4e8b453c8231cd82544a1c7a,43.30066489798438,5.37484470899349,Ondes Informatique,,4bf58dd8d48988d125941735,Tech Startup,Provence-Alpes-Côte d'Azur
45,"[{'id': '4bf58dd8d48988d125941735', 'name': 'Tech Startup', 'pluralName': 'Tech Startups', 'shortName': 'Tech Startup', 'icon': {'prefix': 'https://ss3.4sqi.net/img/categories_v2/shops/technology_', 'suffix': '.png'}, 'primary': True}]",,FR,,France,4d3edf158edf37042e28c8a5,43.309589942130756,5.389739921183632,Linagora,,4bf58dd8d48988d125941735,Tech Startup,Provence-Alpes-Côte d'Azur
46,"[{'id': '4bf58dd8d48988d125941735', 'name': 'Tech Startup', 'pluralName': 'Tech Startups', 'shortName': 'Tech Startup', 'icon': {'prefix': 'https://ss3.4sqi.net/img/categories_v2/shops/technology_', 'suffix': '.png'}, 'primary': True}]",,FR,,France,53008dda498e9ccf00c004c3,43.29585266113281,5.36634635925293,Service du Pilotage Ship Simulator,,4bf58dd8d48988d125941735,Tech Startup,
47,"[{'id': '4bf58dd8d48988d125941735', 'name': 'Tech Startup', 'pluralName': 'Tech Startups', 'shortName': 'Tech Startup', 'icon': {'prefix': 'https://ss3.4sqi.net/img/categories_v2/shops/technology_', 'suffix': '.png'}, 'primary': True}]",,FR,,France,504a10bbe4b04f7ab4ef67ef,43.328303778103155,5.374865152775357,Orange RockCorps HQ Marseille,,4bf58dd8d48988d125941735,Tech Startup,
48,"[{'id': '4bf58dd8d48988d125941735', 'name': 'Tech Startup', 'pluralName': 'Tech Startups', 'shortName': 'Tech Startup', 'icon': {'prefix': 'https://ss3.4sqi.net/img/categories_v2/shops/technology_', 'suffix': '.png'}, 'primary': True}]",,FR,,France,4eccb00de5fa85e5ec8e2826,43.31146959713484,5.360959942295915,Tour Grand Large - Free,,4bf58dd8d48988d125941735,Tech Startup,Provence-Alpes-Côte d'Azur
49,"[{'id': '4bf58dd8d48988d125941735', 'name': 'Tech Startup', 'pluralName': 'Tech Startups', 'shortName': 'Tech Startup', 'icon': {'prefix': 'https://ss3.4sqi.net/img/categories_v2/shops/technology_', 'suffix': '.png'}, 'primary': True}]",,FR,,France,4ffb0ff7e4b0d27dd94da7ad,43.3092879065988,5.389954636586519,Lokob,,4bf58dd8d48988d125941735,Tech Startup,
0,"[{'id': '4bf58dd8d48988d125941735', 'name': 'Tech Startup', 'pluralName': 'Tech Startups', 'shortName': 'Tech Startup', 'icon': {'prefix': 'https://ss3.4sqi.net/img/categories_v2/shops/technology_', 'suffix': '.png'}, 'primary': True}]",,FR,,France,4d52cc0a4015b1f7db7f7ecf,43.526751,5.44883,Full Performance Quamedia,,4bf58dd8d48988d125941735,Tech Startup,Provence-Alpes-Côte d'Azur
1,"[{'id': '5453de49498eade8af355881', 'name': 'Business Service', 'pluralName': 'Business Services', 'shortName': 'Business Services', 'icon': {'prefix': 'https://ss3.4sqi.net/img/categories_v2/building/default_', 'suffix': '.png'}, 'primary': True}]",,FR,,France,59d5f52cd807ee577af16893,43.5282,5.436488,Carrefour De L’innovation Et Du Numérique,13100,5453de49498eade8af355881,Business Service,Provence-Alpes-Côte d'Azur
2,"[{'id': '4bf58dd8d48988d125941735', 'name': 'Tech Startup', 'pluralName': 'Tech Startups', 'shortName': 'Tech Startup', 'icon': {'prefix': 'https://ss3.4sqi.net/img/categories_v2/shops/technology_', 'suffix': '.png'}, 'primary': True}]",,FR,,France,5144971be4b0910b5ac5b5e7,43.52140693672511,5.444518145914845,Le Bunker Ceesto,,4bf58dd8d48988d125941735,Tech Startup,
3,"[{'id': '4bf58dd8d48988d125941735', 'name': 'Tech Startup', 'pluralName': 'Tech Startups', 'shortName': 'Tech Startup', 'icon': {'prefix': 'https://ss3.4sqi.net/img/categories_v2/shops/technology_', 'suffix': '.png'}, 'primary': True}]",,FR,,France,4d5be8e49c31b60cb400afee,43.51470880139012,5.432058734344202,Euriware,13090,4bf58dd8d48988d125941735,Tech Startup,Provence-Alpes-Côte d'Azur
4,"[{'id': '4bf58dd8d48988d125941735', 'name': 'Tech Startup', 'pluralName': 'Tech Startups', 'shortName': 'Tech Startup', 'icon': {'prefix': 'https://ss3.4sqi.net/img/categories_v2/shops/technology_', 'suffix': '.png'}, 'primary': True}]",,FR,,France,4bb5f7f0f562ef3b956f2f97,43.527005,5.452076,Société Jyn,,4bf58dd8d48988d125941735,Tech Startup,Provence-Alpes-Côte
5,"[{'id': '4bf58dd8d48988d125941735', 'name': 'Tech Startup', 'pluralName': 'Tech Startups', 'shortName': 'Tech Startup', 'icon': {'prefix': 'https://ss3.4sqi.net/img/categories_v2/shops/technology_', 'suffix': '.png'}, 'primary': True}]",,FR,,France,4df7974bae60f0da8839d73f,43.523648821259044,5.439733857929534,Atomic Search,13090,4bf58dd8d48988d125941735,Tech Startup,PACA
6,"[{'id': '4bf58dd8d48988d125941735', 'name': 'Tech Startup', 'pluralName': 'Tech Startups', 'shortName': 'Tech Startup', 'icon': {'prefix': 'https://ss3.4sqi.net/img/categories_v2/shops/technology_', 'suffix': '.png'}, 'primary': True}]",,FR,,France,51bb147d498e0e442f775763,43.53061386252716,5.447066515779325,Adverbia (agence Aix-Marseille),13100,4bf58dd8d48988d125941735,Tech Startup,Provence-Alpes-Côte d'Azur
7,"[{'id': '4bf58dd8d48988d125941735', 'name': 'Tech Startup', 'pluralName': 'Tech Startups', 'shortName': 'Tech Startup', 'icon': {'prefix': 'https://ss3.4sqi.net/img/categories_v2/shops/technology_', 'suffix': '.png'}, 'primary': True}]",,FR,,France,500f9035e4b0d630c789b008,43.5243300658626,5.439907825132012,iPuP,,4bf58dd8d48988d125941735,Tech Startup,
8,"[{'id': '4bf58dd8d48988d125941735', 'name': 'Tech Startup', 'pluralName': 'Tech Startups', 'shortName': 'Tech Startup', 'icon': {'prefix': 'https://ss3.4sqi.net/img/categories_v2/shops/technology_', 'suffix': '.png'}, 'primary': True}]",,FR,,France,57459ef0498e04b30f162c2a,43.529372,5.452735,Skinkin,13100,4bf58dd8d48988d125941735,Tech Startup,Provence-Alpes-Côte d'Azur
9,"[{'id': '4bf58dd8d48988d125941735', 'name': 'Tech Startup', 'pluralName': 'Tech Startups', 'shortName': 'Tech Startup', 'icon': {'prefix': 'https://ss3.4sqi.net/img/categories_v2/shops/technology_', 'suffix': '.png'}, 'primary': True}]",,FR,,France,4e1c4304fa769b7ee689440c,43.50473,5.413293,Needeo,13090,4bf58dd8d48988d125941735,Tech Startup,
10,"[{'id': '4bf58dd8d48988d125941735', 'name': 'Tech Startup', 'pluralName': 'Tech Startups', 'shortName': 'Tech Startup', 'icon': {'prefix': 'https://ss3.4sqi.net/img/categories_v2/shops/technology_', 'suffix': '.png'}, 'primary': True}]",,FR,,France,5545028a498e55034e767746,43.53043081903961,5.451941192150116,SOSDEPANNAGEORDINATEUR,13100,4bf58dd8d48988d125941735,Tech Startup,PACA
0,"[{'id': '4bf58dd8d48988d125941735', 'name': 'Tech Startup', 'pluralName': 'Tech Startups', 'shortName': 'Tech Startup', 'icon': {'prefix': 'https://ss3.4sqi.net/img/categories_v2/shops/technology_', 'suffix': '.png'}, 'primary': True}]",,FR,,France,5a5de628a92d98321e2fce4d,43.125310972847956,5.933470129966736,Agence web Lecourtier.net,83000,4bf58dd8d48988d125941735,Tech Startup,Provence-Alpes-Côte d'Azur
1,"[{'id': '4bf58dd8d48988d125941735', 'name': 'Tech Startup', 'pluralName': 'Tech Startups', 'shortName': 'Tech Startup', 'icon': {'prefix': 'https://ss3.4sqi.net/img/categories_v2/shops/technology_', 'suffix': '.png'}, 'primary': True}]",,FR,,France,4cb821be4352a1cd5a1083f5,43.124655154059624,5.9291631256106285,Blacktwin,83000,4bf58dd8d48988d125941735,Tech Startup,Provence-Alpes-Côte d'Azur
2,"[{'id': '4bf58dd8d48988d125941735', 'name': 'Tech Startup', 'pluralName': 'Tech Startups', 'shortName': 'Tech Startup', 'icon': {'prefix': 'https://ss3.4sqi.net/img/categories_v2/shops/technology_', 'suffix': '.png'}, 'primary': True}]",,FR,,France,512b26a3e4b0b8fa9fe2536a,43.141502380371094,5.847765922546387,Attido's MWC13 Stand 8.1C50,,4bf58dd8d48988d125941735,Tech Startup,
3,"[{'id': '4bf58dd8d48988d125941735', 'name': 'Tech Startup', 'pluralName': 'Tech Startups', 'shortName': 'Tech Startup', 'icon': {'prefix': 'https://ss3.4sqi.net/img/categories_v2/shops/technology_', 'suffix': '.png'}, 'primary': True}]",,FR,,France,4e60c7f3fa76cd64cd7dbe08,43.124819,5.928908,Emob,83000,4bf58dd8d48988d125941735,Tech Startup,Provence-Alpes-Côte d'Azur
4,"[{'id': '4bf58dd8d48988d125941735', 'name': 'Tech Startup', 'pluralName': 'Tech Startups', 'shortName': 'Tech Startup', 'icon': {'prefix': 'https://ss3.4sqi.net/img/categories_v2/shops/technology_', 'suffix': '.png'}, 'primary': True}]",,FR,,France,4eb7eec2775b544c2856a53f,43.1094889125,5.8427989875,Robopec,83140,4bf58dd8d48988d125941735,Tech Startup,Provence-Alpes-Côte d'Azur
5,"[{'id': '4bf58dd8d48988d125941735', 'name': 'Tech Startup', 'pluralName': 'Tech Startups', 'shortName': 'Tech Startup', 'icon': {'prefix': 'https://ss3.4sqi.net/img/categories_v2/shops/technology_', 'suffix': '.png'}, 'primary': True}]",,FR,,France,4df87f6a18385456c7f4d760,43.12613943968203,5.931651592254639,Synexie,83000,4bf58dd8d48988d125941735,Tech Startup,PACA
6,"[{'id': '4bf58dd8d48988d125941735', 'name': 'Tech Startup', 'pluralName': 'Tech Startups', 'shortName': 'Tech Startup', 'icon': {'prefix': 'https://ss3.4sqi.net/img/categories_v2/shops/technology_', 'suffix': '.png'}, 'primary': True}]",,FR,,France,4e3abe68b61c8493db580eba,43.124531,5.929214,Trenzea,,4bf58dd8d48988d125941735,Tech Startup,Toulon
7,"[{'id': '4bf58dd8d48988d125941735', 'name': 'Tech Startup', 'pluralName': 'Tech Startups', 'shortName': 'Tech Startup', 'icon': {'prefix': 'https://ss3.4sqi.net/img/categories_v2/shops/technology_', 'suffix': '.png'}, 'primary': True}]",,FR,,France,516b9cb5498ec8d98af43b32,43.11741375920522,5.845318468818941,Sopra Group,83140,4bf58dd8d48988d125941735,Tech Startup,Provence-Alpes-Côte d'Azur
8,"[{'id': '4bf58dd8d48988d125941735', 'name': 'Tech Startup', 'pluralName': 'Tech Startups', 'shortName': 'Tech Startup', 'icon': {'prefix': 'https://ss3.4sqi.net/img/categories_v2/shops/technology_', 'suffix': '.png'}, 'primary': True}]",,FR,,France,4e86335782315e9e62b1d0c6,43.111725,5.829395,Agence Declik,83000,4bf58dd8d48988d125941735,Tech Startup,PACA
9,"[{'id': '4bf58dd8d48988d125941735', 'name': 'Tech Startup', 'pluralName': 'Tech Startups', 'shortName': 'Tech Startup', 'icon': {'prefix': 'https://ss3.4sqi.net/img/categories_v2/shops/technology_', 'suffix': '.png'}, 'primary': True}]",,FR,,France,4f5624afe4b0b1a430d548c9,43.121852309608386,5.929792579792518,Alcatraz Information Security,83000,4bf58dd8d48988d125941735,Tech Startup,Provence-Alpes-Côte d'Azur
10,"[{'id': '4bf58dd8d48988d125941735', 'name': 'Tech Startup', 'pluralName': 'Tech Startups', 'shortName': 'Tech Startup', 'icon': {'prefix': 'https://ss3.4sqi.net/img/categories_v2/shops/technology_', 'suffix': '.png'}, 'primary': True}]",,FR,,France,5083821be4b06166977c89cf,43.108491,5.937588,VDesign,83000,4bf58dd8d48988d125941735,Tech Startup,Provence-Alpes-Côte d'Azur
2,"[{'id': '4bf58dd8d48988d125941735', 'name': 'Tech Startup', 'pluralName': 'Tech Startups', 'shortName': 'Tech Startup', 'icon': {'prefix': 'https://ss3.4sqi.net/img/categories_v2/shops/technology_', 'suffix': '.png'}, 'primary': True}]",,FR,,France,4c0c7e5cc700c9b64710a1dd,43.12416613543142,5.950673818588257,IRISccg,83100,4bf58dd8d48988d125941735,Tech Startup,Provence-Alpes-Côte
6,"[{'id': '4bf58dd8d48988d125941735', 'name': 'Tech Startup', 'pluralName': 'Tech Startups', 'shortName': 'Tech Startup', 'icon': {'prefix': 'https://ss3.4sqi.net/img/categories_v2/shops/technology_', 'suffix': '.png'}, 'primary': True}]",,FR,,France,5559c2ec498eccd4a7709679,43.111240056356145,5.983125984776173,re.co,,4bf58dd8d48988d125941735,Tech Startup,
0,"[{'id': '4bf58dd8d48988d125941735', 'name': 'Tech Startup', 'pluralName': 'Tech Startups', 'shortName': 'Tech Startup', 'icon': {'prefix': 'https://ss3.4sqi.net/img/categories_v2/shops/technology_', 'suffix': '.png'}, 'primary': True}]",,FR,,France,583c788704aa4f696b9f0c49,43.208298,5.5994964,Alcineo,13600,4bf58dd8d48988d125941735,Tech Startup,Provence-Alpes-Côte d'Azur
1,"[{'id': '4bf58dd8d48988d125941735', 'name': 'Tech Startup', 'pluralName': 'Tech Startups', 'shortName': 'Tech Startup', 'icon': {'prefix': 'https://ss3.4sqi.net/img/categories_v2/shops/technology_', 'suffix': '.png'}, 'primary': True}]",,FR,,France,4cb4346bcbab236a5f53bc73,43.23004503341515,5.5444947455087465,Moteurs Baudouin,13711,4bf58dd8d48988d125941735,Tech Startup,Provence-Alpes-Côte d'Azur
2,"[{'id': '4bf58dd8d48988d125941735', 'name': 'Tech Startup', 'pluralName': 'Tech Startups', 'shortName': 'Tech Startup', 'icon': {'prefix': 'https://ss3.4sqi.net/img/categories_v2/shops/technology_', 'suffix': '.png'}, 'primary': True}]",,FR,,France,4c4ea49c51c2c9287f80ab9e,43.25087937876176,5.548047085445015,MonShowRoom,,4bf58dd8d48988d125941735,Tech Startup,
0,"[{'id': '4bf58dd8d48988d125941735', 'name': 'Tech Startup', 'pluralName': 'Tech Startups', 'shortName': 'Tech Startup', 'icon': {'prefix': 'https://ss3.4sqi.net/img/categories_v2/shops/technology_', 'suffix': '.png'}, 'primary': True}]",,FR,,France,53b27c5f498e1475af1bf51f,43.425086975097656,5.2591552734375,graniou,,4bf58dd8d48988d125941735,Tech Startup,
1,"[{'id': '4bf58dd8d48988d125941735', 'name': 'Tech Startup', 'pluralName': 'Tech Startups', 'shortName': 'Tech Startup', 'icon': {'prefix': 'https://ss3.4sqi.net/img/categories_v2/shops/technology_', 'suffix': '.png'}, 'primary': True}]",,FR,,France,53915fa1498e2cb938280ca3,43.42706,5.276923,MGP ASQUINI,,4bf58dd8d48988d125941735,Tech Startup,
2,"[{'id': '4bf58dd8d48988d125941735', 'name': 'Tech Startup', 'pluralName': 'Tech Startups', 'shortName': 'Tech Startup', 'icon': {'prefix': 'https://ss3.4sqi.net/img/categories_v2/shops/technology_', 'suffix': '.png'}, 'primary': True}]",,FR,,France,5092754de4b0153646f4117f,43.44195386369243,5.2232852687678495,Www.petit-carnet,,4bf58dd8d48988d125941735,Tech Startup,
3,"[{'id': '4bf58dd8d48988d125941735', 'name': 'Tech Startup', 'pluralName': 'Tech Startups', 'shortName': 'Tech Startup', 'icon': {'prefix': 'https://ss3.4sqi.net/img/categories_v2/shops/technology_', 'suffix': '.png'}, 'primary': True}]",,FR,,France,50769e89e4b0de29ddfc9b3e,43.42515923514748,5.260090655430467,Interway,13127,4bf58dd8d48988d125941735,Tech Startup,Provence-Alpes-Côte d'Azur
4,"[{'id': '4bf58dd8d48988d125941735', 'name': 'Tech Startup', 'pluralName': 'Tech Startups', 'shortName': 'Tech Startup', 'icon': {'prefix': 'https://ss3.4sqi.net/img/categories_v2/shops/technology_', 'suffix': '.png'}, 'primary': True}]",,FR,,France,51515266e4b0223919cbd174,43.444238,5.234316,Xeonys,13127,4bf58dd8d48988d125941735,Tech Startup,Provence-Alpes-Côte d'Azur
0,"[{'id': '4bf58dd8d48988d125941735', 'name': 'Tech Startup', 'pluralName': 'Tech Startups', 'shortName': 'Tech Startup', 'icon': {'prefix': 'https://ss3.4sqi.net/img/categories_v2/shops/technology_', 'suffix': '.png'}, 'primary': True}]",,FR,,France,5247cf840493726b5ee7ab9c,43.65309720233197,5.08829265832901,Solucomm,13300,4bf58dd8d48988d125941735,Tech Startup,Provence-Alpes-Côte d'Azur
1,"[{'id': '4bf58dd8d48988d125941735', 'name': 'Tech Startup', 'pluralName': 'Tech Startups', 'shortName': 'Tech Startup', 'icon': {'prefix': 'https://ss3.4sqi.net/img/categories_v2/shops/technology_', 'suffix': '.png'}, 'primary': True}]",,FR,,France,4ebbd9334690a29fd69224a3,43.62520336709926,5.110423564910889,Ommerce by @Valvert,13300,4bf58dd8d48988d125941735,Tech Startup,Provence-Alpes-Côte d'Azur
2,"[{'id': '4bf58dd8d48988d125941735', 'name': 'Tech Startup', 'pluralName': 'Tech Startups', 'shortName': 'Tech Startup', 'icon': {'prefix': 'https://ss3.4sqi.net/img/categories_v2/shops/technology_', 'suffix': '.png'}, 'primary': True}]",,FR,,France,4e4648aca809fb2fa3e8be11,43.625586228353924,5.094989188897923,WikiTrip Design Center,,4bf58dd8d48988d125941735,Tech Startup,
3,"[{'id': '4bf58dd8d48988d125941735', 'name': 'Tech Startup', 'pluralName': 'Tech Startups', 'shortName': 'Tech Startup', 'icon': {'prefix': 'https://ss3.4sqi.net/img/categories_v2/shops/technology_', 'suffix': '.png'}, 'primary': True}]",,FR,,France,51fa1a687dd25b40935fac4c,43.634970594319455,5.100172162055969,Biotech International,13300,4bf58dd8d48988d125941735,Tech Startup,Provence-Alpes-Côte d'Azur
1,"[{'id': '4bf58dd8d48988d125941735', 'name': 'Tech Startup', 'pluralName': 'Tech Startups', 'shortName': 'Tech Startup', 'icon': {'prefix': 'https://ss3.4sqi.net/img/categories_v2/shops/technology_', 'suffix': '.png'}, 'primary': True}]",,FR,,France,4d6fa9f156dea0936400c38c,43.28256547451019,5.527576804161072,Thon Inox,13821,4bf58dd8d48988d125941735,Tech Startup,Provence-Alpes-Côte d'Azur
2,"[{'id': '4bf58dd8d48988d125941735', 'name': 'Tech Startup', 'pluralName': 'Tech Startups', 'shortName': 'Tech Startup', 'icon': {'prefix': 'https://ss3.4sqi.net/img/categories_v2/shops/technology_', 'suffix': '.png'}, 'primary': True}]",,FR,,France,506e95e5e4b0d8ba5b968e84,43.28844881064985,5.513481164330923,interface technologies,,4bf58dd8d48988d125941735,Tech Startup,
3,"[{'id': '4bf58dd8d48988d125941735', 'name': 'Tech Startup', 'pluralName': 'Tech Startups', 'shortName': 'Tech Startup', 'icon': {'prefix': 'https://ss3.4sqi.net/img/categories_v2/shops/technology_', 'suffix': '.png'}, 'primary': True}]",,FR,,France,5270eeaf11d25289bca04316,43.28026635486598,5.61595195190909,PROG'INFO,,4bf58dd8d48988d125941735,Tech Startup,
4,"[{'id': '4bf58dd8d48988d125941735', 'name': 'Tech Startup', 'pluralName': 'Tech Startups', 'shortName': 'Tech Startup', 'icon': {'prefix': 'https://ss3.4sqi.net/img/categories_v2/shops/technology_', 'suffix': '.png'}, 'primary': True}]",,FR,,France,4dac2b7c0437dccbd82cd94a,43.285614,5.530301,ATM,,4bf58dd8d48988d125941735,Tech Startup,Provence-Alpes-Côte d'Azur
5,"[{'id': '4bf58dd8d48988d125941735', 'name': 'Tech Startup', 'pluralName': 'Tech Startups', 'shortName': 'Tech Startup', 'icon': {'prefix': 'https://ss3.4sqi.net/img/categories_v2/shops/technology_', 'suffix': '.png'}, 'primary': True}]",,FR,,France,4f15930ee4b03856f46fcf5d,43.28476199079052,5.610825189981806,digital network,13420,4bf58dd8d48988d125941735,Tech Startup,
6,"[{'id': '4bf58dd8d48988d125941735', 'name': 'Tech Startup', 'pluralName': 'Tech Startups', 'shortName': 'Tech Startup', 'icon': {'prefix': 'https://ss3.4sqi.net/img/categories_v2/shops/technology_', 'suffix': '.png'}, 'primary': True}]",,FR,,France,4c6e3e23d5c3a1cdc7d3c72b,43.288782,5.599898,LA2i,13685,4bf58dd8d48988d125941735,Tech Startup,Provence-Alpes-Côte
7,"[{'id': '4bf58dd8d48988d125941735', 'name': 'Tech Startup', 'pluralName': 'Tech Startups', 'shortName': 'Tech Startup', 'icon': {'prefix': 'https://ss3.4sqi.net/img/categories_v2/shops/technology_', 'suffix': '.png'}, 'primary': True}]",,FR,,France,4e9ee7d093ad5d11f3c223ae,43.280269,5.623258,My Cf Desk,,4bf58dd8d48988d125941735,Tech Startup,Provence-Alpes-Côte d'Azur
8,"[{'id': '4bf58dd8d48988d125941735', 'name': 'Tech Startup', 'pluralName': 'Tech Startups', 'shortName': 'Tech Startup', 'icon': {'prefix': 'https://ss3.4sqi.net/img/categories_v2/shops/technology_', 'suffix': '.png'}, 'primary': True}]",,FR,,France,55e6944f498e5b543415eced,43.287445,5.524233,Dreamweb,,4bf58dd8d48988d125941735,Tech Startup,
9,"[{'id': '4bf58dd8d48988d125941735', 'name': 'Tech Startup', 'pluralName': 'Tech Startups', 'shortName': 'Tech Startup', 'icon': {'prefix': 'https://ss3.4sqi.net/img/categories_v2/shops/technology_', 'suffix': '.png'}, 'primary': True}]",,FR,,France,4c73ec1e2db5236ae5cab879,43.292076587677,5.596782,e-Frogg,13400,4bf58dd8d48988d125941735,Tech Startup,Provence-Alpes-Côte d'Azur
1,"[{'id': '4bf58dd8d48988d125941735', 'name': 'Tech Startup', 'pluralName': 'Tech Startups', 'shortName': 'Tech Startup', 'icon': {'prefix': 'https://ss3.4sqi.net/img/categories_v2/shops/technology_', 'suffix': '.png'}, 'primary': True}]",,FR,,France,500558dfe4b0e5538d62a318,43.205834,5.600963,ReferTy,,4bf58dd8d48988d125941735,Tech Startup,
2,"[{'id': '4bf58dd8d48988d125941735', 'name': 'Tech Startup', 'pluralName': 'Tech Startups', 'shortName': 'Tech Startup', 'icon': {'prefix': 'https://ss3.4sqi.net/img/categories_v2/shops/technology_', 'suffix': '.png'}, 'primary': True}]",,FR,,France,4f1d6efbe4b0ce22e786bfe2,43.208409264699206,5.609193341411494,VisioSwing,13600,4bf58dd8d48988d125941735,Tech Startup,Provence-Alpes-Côte d'Azur
3,"[{'id': '4bf58dd8d48988d125941735', 'name': 'Tech Startup', 'pluralName': 'Tech Startups', 'shortName': 'Tech Startup', 'icon': {'prefix': 'https://ss3.4sqi.net/img/categories_v2/shops/technology_', 'suffix': '.png'}, 'primary': True}]",,FR,,France,51dd69ae2fc67dabec588d6d,43.192223990354165,5.6270599365234375,RESERVOIR DEV,13600,4bf58dd8d48988d125941735,Tech Startup,Aubagne
4,"[{'id': '4bf58dd8d48988d125941735', 'name': 'Tech Startup', 'pluralName': 'Tech Startups', 'shortName': 'Tech Startup', 'icon': {'prefix': 'https://ss3.4sqi.net/img/categories_v2/shops/technology_', 'suffix': '.png'}, 'primary': True}]",,FR,,France,4e1c9f2a6284ae9cf27d3048,43.189757,5.656598,Sumatra,13600,4bf58dd8d48988d125941735,Tech Startup,Provence-Alpes-Côte d'Azur
0,"[{'id': '4bf58dd8d48988d125941735', 'name': 'Tech Startup', 'pluralName': 'Tech Startups', 'shortName': 'Tech Startup', 'icon': {'prefix': 'https://ss3.4sqi.net/img/categories_v2/shops/technology_', 'suffix': '.png'}, 'primary': True}]",,FR,,France,4f2002750039fbca4aec12b3,43.316295031154866,5.442438125610352,Kelreferencement,13012,4bf58dd8d48988d125941735,Tech Startup,Provence-Alpes-Côte d'Azur
1,"[{'id': '4bf58dd8d48988d125941735', 'name': 'Tech Startup', 'pluralName': 'Tech Startups', 'shortName': 'Tech Startup', 'icon': {'prefix': 'https://ss3.4sqi.net/img/categories_v2/shops/technology_', 'suffix': '.png'}, 'primary': True}]",,FR,,France,5066ac36e4b02c5030c03c57,43.34028625488281,5.4317498207092285,Technoptic,,4bf58dd8d48988d125941735,Tech Startup,
2,"[{'id': '4bf58dd8d48988d125941735', 'name': 'Tech Startup', 'pluralName': 'Tech Startups', 'shortName': 'Tech Startup', 'icon': {'prefix': 'https://ss3.4sqi.net/img/categories_v2/shops/technology_', 'suffix': '.png'}, 'primary': True}]",,FR,,France,4e1c403cb0fb719c6e1250fe,43.292519368066884,5.451974233693729,Couffin-prive.com,,4bf58dd8d48988d125941735,Tech Startup,
4,"[{'id': '4bf58dd8d48988d125941735', 'name': 'Tech Startup', 'pluralName': 'Tech Startups', 'shortName': 'Tech Startup', 'icon': {'prefix': 'https://ss3.4sqi.net/img/categories_v2/shops/technology_', 'suffix': '.png'}, 'primary': True}]",,FR,,France,4e7af3329a529275108cca37,43.294462,5.493251,Imprimerie Caractere,,4bf58dd8d48988d125941735,Tech Startup,Provence-Alpes-Côte d'Azur
5,"[{'id': '4bf58dd8d48988d125941735', 'name': 'Tech Startup', 'pluralName': 'Tech Startups', 'shortName': 'Tech Startup', 'icon': {'prefix': 'https://ss3.4sqi.net/img/categories_v2/shops/technology_', 'suffix': '.png'}, 'primary': True}]",,FR,,France,4e803120b634bc862a26450e,43.343907,5.435385,MJK Instruments,,4bf58dd8d48988d125941735,Tech Startup,Provence-Alpes-Côte d'Azur
6,"[{'id': '4bf58dd8d48988d125941735', 'name': 'Tech Startup', 'pluralName': 'Tech Startups', 'shortName': 'Tech Startup', 'icon': {'prefix': 'https://ss3.4sqi.net/img/categories_v2/shops/technology_', 'suffix': '.png'}, 'primary': True}]",,FR,,France,4c32e7cf7cc0c9b6b4fbf09a,43.344039770899506,5.435251823860619,Carewave Shielding Technologies,,4bf58dd8d48988d125941735,Tech Startup,Provence-Alpes-Côte
7,"[{'id': '4bf58dd8d48988d125941735', 'name': 'Tech Startup', 'pluralName': 'Tech Startups', 'shortName': 'Tech Startup', 'icon': {'prefix': 'https://ss3.4sqi.net/img/categories_v2/shops/technology_', 'suffix': '.png'}, 'primary': True}]",,FR,,France,4fab8871e4b0a76594eb97e2,43.342370503188285,5.436285321565551,Bull Marseille,,4bf58dd8d48988d125941735,Tech Startup,
8,"[{'id': '4bf58dd8d48988d125941735', 'name': 'Tech Startup', 'pluralName': 'Tech Startups', 'shortName': 'Tech Startup', 'icon': {'prefix': 'https://ss3.4sqi.net/img/categories_v2/shops/technology_', 'suffix': '.png'}, 'primary': True}]",,FR,,France,4eb92f2ee30006eb13b0d5b2,43.34388189558169,5.4351443820859195,Provence Business Angels,,4bf58dd8d48988d125941735,Tech Startup,Provence-Alpes-Côte d'Azur
9,"[{'id': '4bf58dd8d48988d125941735', 'name': 'Tech Startup', 'pluralName': 'Tech Startups', 'shortName': 'Tech Startup', 'icon': {'prefix': 'https://ss3.4sqi.net/img/categories_v2/shops/technology_', 'suffix': '.png'}, 'primary': True}]",,FR,,France,4fd1c910e4b03e7cedf96cad,43.291493130345835,5.4954811602992395,ACOM,13011,4bf58dd8d48988d125941735,Tech Startup,Provence-Alpes-Côte d'Azur
10,"[{'id': '4bf58dd8d48988d125941735', 'name': 'Tech Startup', 'pluralName': 'Tech Startups', 'shortName': 'Tech Startup', 'icon': {'prefix': 'https://ss3.4sqi.net/img/categories_v2/shops/technology_', 'suffix': '.png'}, 'primary': True}]",,FR,,France,53454e5e498e555a4e3b7fae,43.339033735703815,5.439310669898987,Agence Web Jalis,13013,4bf58dd8d48988d125941735,Tech Startup,Provence-Alpes-Côte d'Azur
11,"[{'id': '4bf58dd8d48988d125941735', 'name': 'Tech Startup', 'pluralName': 'Tech Startups', 'shortName': 'Tech Startup', 'icon': {'prefix': 'https://ss3.4sqi.net/img/categories_v2/shops/technology_', 'suffix': '.png'}, 'primary': True}]",,FR,,France,5bfbff0e3abcaf0039374d19,43.34394,5.4352694,Euranova,13013,4bf58dd8d48988d125941735,Tech Startup,Provence-Alpes-Côte d'Azur
12,"[{'id': '4bf58dd8d48988d125941735', 'name': 'Tech Startup', 'pluralName': 'Tech Startups', 'shortName': 'Tech Startup', 'icon': {'prefix': 'https://ss3.4sqi.net/img/categories_v2/shops/technology_', 'suffix': '.png'}, 'primary': True}]",,FR,,France,4f47bcdbe4b0426dba0e499d,43.291453456248085,5.495327513136473,efixo,13011,4bf58dd8d48988d125941735,Tech Startup,Provence-Alpes-Côte d'Azur
13,"[{'id': '4bf58dd8d48988d125941735', 'name': 'Tech Startup', 'pluralName': 'Tech Startups', 'shortName': 'Tech Startup', 'icon': {'prefix': 'https://ss3.4sqi.net/img/categories_v2/shops/technology_', 'suffix': '.png'}, 'primary': True}]",,FR,,France,51c7126c498e13f8a41958d1,43.33980511162186,5.477466229819596,laluyaux Consulting,13190,4bf58dd8d48988d125941735,Tech Startup,Provence-Alpes-Côte d'Azur
14,"[{'id': '4bf58dd8d48988d125941735', 'name': 'Tech Startup', 'pluralName': 'Tech Startups', 'shortName': 'Tech Startup', 'icon': {'prefix': 'https://ss3.4sqi.net/img/categories_v2/shops/technology_', 'suffix': '.png'}, 'primary': True}]",,FR,,France,4df74e2ad1642d7385a60cdc,43.307515,5.475248,Electrotech,,4bf58dd8d48988d125941735,Tech Startup,PACA
15,"[{'id': '4bf58dd8d48988d125941735', 'name': 'Tech Startup', 'pluralName': 'Tech Startups', 'shortName': 'Tech Startup', 'icon': {'prefix': 'https://ss3.4sqi.net/img/categories_v2/shops/technology_', 'suffix': '.png'}, 'primary': True}]",,FR,,France,4c3f288c83a3a593d20aef33,43.33182710828102,5.483894348144531,Wyplay,13190,4bf58dd8d48988d125941735,Tech Startup,Provence-Alpes-Côte
0,"[{'id': '4bf58dd8d48988d125941735', 'name': 'Tech Startup', 'pluralName': 'Tech Startups', 'shortName': 'Tech Startup', 'icon': {'prefix': 'https://ss3.4sqi.net/img/categories_v2/shops/technology_', 'suffix': '.png'}, 'primary': True}]",,FR,,France,4d5c0467e7f7548103b71597,43.17951,5.705997,E-Frogg,83270,4bf58dd8d48988d125941735,Tech Startup,Provence-Alpes-Côte d'Azur
0,"[{'id': '4bf58dd8d48988d125941735', 'name': 'Tech Startup', 'pluralName': 'Tech Startups', 'shortName': 'Tech Startup', 'icon': {'prefix': 'https://ss3.4sqi.net/img/categories_v2/shops/technology_', 'suffix': '.png'}, 'primary': True}]",,FR,,France,55505d10498eadf2d0a38b3d,43.3956298828125,5.031068325042725,Digital Sense,13500,4bf58dd8d48988d125941735,Tech Startup,Provence-Alpes-Côte d'Azur
0,"[{'id': '4bf58dd8d48988d125941735', 'name': 'Tech Startup', 'pluralName': 'Tech Startups', 'shortName': 'Tech Startup', 'icon': {'prefix': 'https://ss3.4sqi.net/img/categories_v2/shops/technology_', 'suffix': '.png'}, 'primary': True}]",,FR,,France,51c15f4e498e1c8d7c21f838,43.480038,5.622272,Pôle SCS,,4bf58dd8d48988d125941735,Tech Startup,Provence-Alpes-Côte d'Azur
1,"[{'id': '4bf58dd8d48988d125941735', 'name': 'Tech Startup', 'pluralName': 'Tech Startups', 'shortName': 'Tech Startup', 'icon': {'prefix': 'https://ss3.4sqi.net/img/categories_v2/shops/technology_', 'suffix': '.png'}, 'primary': True}]",,FR,,France,52287de811d24085261b2818,43.464994,5.61039,Kysoe,,4bf58dd8d48988d125941735,Tech Startup,
0,"[{'id': '4bf58dd8d48988d124941735', 'name': 'Office', 'pluralName': 'Offices', 'shortName': 'Office', 'icon': {'prefix': 'https://ss3.4sqi.net/img/categories_v2/building/default_', 'suffix': '.png'}, 'primary': True}]",,FR,,France,4cb81036bac93704ee9bd97c,43.358884,5.335121,Quai13.com,13016,4bf58dd8d48988d124941735,Office,Provence-Alpes-Côte d'Azur
1,"[{'id': '4bf58dd8d48988d125941735', 'name': 'Tech Startup', 'pluralName': 'Tech Startups', 'shortName': 'Tech Startup', 'icon': {'prefix': 'https://ss3.4sqi.net/img/categories_v2/shops/technology_', 'suffix': '.png'}, 'primary': True}]",,FR,,France,53bbd972498e6b2c8c12c732,43.40093231201172,5.351639747619629,ert technologies,,4bf58dd8d48988d125941735,Tech Startup,
0,"[{'id': '4bf58dd8d48988d125941735', 'name': 'Tech Startup', 'pluralName': 'Tech Startups', 'shortName': 'Tech Startup', 'icon': {'prefix': 'https://ss3.4sqi.net/img/categories_v2/shops/technology_', 'suffix': '.png'}, 'primary': True}]",,FR,,France,537ddc82498eb6fba382a3ac,43.58684131395796,5.475322008132935,SESTREA,13770,4bf58dd8d48988d125941735,Tech Startup,Provence-Alpes-Côte d'Azur
1,"[{'id': '4bf58dd8d48988d125941735', 'name': 'Tech Startup', 'pluralName': 'Tech Startups', 'shortName': 'Tech Startup', 'icon': {'prefix': 'https://ss3.4sqi.net/img/categories_v2/shops/technology_', 'suffix': '.png'}, 'primary': True}]",,FR,,France,4f1581aba17c8a14455a1722,43.592632275093656,5.477300737342386,Habitat Trade,13770,4bf58dd8d48988d125941735,Tech Startup,Provence-Alpes-Côte d'Azur
0,"[{'id': '4bf58dd8d48988d125941735', 'name': 'Tech Startup', 'pluralName': 'Tech Startups', 'shortName': 'Tech Startup', 'icon': {'prefix': 'https://ss3.4sqi.net/img/categories_v2/shops/technology_', 'suffix': '.png'}, 'primary': True}]",,FR,,France,53b3e82b498ef9a1b45033d3,43.67694430480589,5.50302573378345,Auto Escape,,4bf58dd8d48988d125941735,Tech Startup,
1,"[{'id': '4bf58dd8d48988d125941735', 'name': 'Tech Startup', 'pluralName': 'Tech Startups', 'shortName': 'Tech Startup', 'icon': {'prefix': 'https://ss3.4sqi.net/img/categories_v2/shops/technology_', 'suffix': '.png'}, 'primary': True}]",,FR,,France,53c500b1498e0f88a510aad5,43.676943,5.503026,Autoescape,,4bf58dd8d48988d125941735,Tech Startup,Provence-Alpes-Côte d'Azur
2,"[{'id': '4bf58dd8d48988d125941735', 'name': 'Tech Startup', 'pluralName': 'Tech Startups', 'shortName': 'Tech Startup', 'icon': {'prefix': 'https://ss3.4sqi.net/img/categories_v2/shops/technology_', 'suffix': '.png'}, 'primary': True}]",,FR,,France,5101692819a90c2bc5bbdc6d,43.67778903073725,5.503013134002685,CaptenDeal,84120,4bf58dd8d48988d125941735,Tech Startup,Provence-Alpes-Côte d'Azur
0,"[{'id': '4bf58dd8d48988d125941735', 'name': 'Tech Startup', 'pluralName': 'Tech Startups', 'shortName': 'Tech Startup', 'icon': {'prefix': 'https://ss3.4sqi.net/img/categories_v2/shops/technology_', 'suffix': '.png'}, 'primary': True}]",,FR,,France,5187ef68498e33fb7890a799,43.576210021972656,5.004641056060791,iMedias,13140,4bf58dd8d48988d125941735,Tech Startup,Provence-Alpes-Côte d'Azur
1,"[{'id': '4bf58dd8d48988d125941735', 'name': 'Tech Startup', 'pluralName': 'Tech Startups', 'shortName': 'Tech Startup', 'icon': {'prefix': 'https://ss3.4sqi.net/img/categories_v2/shops/technology_', 'suffix': '.png'}, 'primary': True}]",,FR,,France,509e8e52e4b09c89229e9bb2,43.5872917175293,5.008948802947998,Webconsulting,13140,4bf58dd8d48988d125941735,Tech Startup,Provence-Alpes-Côte d'Azur
0,"[{'id': '4bf58dd8d48988d125941735', 'name': 'Tech Startup', 'pluralName': 'Tech Startups', 'shortName': 'Tech Startup', 'icon': {'prefix': 'https://ss3.4sqi.net/img/categories_v2/shops/technology_', 'suffix': '.png'}, 'primary': True}]",,FR,,France,4f66e449e4b0e30d22d0a4ef,43.45127079446259,5.448413948095949,Alhena,,4bf58dd8d48988d125941735,Tech Startup,
1,"[{'id': '4bf58dd8d48988d125941735', 'name': 'Tech Startup', 'pluralName': 'Tech Startups', 'shortName': 'Tech Startup', 'icon': {'prefix': 'https://ss3.4sqi.net/img/categories_v2/shops/technology_', 'suffix': '.png'}, 'primary': True}]",,FR,,France,4e4a3092a80997a2dbeedfdf,43.444638,5.480312,Socialize,,4bf58dd8d48988d125941735,Tech Startup,Provence-Alpes-Côte d'Azur
2,"[{'id': '4bf58dd8d48988d125941735', 'name': 'Tech Startup', 'pluralName': 'Tech Startups', 'shortName': 'Tech Startup', 'icon': {'prefix': 'https://ss3.4sqi.net/img/categories_v2/shops/technology_', 'suffix': '.png'}, 'primary': True}]",,FR,,France,4e37e0dacc3f222897286303,43.44527011403985,5.479699373245239,iPuP Office,13120,4bf58dd8d48988d125941735,Tech Startup,Provence-Alpes-Côte d'Azur
0,"[{'id': '4bf58dd8d48988d125941735', 'name': 'Tech Startup', 'pluralName': 'Tech Startups', 'shortName': 'Tech Startup', 'icon': {'prefix': 'https://ss3.4sqi.net/img/categories_v2/shops/technology_', 'suffix': '.png'}, 'primary': True}]",,FR,,France,4bfa7bc75efe2d7fcea16d34,43.64852013208281,5.254718645666407,Antidot,,4bf58dd8d48988d125941735,Tech Startup,Provence-Alpes-Côte
0,"[{'id': '4bf58dd8d48988d125941735', 'name': 'Tech Startup', 'pluralName': 'Tech Startups', 'shortName': 'Tech Startup', 'icon': {'prefix': 'https://ss3.4sqi.net/img/categories_v2/shops/technology_', 'suffix': '.png'}, 'primary': True}]",,FR,,France,4b90bf40f964a5201b9633e3,43.355677054958996,5.336484491762157,VirtualExpo,13016,4bf58dd8d48988d125941735,Tech Startup,Provence-Alpes-Côte d'Azur
1,"[{'id': '4bf58dd8d48988d125941735', 'name': 'Tech Startup', 'pluralName': 'Tech Startups', 'shortName': 'Tech Startup', 'icon': {'prefix': 'https://ss3.4sqi.net/img/categories_v2/shops/technology_', 'suffix': '.png'}, 'primary': True}]",,FR,,France,524ab85611d21d4336c99221,43.355162,5.341364,Une souris Au Menu,,4bf58dd8d48988d125941735,Tech Startup,
3,"[{'id': '4bf58dd8d48988d125941735', 'name': 'Tech Startup', 'pluralName': 'Tech Startups', 'shortName': 'Tech Startup', 'icon': {'prefix': 'https://ss3.4sqi.net/img/categories_v2/shops/technology_', 'suffix': '.png'}, 'primary': True}]",,FR,,France,5047618be4b0d157f068d9c4,43.361148834228516,5.3215413093566895,Lumata,,4bf58dd8d48988d125941735,Tech Startup,
1,"[{'id': '4bf58dd8d48988d125941735', 'name': 'Tech Startup', 'pluralName': 'Tech Startups', 'shortName': 'Tech Startup', 'icon': {'prefix': 'https://ss3.4sqi.net/img/categories_v2/shops/technology_', 'suffix': '.png'}, 'primary': True}]",,FR,,France,5130f34be4b0a2e11f539856,43.67825847676559,5.29390811920166,Docteur Folimage,13410,4bf58dd8d48988d125941735,Tech Startup,Provence-Alpes-Côte d'Azur
0,"[{'id': '4bf58dd8d48988d125941735', 'name': 'Tech Startup', 'pluralName': 'Tech Startups', 'shortName': 'Tech Startup', 'icon': {'prefix': 'https://ss3.4sqi.net/img/categories_v2/shops/technology_', 'suffix': '.png'}, 'primary': True}]",,FR,,France,4dc28b1145ddd5b5b6ae13f6,43.09202112165138,5.81126855234293,Centre Technique Municipal,,4bf58dd8d48988d125941735,Tech Startup,Provence-Alpes-Côte d'Azur
0,"[{'id': '4bf58dd8d48988d174941735', 'name': 'Coworking Space', 'pluralName': 'Coworking Spaces', 'shortName': 'Coworking Space', 'icon': {'prefix': 'https://ss3.4sqi.net/img/categories_v2/building/office_coworkingspace_', 'suffix': '.png'}, 'primary': True}]",,FR,,France,5af1a7ac6bd36b002cd48449,43.301403,5.3701625,The Babel Community,13002,4bf58dd8d48988d174941735,Coworking Space,Provence-Alpes-Côte d'Azur
1,"[{'id': '4bf58dd8d48988d174941735', 'name': 'Coworking Space', 'pluralName': 'Coworking Spaces', 'shortName': 'Coworking Space', 'icon': {'prefix': 'https://ss3.4sqi.net/img/categories_v2/building/office_coworkingspace_', 'suffix': '.png'}, 'primary': True}]",,FR,,France,50588d5fe4b04bd69f3d25ca,43.305942589074185,5.367976008014081,Orange campus,,4bf58dd8d48988d174941735,Coworking Space,
2,"[{'id': '4bf58dd8d48988d174941735', 'name': 'Coworking Space', 'pluralName': 'Coworking Spaces', 'shortName': 'Coworking Space', 'icon': {'prefix': 'https://ss3.4sqi.net/img/categories_v2/building/office_coworkingspace_', 'suffix': '.png'}, 'primary': True}]",,FR,,France,4f44cdfbe4b0d7734383c8b4,43.30110514435789,5.3833243883196955,Espace Liberté,,4bf58dd8d48988d174941735,Coworking Space,
3,"[{'id': '4bf58dd8d48988d174941735', 'name': 'Coworking Space', 'pluralName': 'Coworking Spaces', 'shortName': 'Coworking Space', 'icon': {'prefix': 'https://ss3.4sqi.net/img/categories_v2/building/office_coworkingspace_', 'suffix': '.png'}, 'primary': True}]",,FR,,France,51efd0e1498e72e70c0d30d0,43.30498,5.366219,Multiburo Marseille Joliette,13000,4bf58dd8d48988d174941735,Coworking Space,Provence-Alpes-Côte d'Azur
4,"[{'id': '4bf58dd8d48988d174941735', 'name': 'Coworking Space', 'pluralName': 'Coworking Spaces', 'shortName': 'Coworking Space', 'icon': {'prefix': 'https://ss3.4sqi.net/img/categories_v2/building/office_coworkingspace_', 'suffix': '.png'}, 'primary': True}]",,FR,,France,514abe8ce4b0476ac1f8904a,43.2787902024387,5.406874060483149,le taf,13010,4bf58dd8d48988d174941735,Coworking Space,
5,"[{'id': '4bf58dd8d48988d174941735', 'name': 'Coworking Space', 'pluralName': 'Coworking Spaces', 'shortName': 'Coworking Space', 'icon': {'prefix': 'https://ss3.4sqi.net/img/categories_v2/building/office_coworkingspace_', 'suffix': '.png'}, 'primary': True}]",,FR,,France,4ff3e2cce4b0211bc14eb60d,43.30716428921053,5.366815973256472,Grand Horizon,,4bf58dd8d48988d174941735,Coworking Space,
6,"[{'id': '4bf58dd8d48988d174941735', 'name': 'Coworking Space', 'pluralName': 'Coworking Spaces', 'shortName': 'Coworking Space', 'icon': {'prefix': 'https://ss3.4sqi.net/img/categories_v2/building/office_coworkingspace_', 'suffix': '.png'}, 'primary': True}]",,FR,,France,4fb2103ee4b00dd091a7e09a,43.281145,5.380959,Salle d'Allemand (Algeco Sp5),,4bf58dd8d48988d174941735,Coworking Space,
7,"[{'id': '4bf58dd8d48988d174941735', 'name': 'Coworking Space', 'pluralName': 'Coworking Spaces', 'shortName': 'Coworking Space', 'icon': {'prefix': 'https://ss3.4sqi.net/img/categories_v2/building/office_coworkingspace_', 'suffix': '.png'}, 'primary': True}]",,FR,,France,4b798b64f964a5205a002fe3,43.30934781822584,5.3897143598792505,Pole Média de la Belle de Mai,13003,4bf58dd8d48988d174941735,Coworking Space,PACA
8,"[{'id': '52f2ab2ebcbc57f1066b8b46', 'name': 'Supermarket', 'pluralName': 'Supermarkets', 'shortName': 'Supermarket', 'icon': {'prefix': 'https://ss3.4sqi.net/img/categories_v2/shops/food_grocery_', 'suffix': '.png'}, 'primary': True}]",,FR,,France,53207da8498ef4526aa68828,43.296774,5.376057,Carrefour Market,13001,52f2ab2ebcbc57f1066b8b46,Supermarket,Provence-Alpes-Côte d'Azur
9,"[{'id': '4bf58dd8d48988d174941735', 'name': 'Coworking Space', 'pluralName': 'Coworking Spaces', 'shortName': 'Coworking Space', 'icon': {'prefix': 'https://ss3.4sqi.net/img/categories_v2/building/office_coworkingspace_', 'suffix': '.png'}, 'primary': True}]",,FR,,France,507d5812e4b0d6bd8072ad60,43.29214974938971,5.3764393457090325,Pôle Lulli,,4bf58dd8d48988d174941735,Coworking Space,
10,"[{'id': '4bf58dd8d48988d174941735', 'name': 'Coworking Space', 'pluralName': 'Coworking Spaces', 'shortName': 'Coworking Space', 'icon': {'prefix': 'https://ss3.4sqi.net/img/categories_v2/building/office_coworkingspace_', 'suffix': '.png'}, 'primary': True}]",,FR,,France,4e940e448231f4dfcdefdcef,43.2846697,5.386469,Salle Info,,4bf58dd8d48988d174941735,Coworking Space,Provence-Alpes-Côte d'Azur
11,"[{'id': '4bf58dd8d48988d174941735', 'name': 'Coworking Space', 'pluralName': 'Coworking Spaces', 'shortName': 'Coworking Space', 'icon': {'prefix': 'https://ss3.4sqi.net/img/categories_v2/building/office_coworkingspace_', 'suffix': '.png'}, 'primary': True}]",,FR,,France,4d2b55b3915fa093df52160a,43.294480980923964,5.376348495483398,CJD Marseille,13001,4bf58dd8d48988d174941735,Coworking Space,PACA
12,"[{'id': '4bf58dd8d48988d174941735', 'name': 'Coworking Space', 'pluralName': 'Coworking Spaces', 'shortName': 'Coworking Space', 'icon': {'prefix': 'https://ss3.4sqi.net/img/categories_v2/building/office_coworkingspace_', 'suffix': '.png'}, 'primary': True}]",,FR,,France,4f606b46e4b0ba0ce033f1ff,43.294403,5.374884,Adecco Medical Remplacement Des Medecins,,4bf58dd8d48988d174941735,Coworking Space,Provence-Alpes-Côte d'Azur
13,"[{'id': '4bf58dd8d48988d174941735', 'name': 'Coworking Space', 'pluralName': 'Coworking Spaces', 'shortName': 'Coworking Space', 'icon': {'prefix': 'https://ss3.4sqi.net/img/categories_v2/building/office_coworkingspace_', 'suffix': '.png'}, 'primary': True}]",,FR,,France,58aae8dbd4ab737624810fb5,43.302851,5.386536,la ruche coworking,,4bf58dd8d48988d174941735,Coworking Space,
14,"[{'id': '4bf58dd8d48988d174941735', 'name': 'Coworking Space', 'pluralName': 'Coworking Spaces', 'shortName': 'Coworking Space', 'icon': {'prefix': 'https://ss3.4sqi.net/img/categories_v2/building/office_coworkingspace_', 'suffix': '.png'}, 'primary': True}]",,FR,,France,4f452aefe4b025d8440fc98b,43.29578026602729,5.374686269929363,Ccimp Show Room Innovatic,,4bf58dd8d48988d174941735,Coworking Space,Provence-Alpes-Côte d'Azur
15,"[{'id': '4bf58dd8d48988d174941735', 'name': 'Coworking Space', 'pluralName': 'Coworking Spaces', 'shortName': 'Coworking Space', 'icon': {'prefix': 'https://ss3.4sqi.net/img/categories_v2/building/office_coworkingspace_', 'suffix': '.png'}, 'primary': True}]",,FR,,France,4e244421e4cdf68591a110b4,43.297436,5.423873,At Work,13012,4bf58dd8d48988d174941735,Coworking Space,Provence-Alpes-Côte d'Azur
16,"[{'id': '4bf58dd8d48988d174941735', 'name': 'Coworking Space', 'pluralName': 'Coworking Spaces', 'shortName': 'Coworking Space', 'icon': {'prefix': 'https://ss3.4sqi.net/img/categories_v2/building/office_coworkingspace_', 'suffix': '.png'}, 'primary': True}]",,FR,,France,4fe1972fe4b0c94158348658,43.32820541971008,5.4145601632414575,kone,13013,4bf58dd8d48988d174941735,Coworking Space,Provence-Alpes-Côte d'Azur
17,"[{'id': '4bf58dd8d48988d174941735', 'name': 'Coworking Space', 'pluralName': 'Coworking Spaces', 'shortName': 'Coworking Space', 'icon': {'prefix': 'https://ss3.4sqi.net/img/categories_v2/building/office_coworkingspace_', 'suffix': '.png'}, 'primary': True}]",,FR,,France,4e369b0dd1649e45e3dcda8b,43.293006,5.369347,Midi Nautisme,,4bf58dd8d48988d174941735,Coworking Space,Provence-Alpes-Côte d'Azur
18,"[{'id': '4bf58dd8d48988d174941735', 'name': 'Coworking Space', 'pluralName': 'Coworking Spaces', 'shortName': 'Coworking Space', 'icon': {'prefix': 'https://ss3.4sqi.net/img/categories_v2/building/office_coworkingspace_', 'suffix': '.png'}, 'primary': True}]",,FR,,France,4ee9cd17b8f7eaddf728d499,43.285125034774104,5.398809785049651,Transmedical,13005,4bf58dd8d48988d174941735,Coworking Space,Provence-Alpes-Côte d'Azur
19,"[{'id': '4bf58dd8d48988d174941735', 'name': 'Coworking Space', 'pluralName': 'Coworking Spaces', 'shortName': 'Coworking Space', 'icon': {'prefix': 'https://ss3.4sqi.net/img/categories_v2/building/office_coworkingspace_', 'suffix': '.png'}, 'primary': True}]",,FR,,France,50b3940be4b0ecbafbe5a344,43.274497974271604,5.391202046601014,Sud Concerts,13008,4bf58dd8d48988d174941735,Coworking Space,Provence-Alpes-Côte d'Azur
20,"[{'id': '4bf58dd8d48988d174941735', 'name': 'Coworking Space', 'pluralName': 'Coworking Spaces', 'shortName': 'Coworking Space', 'icon': {'prefix': 'https://ss3.4sqi.net/img/categories_v2/building/office_coworkingspace_', 'suffix': '.png'}, 'primary': True}]",,FR,,France,51b5853e498ecbc1dc469b2e,43.291859,5.377513,Group'Union,13006,4bf58dd8d48988d174941735,Coworking Space,Provence-Alpes-Côte d'Azur
21,"[{'id': '4bf58dd8d48988d174941735', 'name': 'Coworking Space', 'pluralName': 'Coworking Spaces', 'shortName': 'Coworking Space', 'icon': {'prefix': 'https://ss3.4sqi.net/img/categories_v2/building/office_coworkingspace_', 'suffix': '.png'}, 'primary': True}]",,FR,,France,4ef34ebebe7be23b0f813231,43.29535936778944,5.37443072396758,Rhnet,13001,4bf58dd8d48988d174941735,Coworking Space,Provence-Alpes-Côte d'Azur
22,"[{'id': '4bf58dd8d48988d174941735', 'name': 'Coworking Space', 'pluralName': 'Coworking Spaces', 'shortName': 'Coworking Space', 'icon': {'prefix': 'https://ss3.4sqi.net/img/categories_v2/building/office_coworkingspace_', 'suffix': '.png'}, 'primary': True}]",,FR,,France,4fe82561e4b0a0c3b0fa139a,43.284057,5.383589,AMFD,,4bf58dd8d48988d174941735,Coworking Space,
23,"[{'id': '4bf58dd8d48988d174941735', 'name': 'Coworking Space', 'pluralName': 'Coworking Spaces', 'shortName': 'Coworking Space', 'icon': {'prefix': 'https://ss3.4sqi.net/img/categories_v2/building/office_coworkingspace_', 'suffix': '.png'}, 'primary': True}]",,FR,,France,4f5df2a2e4b0a61f4d5ceab0,43.30825641311615,5.3649814284327215,DPSI,,4bf58dd8d48988d174941735,Coworking Space,
24,"[{'id': '4bf58dd8d48988d174941735', 'name': 'Coworking Space', 'pluralName': 'Coworking Spaces', 'shortName': 'Coworking Space', 'icon': {'prefix': 'https://ss3.4sqi.net/img/categories_v2/building/office_coworkingspace_', 'suffix': '.png'}, 'primary': True}]",,FR,,France,5423ff1b498e642942c71c27,43.291773,5.376507,Maison d'avocat de Marseille,,4bf58dd8d48988d174941735,Coworking Space,
25,"[{'id': '4bf58dd8d48988d174941735', 'name': 'Coworking Space', 'pluralName': 'Coworking Spaces', 'shortName': 'Coworking Space', 'icon': {'prefix': 'https://ss3.4sqi.net/img/categories_v2/building/office_coworkingspace_', 'suffix': '.png'}, 'primary': True}]",,FR,,France,4c7293189e706dcbda1c4b62,43.28964,5.373828,Le Boulot De GuiGui,,4bf58dd8d48988d174941735,Coworking Space,
26,"[{'id': '4bf58dd8d48988d174941735', 'name': 'Coworking Space', 'pluralName': 'Coworking Spaces', 'shortName': 'Coworking Space', 'icon': {'prefix': 'https://ss3.4sqi.net/img/categories_v2/building/office_coworkingspace_', 'suffix': '.png'}, 'primary': True}]",,FR,,France,55e6c084498e087a39f82138,43.28987357703398,5.376351177692413,Smack Coworking,13006,4bf58dd8d48988d174941735,Coworking Space,Sélectionner un Etat :
27,"[{'id': '4bf58dd8d48988d174941735', 'name': 'Coworking Space', 'pluralName': 'Coworking Spaces', 'shortName': 'Coworking Space', 'icon': {'prefix': 'https://ss3.4sqi.net/img/categories_v2/building/office_coworkingspace_', 'suffix': '.png'}, 'primary': True}]",,FR,,France,51189bfce4b0f83275d91a61,43.312474005756066,5.405211694718611,Pôle Emploi Chartreux,13004,4bf58dd8d48988d174941735,Coworking Space,Provence-Alpes-Côte d'Azur
28,"[{'id': '4bf58dd8d48988d174941735', 'name': 'Coworking Space', 'pluralName': 'Coworking Spaces', 'shortName': 'Coworking Space', 'icon': {'prefix': 'https://ss3.4sqi.net/img/categories_v2/building/office_coworkingspace_', 'suffix': '.png'}, 'primary': True}]",,FR,,France,558ced0c498ee8a0c748c2f9,43.27617221444103,5.395982329956383,Plateforme S@D/ Activités Centralisées,13009,4bf58dd8d48988d174941735,Coworking Space,Provence-Alpes-Côte d'Azur
29,"[{'id': '4bf58dd8d48988d174941735', 'name': 'Coworking Space', 'pluralName': 'Coworking Spaces', 'shortName': 'Coworking Space', 'icon': {'prefix': 'https://ss3.4sqi.net/img/categories_v2/building/office_coworkingspace_', 'suffix': '.png'}, 'primary': True}]",,FR,,France,4e51ed14483bb7704931b878,43.288027,5.396717,I.P.E.M.,13005,4bf58dd8d48988d174941735,Coworking Space,Provence-Alpes-Côte d'Azur
30,"[{'id': '4bf58dd8d48988d174941735', 'name': 'Coworking Space', 'pluralName': 'Coworking Spaces', 'shortName': 'Coworking Space', 'icon': {'prefix': 'https://ss3.4sqi.net/img/categories_v2/building/office_coworkingspace_', 'suffix': '.png'}, 'primary': True}]",,FR,,France,4f105c276d863f284cca9d51,43.316825841028724,5.368452072143555,Agence Capgemini Marseille,13015,4bf58dd8d48988d174941735,Coworking Space,Provence-Alpes-Côte d'Azur
31,"[{'id': '4bf58dd8d48988d174941735', 'name': 'Coworking Space', 'pluralName': 'Coworking Spaces', 'shortName': 'Coworking Space', 'icon': {'prefix': 'https://ss3.4sqi.net/img/categories_v2/building/office_coworkingspace_', 'suffix': '.png'}, 'primary': True}]",,FR,,France,4e1e2dde8877933f69738ee4,43.312228,5.393097,Maison Cado,,4bf58dd8d48988d174941735,Coworking Space,Provence-Alpes-Côte d'Azur
32,"[{'id': '4bf58dd8d48988d174941735', 'name': 'Coworking Space', 'pluralName': 'Coworking Spaces', 'shortName': 'Coworking Space', 'icon': {'prefix': 'https://ss3.4sqi.net/img/categories_v2/building/office_coworkingspace_', 'suffix': '.png'}, 'primary': True}]",,FR,,France,4eb6aec94901cef9d90e6eef,43.31649021862764,5.406418523770067,ERA JUSTIMMO,13005,4bf58dd8d48988d174941735,Coworking Space,Provence-Alpes-Côte d'Azur
33,"[{'id': '4bf58dd8d48988d174941735', 'name': 'Coworking Space', 'pluralName': 'Coworking Spaces', 'shortName': 'Coworking Space', 'icon': {'prefix': 'https://ss3.4sqi.net/img/categories_v2/building/office_coworkingspace_', 'suffix': '.png'}, 'primary': True}]",,FR,,France,4f2f9a65e4b07ca317739268,43.295991298106955,5.376204236246971,AG2R La Cannebiere,,4bf58dd8d48988d174941735,Coworking Space,
34,"[{'id': '4bf58dd8d48988d174941735', 'name': 'Coworking Space', 'pluralName': 'Coworking Spaces', 'shortName': 'Coworking Space', 'icon': {'prefix': 'https://ss3.4sqi.net/img/categories_v2/building/office_coworkingspace_', 'suffix': '.png'}, 'primary': True}]",,FR,,France,56938318498e94af9f3d65cb,43.2860858734573,5.3770244121551505,Make it Marseille,13006,4bf58dd8d48988d174941735,Coworking Space,Provence-Alpes-Côte d'Azur
35,"[{'id': '4bf58dd8d48988d174941735', 'name': 'Coworking Space', 'pluralName': 'Coworking Spaces', 'shortName': 'Coworking Space', 'icon': {'prefix': 'https://ss3.4sqi.net/img/categories_v2/building/office_coworkingspace_', 'suffix': '.png'}, 'primary': True}]",,FR,,France,5023c6e0e4b05228ed2279c8,43.292170349718695,5.37649045658828,THE Pole Média,,4bf58dd8d48988d174941735,Coworking Space,
36,"[{'id': '4bf58dd8d48988d174941735', 'name': 'Coworking Space', 'pluralName': 'Coworking Spaces', 'shortName': 'Coworking Space', 'icon': {'prefix': 'https://ss3.4sqi.net/img/categories_v2/building/office_coworkingspace_', 'suffix': '.png'}, 'primary': True}]",,FR,,France,50fe524ce4b0b74ec158e22e,43.291823,5.371708,Les Films Du Tambour De Soie,13007,4bf58dd8d48988d174941735,Coworking Space,Provence-Alpes-Côte d'Azur
37,"[{'id': '4bf58dd8d48988d174941735', 'name': 'Coworking Space', 'pluralName': 'Coworking Spaces', 'shortName': 'Coworking Space', 'icon': {'prefix': 'https://ss3.4sqi.net/img/categories_v2/building/office_coworkingspace_', 'suffix': '.png'}, 'primary': True}]",,FR,,France,504871e6e4b0f94aaac7be8d,43.307877,5.367011,Groupon Marseille,,4bf58dd8d48988d174941735,Coworking Space,
38,"[{'id': '4bf58dd8d48988d174941735', 'name': 'Coworking Space', 'pluralName': 'Coworking Spaces', 'shortName': 'Coworking Space', 'icon': {'prefix': 'https://ss3.4sqi.net/img/categories_v2/building/office_coworkingspace_', 'suffix': '.png'}, 'primary': True}]",,FR,,France,52b05b4e11d2ab1ec977fbe6,43.32591887420327,5.3800018822592435,Azur Bureau,13014,4bf58dd8d48988d174941735,Coworking Space,
39,"[{'id': '4bf58dd8d48988d174941735', 'name': 'Coworking Space', 'pluralName': 'Coworking Spaces', 'shortName': 'Coworking Space', 'icon': {'prefix': 'https://ss3.4sqi.net/img/categories_v2/building/office_coworkingspace_', 'suffix': '.png'}, 'primary': True}]",,FR,,France,518f4e0f498eb00f72fb8655,43.294387990319564,5.376878900748432,SOCOREC,13001,4bf58dd8d48988d174941735,Coworking Space,Provence-Alpes-Côte d'Azur
40,"[{'id': '4bf58dd8d48988d174941735', 'name': 'Coworking Space', 'pluralName': 'Coworking Spaces', 'shortName': 'Coworking Space', 'icon': {'prefix': 'https://ss3.4sqi.net/img/categories_v2/building/office_coworkingspace_', 'suffix': '.png'}, 'primary': True}]",,FR,,France,4fdf33f9e4b0ef4c39ef1678,43.262902,5.376826,Le Spot Multiburo Coworking à Marseille - Lieu de travail pour entrepreneur | Coworking bureaux partagés Salle de réunion Centre d'affaires Domiciliation,13008,4bf58dd8d48988d174941735,Coworking Space,Provence-Alpes-Côte d'Azur
41,"[{'id': '4bf58dd8d48988d174941735', 'name': 'Coworking Space', 'pluralName': 'Coworking Spaces', 'shortName': 'Coworking Space', 'icon': {'prefix': 'https://ss3.4sqi.net/img/categories_v2/building/office_coworkingspace_', 'suffix': '.png'}, 'primary': True}]",,FR,,France,51cb23ea498efc7b2882a621,43.297238,5.379778,Bureaux Prod. Mars#melody,,4bf58dd8d48988d174941735,Coworking Space,Provence-Alpes-Côte d'Azur
42,"[{'id': '4bf58dd8d48988d174941735', 'name': 'Coworking Space', 'pluralName': 'Coworking Spaces', 'shortName': 'Coworking Space', 'icon': {'prefix': 'https://ss3.4sqi.net/img/categories_v2/building/office_coworkingspace_', 'suffix': '.png'}, 'primary': True}]",,FR,,France,4b5f2dbff964a52054ab29e3,43.29206304815603,5.373083134352708,La Boate,13001,4bf58dd8d48988d174941735,Coworking Space,PACA
43,"[{'id': '4bf58dd8d48988d174941735', 'name': 'Coworking Space', 'pluralName': 'Coworking Spaces', 'shortName': 'Coworking Space', 'icon': {'prefix': 'https://ss3.4sqi.net/img/categories_v2/building/office_coworkingspace_', 'suffix': '.png'}, 'primary': True}]",,FR,,France,5a8f135061e53b1f7675aa4e,43.331582,5.35887,Le Carburateur - Pôle de l'Entrepreneuriat,13015,4bf58dd8d48988d174941735,Coworking Space,Provence-Alpes-Côte d'Azur
44,"[{'id': '4bf58dd8d48988d174941735', 'name': 'Coworking Space', 'pluralName': 'Coworking Spaces', 'shortName': 'Coworking Space', 'icon': {'prefix': 'https://ss3.4sqi.net/img/categories_v2/building/office_coworkingspace_', 'suffix': '.png'}, 'primary': True}]",,FR,,France,4f86ad09e4b0c69e7d594803,43.29058074951172,5.391185760498047,Ultranoir,13005,4bf58dd8d48988d174941735,Coworking Space,Provence-Alpes-Côte d'Azur
45,"[{'id': '4bf58dd8d48988d113951735', 'name': 'Gas Station', 'pluralName': 'Gas Stations', 'shortName': 'Gas Station', 'icon': {'prefix': 'https://ss3.4sqi.net/img/categories_v2/shops/gas_', 'suffix': '.png'}, 'primary': True}]",,FR,,France,58e8a0520393cc357f376cd3,43.2742745,5.39371975,Total,13008,4bf58dd8d48988d113951735,Gas Station,Provence-Alpes-Côte d'Azur
46,"[{'id': '4bf58dd8d48988d174941735', 'name': 'Coworking Space', 'pluralName': 'Coworking Spaces', 'shortName': 'Coworking Space', 'icon': {'prefix': 'https://ss3.4sqi.net/img/categories_v2/building/office_coworkingspace_', 'suffix': '.png'}, 'primary': True}]",,FR,,France,519cab23498e34094372f4ea,43.27166214405875,5.3906396862965025,Sud Expert,,4bf58dd8d48988d174941735,Coworking Space,
47,"[{'id': '4bf58dd8d48988d174941735', 'name': 'Coworking Space', 'pluralName': 'Coworking Spaces', 'shortName': 'Coworking Space', 'icon': {'prefix': 'https://ss3.4sqi.net/img/categories_v2/building/office_coworkingspace_', 'suffix': '.png'}, 'primary': True}]",,FR,,France,4e8db8dcb63445c4a540612a,43.29365848407646,5.377282680999419,Etude Rebufat,13001,4bf58dd8d48988d174941735,Coworking Space,Provence-Alpes-Côte d'Azur
48,"[{'id': '4bf58dd8d48988d1ff931735', 'name': 'Convention Center', 'pluralName': 'Convention Centers', 'shortName': 'Convention Center', 'icon': {'prefix': 'https://ss3.4sqi.net/img/categories_v2/building/conventioncenter_', 'suffix': '.png'}, 'primary': True}]",,FR,,France,4be289ba21d5a5938dbf1611,43.29708,5.372425,Cité Des Métiers,13002,4bf58dd8d48988d1ff931735,Convention Center,Provence-Alpes-Côte d'Azur
49,"[{'id': '4bf58dd8d48988d174941735', 'name': 'Coworking Space', 'pluralName': 'Coworking Spaces', 'shortName': 'Coworking Space', 'icon': {'prefix': 'https://ss3.4sqi.net/img/categories_v2/building/office_coworkingspace_', 'suffix': '.png'}, 'primary': True}]",,FR,,France,52f0b20a498ef177140e669c,43.269372,5.389512,CosNat,,4bf58dd8d48988d174941735,Coworking Space,
0,"[{'id': '4bf58dd8d48988d174941735', 'name': 'Coworking Space', 'pluralName': 'Coworking Spaces', 'shortName': 'Coworking Space', 'icon': {'prefix': 'https://ss3.4sqi.net/img/categories_v2/building/office_coworkingspace_', 'suffix': '.png'}, 'primary': True}]",,FR,,France,4ed955257bebc29454b40da9,43.531921922005424,5.446027708943424,Junior Experts Sciences Po Aix,13100,4bf58dd8d48988d174941735,Coworking Space,Provence-Alpes-Côte d'Azur
1,"[{'id': '4bf58dd8d48988d174941735', 'name': 'Coworking Space', 'pluralName': 'Coworking Spaces', 'shortName': 'Coworking Space', 'icon': {'prefix': 'https://ss3.4sqi.net/img/categories_v2/building/office_coworkingspace_', 'suffix': '.png'}, 'primary': True}]",,FR,,France,4f1d8eb8e4b0c7ea6a24a9bd,43.51393127441406,5.428247451782227,Thalasseo,,4bf58dd8d48988d174941735,Coworking Space,
2,"[{'id': '4bf58dd8d48988d174941735', 'name': 'Coworking Space', 'pluralName': 'Coworking Spaces', 'shortName': 'Coworking Space', 'icon': {'prefix': 'https://ss3.4sqi.net/img/categories_v2/building/office_coworkingspace_', 'suffix': '.png'}, 'primary': True}]",,FR,,France,593e564c5d0fea1b2fb7383c,43.525406,5.411552,CDG 13,,4bf58dd8d48988d174941735,Coworking Space,
3,"[{'id': '4bf58dd8d48988d174941735', 'name': 'Coworking Space', 'pluralName': 'Coworking Spaces', 'shortName': 'Coworking Space', 'icon': {'prefix': 'https://ss3.4sqi.net/img/categories_v2/building/office_coworkingspace_', 'suffix': '.png'}, 'primary': True}]",,FR,,France,50e45191e4b09f5ea66f77b5,43.532979834637885,5.446969286765365,Redsoul siège social/showroom,13100,4bf58dd8d48988d174941735,Coworking Space,Provence-Alpes-Côte d'Azur
4,"[{'id': '4bf58dd8d48988d174941735', 'name': 'Coworking Space', 'pluralName': 'Coworking Spaces', 'shortName': 'Coworking Space', 'icon': {'prefix': 'https://ss3.4sqi.net/img/categories_v2/building/office_coworkingspace_', 'suffix': '.png'}, 'primary': True}]",,FR,,France,4d5bd99fe7f7548165c61397,43.52323999,5.435423019629081,Orange/FT,13100,4bf58dd8d48988d174941735,Coworking Space,Provence-Alpes-Côte d'Azur
5,"[{'id': '4bf58dd8d48988d174941735', 'name': 'Coworking Space', 'pluralName': 'Coworking Spaces', 'shortName': 'Coworking Space', 'icon': {'prefix': 'https://ss3.4sqi.net/img/categories_v2/building/office_coworkingspace_', 'suffix': '.png'}, 'primary': True}]",,FR,,France,52fcbd85498eca0c6ed424da,43.514469,5.425811,Orange l'Ensoleillée,,4bf58dd8d48988d174941735,Coworking Space,
6,"[{'id': '4bf58dd8d48988d174941735', 'name': 'Coworking Space', 'pluralName': 'Coworking Spaces', 'shortName': 'Coworking Space', 'icon': {'prefix': 'https://ss3.4sqi.net/img/categories_v2/building/office_coworkingspace_', 'suffix': '.png'}, 'primary': True}]",,FR,,France,509ccad9e4b01718b1a945eb,43.512016,5.436809,Thema Design,13090,4bf58dd8d48988d174941735,Coworking Space,Provence-Alpes-Côte d'Azur
7,"[{'id': '4bf58dd8d48988d174941735', 'name': 'Coworking Space', 'pluralName': 'Coworking Spaces', 'shortName': 'Coworking Space', 'icon': {'prefix': 'https://ss3.4sqi.net/img/categories_v2/building/office_coworkingspace_', 'suffix': '.png'}, 'primary': True}]",,FR,,France,505abea4e4b065a90b967955,43.514922,5.433062,Cabinet Lubrano,,4bf58dd8d48988d174941735,Coworking Space,
8,"[{'id': '4bf58dd8d48988d174941735', 'name': 'Coworking Space', 'pluralName': 'Coworking Spaces', 'shortName': 'Coworking Space', 'icon': {'prefix': 'https://ss3.4sqi.net/img/categories_v2/building/office_coworkingspace_', 'suffix': '.png'}, 'primary': True}]",,FR,,France,504f0f2ae4b0be6c6188db6d,43.53563414284083,5.469039326292055,CPCV Méditerranée,13100,4bf58dd8d48988d174941735,Coworking Space,Provence-Alpes-Côte d'Azur
9,"[{'id': '4bf58dd8d48988d174941735', 'name': 'Coworking Space', 'pluralName': 'Coworking Spaces', 'shortName': 'Coworking Space', 'icon': {'prefix': 'https://ss3.4sqi.net/img/categories_v2/building/office_coworkingspace_', 'suffix': '.png'}, 'primary': True}]",,FR,,France,4d9dc2927865a09324ccee7a,43.51462965,5.4322477,Pôle Microsoft d'Euriware,13097,4bf58dd8d48988d174941735,Coworking Space,Provence-Alpes-Côte d'Azur
10,"[{'id': '4bf58dd8d48988d174941735', 'name': 'Coworking Space', 'pluralName': 'Coworking Spaces', 'shortName': 'Coworking Space', 'icon': {'prefix': 'https://ss3.4sqi.net/img/categories_v2/building/office_coworkingspace_', 'suffix': '.png'}, 'primary': True}]",,FR,,France,502e58aae4b0dea801fb6431,43.52646918992725,5.446380798838219,Chambre de commerce et d'indusitre,,4bf58dd8d48988d174941735,Coworking Space,
11,"[{'id': '4bf58dd8d48988d174941735', 'name': 'Coworking Space', 'pluralName': 'Coworking Spaces', 'shortName': 'Coworking Space', 'icon': {'prefix': 'https://ss3.4sqi.net/img/categories_v2/building/office_coworkingspace_', 'suffix': '.png'}, 'primary': True}]",,FR,,France,4ed8842b8231efe38d15a300,43.526064987805654,5.435399996306993,Orange Studio,,4bf58dd8d48988d174941735,Coworking Space,Provence-Alpes-Côte d'Azur
12,"[{'id': '4bf58dd8d48988d11a941735', 'name': 'Other Nightlife', 'pluralName': 'Other Nightlife', 'shortName': 'Nightlife', 'icon': {'prefix': 'https://ss3.4sqi.net/img/categories_v2/nightlife/default_', 'suffix': '.png'}, 'primary': True}]",,FR,,France,5bd1fdf1911fc4002cc71f1a,43.528496,5.445393,Double Je,13100,4bf58dd8d48988d11a941735,Other Nightlife,Provence-Alpes-Côte d'Azur
0,"[{'id': '4bf58dd8d48988d174941735', 'name': 'Coworking Space', 'pluralName': 'Coworking Spaces', 'shortName': 'Coworking Space', 'icon': {'prefix': 'https://ss3.4sqi.net/img/categories_v2/building/office_coworkingspace_', 'suffix': '.png'}, 'primary': True}]",,FR,,France,531d92fa498ee395837158e0,43.12010201818438,5.935528151333128,Var Matin,83000,4bf58dd8d48988d174941735,Coworking Space,Provence-Alpes-Côte d'Azur
1,"[{'id': '4bf58dd8d48988d174941735', 'name': 'Coworking Space', 'pluralName': 'Coworking Spaces', 'shortName': 'Coworking Space', 'icon': {'prefix': 'https://ss3.4sqi.net/img/categories_v2/building/office_coworkingspace_', 'suffix': '.png'}, 'primary': True}]",,FR,,France,4f7dec64e4b01995c039360b,43.12020267537583,5.935375080992679,Cre@TVT,83000,4bf58dd8d48988d174941735,Coworking Space,Provence-Alpes-Côte d'Azur
2,"[{'id': '4bf58dd8d48988d12d941735', 'name': 'Monument / Landmark', 'pluralName': 'Monuments / Landmarks', 'shortName': 'Landmark', 'icon': {'prefix': 'https://ss3.4sqi.net/img/categories_v2/building/government_monument_', 'suffix': '.png'}, 'primary': True}]",,FR,,France,53da778d498ee77dffa854a6,43.104611,5.900081,Bouée Laboratoire Bohra II,83500,4bf58dd8d48988d12d941735,Monument / Landmark,
3,"[{'id': '4bf58dd8d48988d174941735', 'name': 'Coworking Space', 'pluralName': 'Coworking Spaces', 'shortName': 'Coworking Space', 'icon': {'prefix': 'https://ss3.4sqi.net/img/categories_v2/building/office_coworkingspace_', 'suffix': '.png'}, 'primary': True}]",,FR,,France,4e1ffcffb0fbdf9ba79a9596,43.111375,5.840872,Agence L'Impressionniste,83140,4bf58dd8d48988d174941735,Coworking Space,Provence-Alpes-Côte d'Azur
4,"[{'id': '4bf58dd8d48988d174941735', 'name': 'Coworking Space', 'pluralName': 'Coworking Spaces', 'shortName': 'Coworking Space', 'icon': {'prefix': 'https://ss3.4sqi.net/img/categories_v2/building/office_coworkingspace_', 'suffix': '.png'}, 'primary': True}]",,FR,,France,4bf101e521072d7f0984208b,43.122643,5.93254,Les Vitrines de Toulon,83000,4bf58dd8d48988d174941735,Coworking Space,Provence-Alpes-Côte
5,"[{'id': '4bf58dd8d48988d174941735', 'name': 'Coworking Space', 'pluralName': 'Coworking Spaces', 'shortName': 'Coworking Space', 'icon': {'prefix': 'https://ss3.4sqi.net/img/categories_v2/building/office_coworkingspace_', 'suffix': '.png'}, 'primary': True}]",,FR,,France,4ff5b98ae4b09036679eb903,43.080280977377605,5.923008626128087,"Capitanerie, Salle Bailli Severine",83430,4bf58dd8d48988d174941735,Coworking Space,Provence-Alpes-Côte d'Azur
6,"[{'id': '4bf58dd8d48988d113951735', 'name': 'Gas Station', 'pluralName': 'Gas Stations', 'shortName': 'Gas Station', 'icon': {'prefix': 'https://ss3.4sqi.net/img/categories_v2/shops/gas_', 'suffix': '.png'}, 'primary': True}]",,FR,,France,502d0203e4b07730f3533324,43.1229771,5.93811519,Total,83000,4bf58dd8d48988d113951735,Gas Station,Provence-Alpes-Côte d'Azur
7,"[{'id': '4bf58dd8d48988d174941735', 'name': 'Coworking Space', 'pluralName': 'Coworking Spaces', 'shortName': 'Coworking Space', 'icon': {'prefix': 'https://ss3.4sqi.net/img/categories_v2/building/office_coworkingspace_', 'suffix': '.png'}, 'primary': True}]",,FR,,France,59249ecf851de52efd8d059a,43.1105,5.8639965,Tour C Berthe,83500,4bf58dd8d48988d174941735,Coworking Space,Provence-Alpes-Côte d'Azur
8,"[{'id': '4bf58dd8d48988d174941735', 'name': 'Coworking Space', 'pluralName': 'Coworking Spaces', 'shortName': 'Coworking Space', 'icon': {'prefix': 'https://ss3.4sqi.net/img/categories_v2/building/office_coworkingspace_', 'suffix': '.png'}, 'primary': True}]",,FR,,France,50c9a36ae4b0b8f947799658,43.12088374898605,5.938728957164197,CoW-Box Room,,4bf58dd8d48988d174941735,Coworking Space,
9,"[{'id': '4bf58dd8d48988d174941735', 'name': 'Coworking Space', 'pluralName': 'Coworking Spaces', 'shortName': 'Coworking Space', 'icon': {'prefix': 'https://ss3.4sqi.net/img/categories_v2/building/office_coworkingspace_', 'suffix': '.png'}, 'primary': True}]",,FR,,France,4dc24c75b0fb490416abd9e4,43.12070208866162,5.938844703027377,Junior ISEN-Toulon,,4bf58dd8d48988d174941735,Coworking Space,Provence-Alpes-Côte d'Azur
10,"[{'id': '4bf58dd8d48988d174941735', 'name': 'Coworking Space', 'pluralName': 'Coworking Spaces', 'shortName': 'Coworking Space', 'icon': {'prefix': 'https://ss3.4sqi.net/img/categories_v2/building/office_coworkingspace_', 'suffix': '.png'}, 'primary': True}]",,FR,,France,56385e0bcd10dca401ebb1ea,43.12141679637289,5.93059741876111,l'Archipel,83000,4bf58dd8d48988d174941735,Coworking Space,Provence-Alpes-Côte d'Azur
0,"[{'id': '4bf58dd8d48988d174941735', 'name': 'Coworking Space', 'pluralName': 'Coworking Spaces', 'shortName': 'Coworking Space', 'icon': {'prefix': 'https://ss3.4sqi.net/img/categories_v2/building/office_coworkingspace_', 'suffix': '.png'}, 'primary': True}]",,FR,,France,50609358e4b0d9a2f2504d82,43.12005882909718,5.9447406007339945,Maison Des Sports,,4bf58dd8d48988d174941735,Coworking Space,
0,"[{'id': '4bf58dd8d48988d113951735', 'name': 'Gas Station', 'pluralName': 'Gas Stations', 'shortName': 'Gas Station', 'icon': {'prefix': 'https://ss3.4sqi.net/img/categories_v2/shops/gas_', 'suffix': '.png'}, 'primary': True}]",,FR,,France,4da1b9332939b1f78aa2fa56,43.39098137,5.25853307,Total,13180,4bf58dd8d48988d113951735,Gas Station,Provence-Alpes-Côte d'Azur
1,"[{'id': '4bf58dd8d48988d174941735', 'name': 'Coworking Space', 'pluralName': 'Coworking Spaces', 'shortName': 'Coworking Space', 'icon': {'prefix': 'https://ss3.4sqi.net/img/categories_v2/building/office_coworkingspace_', 'suffix': '.png'}, 'primary': True}]",,FR,,France,4ef1a21f5c5cd8c3b1897901,43.42148660826049,5.2278629794064315,Centre AECD,,4bf58dd8d48988d174941735,Coworking Space,Provence-Alpes-Côte d'Azur
2,"[{'id': '4bf58dd8d48988d174941735', 'name': 'Coworking Space', 'pluralName': 'Coworking Spaces', 'shortName': 'Coworking Space', 'icon': {'prefix': 'https://ss3.4sqi.net/img/categories_v2/building/office_coworkingspace_', 'suffix': '.png'}, 'primary': True}]",,FR,,France,4edf2db18231abf7c1ef3704,43.4395493994857,5.242001144609249,Manpower,,4bf58dd8d48988d174941735,Coworking Space,Provence-Alpes-Côte d'Azur
3,"[{'id': '4bf58dd8d48988d174941735', 'name': 'Coworking Space', 'pluralName': 'Coworking Spaces', 'shortName': 'Coworking Space', 'icon': {'prefix': 'https://ss3.4sqi.net/img/categories_v2/building/office_coworkingspace_', 'suffix': '.png'}, 'primary': True}]",,FR,,France,4e5cd098b0fb4a6489ad4216,43.437774658203125,5.239508628845215,Géodis Wilson,,4bf58dd8d48988d174941735,Coworking Space,
4,"[{'id': '4bf58dd8d48988d174941735', 'name': 'Coworking Space', 'pluralName': 'Coworking Spaces', 'shortName': 'Coworking Space', 'icon': {'prefix': 'https://ss3.4sqi.net/img/categories_v2/building/office_coworkingspace_', 'suffix': '.png'}, 'primary': True}]",,FR,,France,4f87ecdce4b0e81f6605f0f9,43.418052,5.245905,Akka,,4bf58dd8d48988d174941735,Coworking Space,
5,"[{'id': '4bf58dd8d48988d174941735', 'name': 'Coworking Space', 'pluralName': 'Coworking Spaces', 'shortName': 'Coworking Space', 'icon': {'prefix': 'https://ss3.4sqi.net/img/categories_v2/building/office_coworkingspace_', 'suffix': '.png'}, 'primary': True}]",,FR,,France,5003b70ee4b0cad5177da64b,43.428901,5.26219,Facility,,4bf58dd8d48988d174941735,Coworking Space,
6,"[{'id': '4bf58dd8d48988d174941735', 'name': 'Coworking Space', 'pluralName': 'Coworking Spaces', 'shortName': 'Coworking Space', 'icon': {'prefix': 'https://ss3.4sqi.net/img/categories_v2/building/office_coworkingspace_', 'suffix': '.png'}, 'primary': True}]",,FR,,France,4e82e437f7906364bad90c94,43.44503566399902,5.234075140833468,Extelia,,4bf58dd8d48988d174941735,Coworking Space,Provence-Alpes-Côte d'Azur
0,"[{'id': '4bf58dd8d48988d113951735', 'name': 'Gas Station', 'pluralName': 'Gas Stations', 'shortName': 'Gas Station', 'icon': {'prefix': 'https://ss3.4sqi.net/img/categories_v2/shops/gas_', 'suffix': '.png'}, 'primary': True}]",,FR,,France,51e0cd6c498ef82705878006,43.61946885,5.09631378,Total,13300,4bf58dd8d48988d113951735,Gas Station,Provence-Alpes-Côte d'Azur
1,"[{'id': '4bf58dd8d48988d113951735', 'name': 'Gas Station', 'pluralName': 'Gas Stations', 'shortName': 'Gas Station', 'icon': {'prefix': 'https://ss3.4sqi.net/img/categories_v2/shops/gas_', 'suffix': '.png'}, 'primary': True}]",,FR,,France,4ec7d410d3e3e131f2a214fd,43.63249271,5.09826639,Total,13300,4bf58dd8d48988d113951735,Gas Station,Provence-Alpes-Côte d'Azur
2,"[{'id': '4bf58dd8d48988d174941735', 'name': 'Coworking Space', 'pluralName': 'Coworking Spaces', 'shortName': 'Coworking Space', 'icon': {'prefix': 'https://ss3.4sqi.net/img/categories_v2/building/office_coworkingspace_', 'suffix': '.png'}, 'primary': True}]",,FR,,France,50fd57b6e4b07b8338173b7e,43.6281852722168,5.121735095977783,Espace Millénium,,4bf58dd8d48988d174941735,Coworking Space,
0,"[{'id': '4bf58dd8d48988d174941735', 'name': 'Coworking Space', 'pluralName': 'Coworking Spaces', 'shortName': 'Coworking Space', 'icon': {'prefix': 'https://ss3.4sqi.net/img/categories_v2/building/office_coworkingspace_', 'suffix': '.png'}, 'primary': True}]",,FR,,France,50658a64e4b084f8df247c0e,43.295413970947266,5.559573173522949,Centre d'examen du permis B,13400,4bf58dd8d48988d174941735,Coworking Space,Provence-Alpes-Côte d'Azur
1,"[{'id': '4bf58dd8d48988d174941735', 'name': 'Coworking Space', 'pluralName': 'Coworking Spaces', 'shortName': 'Coworking Space', 'icon': {'prefix': 'https://ss3.4sqi.net/img/categories_v2/building/office_coworkingspace_', 'suffix': '.png'}, 'primary': True}]",,FR,,France,4e733bbcd22d2fd31430f684,43.2803,5.614392,Pages Jaunes Gemenos,,4bf58dd8d48988d174941735,Coworking Space,Provence-Alpes-Côte d'Azur
2,"[{'id': '4bf58dd8d48988d174941735', 'name': 'Coworking Space', 'pluralName': 'Coworking Spaces', 'shortName': 'Coworking Space', 'icon': {'prefix': 'https://ss3.4sqi.net/img/categories_v2/building/office_coworkingspace_', 'suffix': '.png'}, 'primary': True}]",,FR,,France,52d94878498e0374fb7c918e,43.317129,5.583838,La ferme de Napollon,,4bf58dd8d48988d174941735,Coworking Space,
0,"[{'id': '4bf58dd8d48988d174941735', 'name': 'Coworking Space', 'pluralName': 'Coworking Spaces', 'shortName': 'Coworking Space', 'icon': {'prefix': 'https://ss3.4sqi.net/img/categories_v2/building/office_coworkingspace_', 'suffix': '.png'}, 'primary': True}]",,FR,,France,4ca08db22fb1a143ae11fd40,43.511085755544144,5.215694919078069,Le taf,13340,4bf58dd8d48988d174941735,Coworking Space,Provence-Alpes-Côte d'Azur
27,"[{'id': '4bf58dd8d48988d174941735', 'name': 'Coworking Space', 'pluralName': 'Coworking Spaces', 'shortName': 'Coworking Space', 'icon': {'prefix': 'https://ss3.4sqi.net/img/categories_v2/building/office_coworkingspace_', 'suffix': '.png'}, 'primary': True}]",,FR,,France,5114b858e4b0a6091311db3c,43.342258,5.358413,Randstad,13015,4bf58dd8d48988d174941735,Coworking Space,Provence-Alpes-Côte d'Azur
0,"[{'id': '4bf58dd8d48988d174941735', 'name': 'Coworking Space', 'pluralName': 'Coworking Spaces', 'shortName': 'Coworking Space', 'icon': {'prefix': 'https://ss3.4sqi.net/img/categories_v2/building/office_coworkingspace_', 'suffix': '.png'}, 'primary': True}]",,FR,,France,4faa1da0e4b0110a9fc481e0,43.331163,5.48652,Laphal Industrie,,4bf58dd8d48988d174941735,Coworking Space,
1,"[{'id': '4bf58dd8d48988d174941735', 'name': 'Coworking Space', 'pluralName': 'Coworking Spaces', 'shortName': 'Coworking Space', 'icon': {'prefix': 'https://ss3.4sqi.net/img/categories_v2/building/office_coworkingspace_', 'suffix': '.png'}, 'primary': True}]",,FR,,France,52d3cbd0498e8eb7c35eb1ee,43.30628831880031,5.441669832415408,I.C.E.,13012,4bf58dd8d48988d174941735,Coworking Space,PACA
2,"[{'id': '4bf58dd8d48988d174941735', 'name': 'Coworking Space', 'pluralName': 'Coworking Spaces', 'shortName': 'Coworking Space', 'icon': {'prefix': 'https://ss3.4sqi.net/img/categories_v2/building/office_coworkingspace_', 'suffix': '.png'}, 'primary': True}]",,FR,,France,532ae2dc498ef42e5ba4e253,43.291873931884766,5.472968578338623,Pagesjaunes,,4bf58dd8d48988d174941735,Coworking Space,
3,"[{'id': '4bf58dd8d48988d174941735', 'name': 'Coworking Space', 'pluralName': 'Coworking Spaces', 'shortName': 'Coworking Space', 'icon': {'prefix': 'https://ss3.4sqi.net/img/categories_v2/building/office_coworkingspace_', 'suffix': '.png'}, 'primary': True}]",,FR,,France,4eb6b29d5c5c5a53208c01af,43.335006,5.450611,ERA LA BASTIDE,13013,4bf58dd8d48988d174941735,Coworking Space,Provence-Alpes-Côte d'Azur
5,"[{'id': '4bf58dd8d48988d174941735', 'name': 'Coworking Space', 'pluralName': 'Coworking Spaces', 'shortName': 'Coworking Space', 'icon': {'prefix': 'https://ss3.4sqi.net/img/categories_v2/building/office_coworkingspace_', 'suffix': '.png'}, 'primary': True}]",,FR,,France,4c7d6d7bd65437048459c0a2,43.29292,5.4511,Projectis Arpege,13011,4bf58dd8d48988d174941735,Coworking Space,Provence-Alpes-Côte
0,"[{'id': '52e81612bcbc57f1066b7a38', 'name': 'Town Hall', 'pluralName': 'Town Halls', 'shortName': 'Town Hall', 'icon': {'prefix': 'https://ss3.4sqi.net/img/categories_v2/building/cityhall_', 'suffix': '.png'}, 'primary': True}]",,FR,,France,546db05e498e1597e840e5df,43.467888272301664,4.935059180066622,Le domaine de la Meriquette,,52e81612bcbc57f1066b7a38,Town Hall,
0,"[{'id': '4bf58dd8d48988d113951735', 'name': 'Gas Station', 'pluralName': 'Gas Stations', 'shortName': 'Gas Station', 'icon': {'prefix': 'https://ss3.4sqi.net/img/categories_v2/shops/gas_', 'suffix': '.png'}, 'primary': True}]",,FR,,France,4e0dafb5fa76d62f4440adfd,43.46553893,5.60654394,Total,13710,4bf58dd8d48988d113951735,Gas Station,Provence-Alpes-Côte d'Azur
1,"[{'id': '4bf58dd8d48988d174941735', 'name': 'Coworking Space', 'pluralName': 'Coworking Spaces', 'shortName': 'Coworking Space', 'icon': {'prefix': 'https://ss3.4sqi.net/img/categories_v2/building/office_coworkingspace_', 'suffix': '.png'}, 'primary': True}]",,FR,,France,4cc641831e596dcbf884dd67,43.46628225613156,5.607961787539442,Lidl,13790,4bf58dd8d48988d174941735,Coworking Space,Provence-Alpes-Côte d'Azur
2,"[{'id': '4bf58dd8d48988d174941735', 'name': 'Coworking Space', 'pluralName': 'Coworking Spaces', 'shortName': 'Coworking Space', 'icon': {'prefix': 'https://ss3.4sqi.net/img/categories_v2/building/office_coworkingspace_', 'suffix': '.png'}, 'primary': True}]",,FR,,France,4e9e8a586da161b08d9a80db,43.472797332391835,5.610266765220384,@work,13790,4bf58dd8d48988d174941735,Coworking Space,Provence-Alpes-Côte d'Azur
3,"[{'id': '4bf58dd8d48988d174941735', 'name': 'Coworking Space', 'pluralName': 'Coworking Spaces', 'shortName': 'Coworking Space', 'icon': {'prefix': 'https://ss3.4sqi.net/img/categories_v2/building/office_coworkingspace_', 'suffix': '.png'}, 'primary': True}]",,FR,,France,4ba1d91df964a520f3ce37e3,43.46634475742652,5.609078407287598,Dreamnex,,4bf58dd8d48988d174941735,Coworking Space,
0,"[{'id': '4bf58dd8d48988d174941735', 'name': 'Coworking Space', 'pluralName': 'Coworking Spaces', 'shortName': 'Coworking Space', 'icon': {'prefix': 'https://ss3.4sqi.net/img/categories_v2/building/office_coworkingspace_', 'suffix': '.png'}, 'primary': True}]",,FR,,France,515c1914e4b0acd920e7b741,43.364651,5.334787,Agence ETIC,,4bf58dd8d48988d174941735,Coworking Space,
1,"[{'id': '4bf58dd8d48988d174941735', 'name': 'Coworking Space', 'pluralName': 'Coworking Spaces', 'shortName': 'Coworking Space', 'icon': {'prefix': 'https://ss3.4sqi.net/img/categories_v2/building/office_coworkingspace_', 'suffix': '.png'}, 'primary': True}]",,FR,,France,4d9c8f12c540236a8f387b4b,43.358994,5.335074,Bureau De Sabish',,4bf58dd8d48988d174941735,Coworking Space,
2,"[{'id': '4bf58dd8d48988d174941735', 'name': 'Coworking Space', 'pluralName': 'Coworking Spaces', 'shortName': 'Coworking Space', 'icon': {'prefix': 'https://ss3.4sqi.net/img/categories_v2/building/office_coworkingspace_', 'suffix': '.png'}, 'primary': True}]",,FR,,France,4dfb2e2c52b145696e35ca62,43.36477112638338,5.332766318354253,Etic,,4bf58dd8d48988d174941735,Coworking Space,PACA
3,"[{'id': '4bf58dd8d48988d174941735', 'name': 'Coworking Space', 'pluralName': 'Coworking Spaces', 'shortName': 'Coworking Space', 'icon': {'prefix': 'https://ss3.4sqi.net/img/categories_v2/building/office_coworkingspace_', 'suffix': '.png'}, 'primary': True}]",,FR,,France,4d78eddadb7c54816a8038f2,43.3587206480744,5.335325090498227,Klarté,13016,4bf58dd8d48988d174941735,Coworking Space,Provence-Alpes-Côte d'Azur
4,"[{'id': '4bf58dd8d48988d174941735', 'name': 'Coworking Space', 'pluralName': 'Coworking Spaces', 'shortName': 'Coworking Space', 'icon': {'prefix': 'https://ss3.4sqi.net/img/categories_v2/building/office_coworkingspace_', 'suffix': '.png'}, 'primary': True}]",,FR,,France,4d874fc102eb548130d067f5,43.359044,5.335093,Perfeo Prod,13016,4bf58dd8d48988d174941735,Coworking Space,Provence-Alpes-Côte d'Azur
5,"[{'id': '4bf58dd8d48988d174941735', 'name': 'Coworking Space', 'pluralName': 'Coworking Spaces', 'shortName': 'Coworking Space', 'icon': {'prefix': 'https://ss3.4sqi.net/img/categories_v2/building/office_coworkingspace_', 'suffix': '.png'}, 'primary': True}]",,FR,,France,4cb810acbac93704b49ed97c,43.35888671150526,5.335083178491644,La Bastide de la Com',13016,4bf58dd8d48988d174941735,Coworking Space,Provence-Alpes-Côte d'Azur
6,"[{'id': '4bf58dd8d48988d174941735', 'name': 'Coworking Space', 'pluralName': 'Coworking Spaces', 'shortName': 'Coworking Space', 'icon': {'prefix': 'https://ss3.4sqi.net/img/categories_v2/building/office_coworkingspace_', 'suffix': '.png'}, 'primary': True}]",,FR,,France,4d79e21a1bf03704c52ed8d5,43.3587996,5.335114,Treize Productions,13016,4bf58dd8d48988d174941735,Coworking Space,Provence-Alpes-Côte d'Azur
7,"[{'id': '4bf58dd8d48988d174941735', 'name': 'Coworking Space', 'pluralName': 'Coworking Spaces', 'shortName': 'Coworking Space', 'icon': {'prefix': 'https://ss3.4sqi.net/img/categories_v2/building/office_coworkingspace_', 'suffix': '.png'}, 'primary': True}]",,FR,,France,4d78ed10db7c54817b7238f2,43.358813,5.335097,13 Productions,13016,4bf58dd8d48988d174941735,Coworking Space,Provence-Alpes-Côte d'Azur
0,"[{'id': '4bf58dd8d48988d113951735', 'name': 'Gas Station', 'pluralName': 'Gas Stations', 'shortName': 'Gas Station', 'icon': {'prefix': 'https://ss3.4sqi.net/img/categories_v2/shops/gas_', 'suffix': '.png'}, 'primary': True}]",,FR,,France,59a1cfe34c954c5afe39cc46,43.18136795,5.6975707,Total,83270,4bf58dd8d48988d113951735,Gas Station,Provence-Alpes-Côte d'Azur
0,"[{'id': '4bf58dd8d48988d174941735', 'name': 'Coworking Space', 'pluralName': 'Coworking Spaces', 'shortName': 'Coworking Space', 'icon': {'prefix': 'https://ss3.4sqi.net/img/categories_v2/building/office_coworkingspace_', 'suffix': '.png'}, 'primary': True}]",,FR,,France,538d68c8498ed4e0c93bc153,43.590287,5.47594,EasyDevisPro,,4bf58dd8d48988d174941735,Coworking Space,
0,"[{'id': '4bf58dd8d48988d113951735', 'name': 'Gas Station', 'pluralName': 'Gas Stations', 'shortName': 'Gas Station', 'icon': {'prefix': 'https://ss3.4sqi.net/img/categories_v2/shops/gas_', 'suffix': '.png'}, 'primary': True}]",,FR,,France,59a140db5c68387308466e21,43.72133106,5.54205017,Total,84240,4bf58dd8d48988d113951735,Gas Station,Provence-Alpes-Côte d'Azur
1,"[{'id': '4bf58dd8d48988d174941735', 'name': 'Coworking Space', 'pluralName': 'Coworking Spaces', 'shortName': 'Coworking Space', 'icon': {'prefix': 'https://ss3.4sqi.net/img/categories_v2/building/office_coworkingspace_', 'suffix': '.png'}, 'primary': True}]",,FR,,France,4d8c4c99376fa1cd6f7a4870,43.675104,5.481029,Pepiniere d'entreprise,84120,4bf58dd8d48988d174941735,Coworking Space,Provence-Alpes-Côte d'Azur
0,"[{'id': '4bf58dd8d48988d174941735', 'name': 'Coworking Space', 'pluralName': 'Coworking Spaces', 'shortName': 'Coworking Space', 'icon': {'prefix': 'https://ss3.4sqi.net/img/categories_v2/building/office_coworkingspace_', 'suffix': '.png'}, 'primary': True}]",,FR,,France,513ef17de4b015efa0fb470e,43.581855643339814,4.998834749155154,Clé Sud,13140,4bf58dd8d48988d174941735,Coworking Space,Provence-Alpes-Côte d'Azur
0,"[{'id': '4bf58dd8d48988d174941735', 'name': 'Coworking Space', 'pluralName': 'Coworking Spaces', 'shortName': 'Coworking Space', 'icon': {'prefix': 'https://ss3.4sqi.net/img/categories_v2/building/office_coworkingspace_', 'suffix': '.png'}, 'primary': True}]",,FR,,France,4f35924de4b0b9c4655e4f25,43.46920477647147,5.457726872752491,Scolamania,13120,4bf58dd8d48988d174941735,Coworking Space,Provence-Alpes-Côte d'Azur
1,"[{'id': '4bf58dd8d48988d174941735', 'name': 'Coworking Space', 'pluralName': 'Coworking Spaces', 'shortName': 'Coworking Space', 'icon': {'prefix': 'https://ss3.4sqi.net/img/categories_v2/building/office_coworkingspace_', 'suffix': '.png'}, 'primary': True}]",,FR,,France,4f1fc77ce4b057da8c248593,43.47224592927775,5.490552046026758,Pépinière D Entreprises Innovantes,13590,4bf58dd8d48988d174941735,Coworking Space,Provence-Alpes-Côte d'Azur
6,"[{'id': '4bf58dd8d48988d174941735', 'name': 'Coworking Space', 'pluralName': 'Coworking Spaces', 'shortName': 'Coworking Space', 'icon': {'prefix': 'https://ss3.4sqi.net/img/categories_v2/building/office_coworkingspace_', 'suffix': '.png'}, 'primary': True}]",,FR,,France,4fc49263e4b00f7de6a78747,43.353823,5.337666,Société Aria,,4bf58dd8d48988d174941735,Coworking Space,
8,"[{'id': '4bf58dd8d48988d174941735', 'name': 'Coworking Space', 'pluralName': 'Coworking Spaces', 'shortName': 'Coworking Space', 'icon': {'prefix': 'https://ss3.4sqi.net/img/categories_v2/building/office_coworkingspace_', 'suffix': '.png'}, 'primary': True}]",,FR,,France,4eb9479b61af0dda91f860fe,43.34711938239995,5.3459137934760905,Protec Métaux d'Arenc,,4bf58dd8d48988d174941735,Coworking Space,Provence-Alpes-Côte d'Azur
2,"[{'id': '4bf58dd8d48988d174941735', 'name': 'Coworking Space', 'pluralName': 'Coworking Spaces', 'shortName': 'Coworking Space', 'icon': {'prefix': 'https://ss3.4sqi.net/img/categories_v2/building/office_coworkingspace_', 'suffix': '.png'}, 'primary': True}]",,FR,,France,576b8ef4498e7207e1291f0e,43.1036266812467,5.812424719333649,Pieds-Noirs d'hier et d'aujourd'hui,83140,4bf58dd8d48988d174941735,Coworking Space,Provence-Alpes-Côte d'Azur
