,categories,categoriesList,cc,city,country,id,lat,lng,name,postalCode,primary_category_id,primary_category_name,state
0,"[{'id': '4bf58dd8d48988d125941735', 'name': 'Tech Startup', 'pluralName': 'Tech Startups', 'shortName': 'Tech Startup', 'icon': {'prefix': 'https://ss3.4sqi.net/img/categories_v2/shops/technology_', 'suffix': '.png'}, 'primary': True}]",,FR,,France,51e9100d498e5868804f0261,43.70347621186536,7.260030938638654,Qwant,,4bf58dd8d48988d125941735,Tech Startup,
1,"[{'id': '4bf58dd8d48988d125941735', 'name': 'Tech Startup', 'pluralName': 'Tech Startups', 'shortName': 'Tech Startup', 'icon': {'prefix': 'https://ss3.4sqi.net/img/categories_v2/shops/technology_', 'suffix': '.png'}, 'primary': True}]",,FR,,France,4fe4297f4fc6bb410d1cf2f9,43.711983020582394,7.25398063659668,Enterprise AB,06100,4bf58dd8d48988d125941735,Tech Startup,Provence-Alpes-Côte d'Azur
2,"[{'id': '4bf58dd8d48988d125941735', 'name': 'Tech Startup', 'pluralName': 'Tech Startups', 'shortName': 'Tech Startup', 'icon': {'prefix': 'https://ss3.4sqi.net/img/categories_v2/shops/technology_', 'suffix': '.png'}, 'primary': True}]",,FR,,France,4d2deceeda7cb60c3f2c6bd4,43.7043681763549,7.266776103130914,The Apps Factory,06000,4bf58dd8d48988d125941735,Tech Startup,Provence-Alpes-Côte d'Azur
3,"[{'id': '4bf58dd8d48988d125941735', 'name': 'Tech Startup', 'pluralName': 'Tech Startups', 'shortName': 'Tech Startup', 'icon': {'prefix': 'https://ss3.4sqi.net/img/categories_v2/shops/technology_', 'suffix': '.png'}, 'primary': True}]",,FR,,France,50213336e4b0432e8ace55ac,43.700737,7.287678,Tokidev,,4bf58dd8d48988d125941735,Tech Startup,
4,"[{'id': '4bf58dd8d48988d125941735', 'name': 'Tech Startup', 'pluralName': 'Tech Startups', 'shortName': 'Tech Startup', 'icon': {'prefix': 'https://ss3.4sqi.net/img/categories_v2/shops/technology_', 'suffix': '.png'}, 'primary': True}]",,FR,,France,5007f59ee4b05378761eeefc,43.703575134277344,7.268657207489014,Tycoon Informatique,06000,4bf58dd8d48988d125941735,Tech Startup,Provence-Alpes-Côte d'Azur
5,"[{'id': '4bf58dd8d48988d125941735', 'name': 'Tech Startup', 'pluralName': 'Tech Startups', 'shortName': 'Tech Startup', 'icon': {'prefix': 'https://ss3.4sqi.net/img/categories_v2/shops/technology_', 'suffix': '.png'}, 'primary': True}]",,FR,,France,4f85c3c1e4b013f9e676d824,43.701003134173796,7.2875399153733635,Snap'n See,06300,4bf58dd8d48988d125941735,Tech Startup,Provence-Alpes-Côte d'Azur
6,"[{'id': '4bf58dd8d48988d125941735', 'name': 'Tech Startup', 'pluralName': 'Tech Startups', 'shortName': 'Tech Startup', 'icon': {'prefix': 'https://ss3.4sqi.net/img/categories_v2/shops/technology_', 'suffix': '.png'}, 'primary': True}]",,FR,,France,51908ce3498e739d0dc04ef6,43.71007984909457,7.25695459137996,Kwileo,06000,4bf58dd8d48988d125941735,Tech Startup,Paca
7,"[{'id': '4bf58dd8d48988d125941735', 'name': 'Tech Startup', 'pluralName': 'Tech Startups', 'shortName': 'Tech Startup', 'icon': {'prefix': 'https://ss3.4sqi.net/img/categories_v2/shops/technology_', 'suffix': '.png'}, 'primary': True}]",,FR,,France,4f7176cbe4b0bd86bebcd0ab,43.7006047926346,7.265904833140222,La Noosphère,,4bf58dd8d48988d125941735,Tech Startup,Provence-Alpes-Côte d'Azur
8,"[{'id': '4bf58dd8d48988d125941735', 'name': 'Tech Startup', 'pluralName': 'Tech Startups', 'shortName': 'Tech Startup', 'icon': {'prefix': 'https://ss3.4sqi.net/img/categories_v2/shops/technology_', 'suffix': '.png'}, 'primary': True}]",,FR,,France,582c9fcc70fc427af847381d,43.699636,7.268394,Freelabster,,4bf58dd8d48988d125941735,Tech Startup,
9,"[{'id': '4bf58dd8d48988d125941735', 'name': 'Tech Startup', 'pluralName': 'Tech Startups', 'shortName': 'Tech Startup', 'icon': {'prefix': 'https://ss3.4sqi.net/img/categories_v2/shops/technology_', 'suffix': '.png'}, 'primary': True}]",,FR,,France,4ee8f7e29a52792fdd223c83,43.703104486475034,7.2815376734268,Shoutcaster.fr - Headquarters,06300,4bf58dd8d48988d125941735,Tech Startup,Provence-Alpes-Côte d'Azur
10,"[{'id': '4bf58dd8d48988d125941735', 'name': 'Tech Startup', 'pluralName': 'Tech Startups', 'shortName': 'Tech Startup', 'icon': {'prefix': 'https://ss3.4sqi.net/img/categories_v2/shops/technology_', 'suffix': '.png'}, 'primary': True}]",,FR,,France,4ff5b79ce4b0e8d00ce70267,43.708735,7.297473,netAliance,06300,4bf58dd8d48988d125941735,Tech Startup,Provence-Alpes-Côte d'Azur
11,"[{'id': '4bf58dd8d48988d125941735', 'name': 'Tech Startup', 'pluralName': 'Tech Startups', 'shortName': 'Tech Startup', 'icon': {'prefix': 'https://ss3.4sqi.net/img/categories_v2/shops/technology_', 'suffix': '.png'}, 'primary': True}]",,FR,,France,4bf67e2292d195211acf591f,43.700238,7.270377,Refasso,06000,4bf58dd8d48988d125941735,Tech Startup,Provence-Alpes-Côte d'Azur
12,"[{'id': '4bf58dd8d48988d125941735', 'name': 'Tech Startup', 'pluralName': 'Tech Startups', 'shortName': 'Tech Startup', 'icon': {'prefix': 'https://ss3.4sqi.net/img/categories_v2/shops/technology_', 'suffix': '.png'}, 'primary': True}]",,FR,,France,4bb147c0f964a5203b893ce3,43.70127734880349,7.279789510379808,Tequilarapido,06200,4bf58dd8d48988d125941735,Tech Startup,Provence-Alpes-Côte d'Azur
13,"[{'id': '4bf58dd8d48988d125941735', 'name': 'Tech Startup', 'pluralName': 'Tech Startups', 'shortName': 'Tech Startup', 'icon': {'prefix': 'https://ss3.4sqi.net/img/categories_v2/shops/technology_', 'suffix': '.png'}, 'primary': True}]",,FR,,France,4fbce43ee4b00b8de0d5d647,43.7009962707313,7.246520286078851,Nightspender,06000,4bf58dd8d48988d125941735,Tech Startup,Provence-Alpes-Côte d'Azur
14,"[{'id': '4bf58dd8d48988d125941735', 'name': 'Tech Startup', 'pluralName': 'Tech Startups', 'shortName': 'Tech Startup', 'icon': {'prefix': 'https://ss3.4sqi.net/img/categories_v2/shops/technology_', 'suffix': '.png'}, 'primary': True}]",,FR,,France,515933d1e4b0172c3d174f11,43.69425236441406,7.288355827331543,C.Koya Development - Nice,06300,4bf58dd8d48988d125941735,Tech Startup,Provence-Alpes-Côte d'Azur
15,"[{'id': '4bf58dd8d48988d125941735', 'name': 'Tech Startup', 'pluralName': 'Tech Startups', 'shortName': 'Tech Startup', 'icon': {'prefix': 'https://ss3.4sqi.net/img/categories_v2/shops/technology_', 'suffix': '.png'}, 'primary': True}]",,FR,,France,4ec3a1de8b8132e0832f97f0,43.699665401543236,7.258634976030249,StickArts,,4bf58dd8d48988d125941735,Tech Startup,Provence-Alpes-Côte d'Azur
16,"[{'id': '4bf58dd8d48988d125941735', 'name': 'Tech Startup', 'pluralName': 'Tech Startups', 'shortName': 'Tech Startup', 'icon': {'prefix': 'https://ss3.4sqi.net/img/categories_v2/shops/technology_', 'suffix': '.png'}, 'primary': True}]",,FR,,France,4f2685efe4b0b653a596ad6d,43.70212793276715,7.267232456708224,Cd Media,06000,4bf58dd8d48988d125941735,Tech Startup,Provence-Alpes-Côte d'Azur
17,"[{'id': '4bf58dd8d48988d125941735', 'name': 'Tech Startup', 'pluralName': 'Tech Startups', 'shortName': 'Tech Startup', 'icon': {'prefix': 'https://ss3.4sqi.net/img/categories_v2/shops/technology_', 'suffix': '.png'}, 'primary': True}]",,FR,,France,54227e30498e2920dbdd5edd,43.70873356840174,7.257124185562134,eMaginance,06000,4bf58dd8d48988d125941735,Tech Startup,Provence-Alpes-Côte d'Azur
18,"[{'id': '4bf58dd8d48988d125941735', 'name': 'Tech Startup', 'pluralName': 'Tech Startups', 'shortName': 'Tech Startup', 'icon': {'prefix': 'https://ss3.4sqi.net/img/categories_v2/shops/technology_', 'suffix': '.png'}, 'primary': True}]",,FR,,France,4e35a03352b17fb1c60a12dd,43.698002081119775,7.269803484648248,Agence SiluKo,06000,4bf58dd8d48988d125941735,Tech Startup,Provence-Alpes-Côte d'Azur
19,"[{'id': '4bf58dd8d48988d125941735', 'name': 'Tech Startup', 'pluralName': 'Tech Startups', 'shortName': 'Tech Startup', 'icon': {'prefix': 'https://ss3.4sqi.net/img/categories_v2/shops/technology_', 'suffix': '.png'}, 'primary': True}]",,FR,,France,534de674498e9a2c40921f3c,43.712546492399554,7.2823333746409835,Riviera Inside,06000,4bf58dd8d48988d125941735,Tech Startup,Provence-Alpes-Côte d'Azur
20,"[{'id': '4bf58dd8d48988d125941735', 'name': 'Tech Startup', 'pluralName': 'Tech Startups', 'shortName': 'Tech Startup', 'icon': {'prefix': 'https://ss3.4sqi.net/img/categories_v2/shops/technology_', 'suffix': '.png'}, 'primary': True}]",,FR,,France,4ff815a8e4b036acfb2f10e6,43.699499,7.283708,Le Studio,,4bf58dd8d48988d125941735,Tech Startup,
0,"[{'id': '4bf58dd8d48988d125941735', 'name': 'Tech Startup', 'pluralName': 'Tech Startups', 'shortName': 'Tech Startup', 'icon': {'prefix': 'https://ss3.4sqi.net/img/categories_v2/shops/technology_', 'suffix': '.png'}, 'primary': True}]",,FR,,France,51e3f606498e7b1ec8b0db37,43.55308080826934,7.0196796118673745,ANET International Group (A.I.G. S.A.S.),06400,4bf58dd8d48988d125941735,Tech Startup,Provence-Alpes-Côte d'Azur
1,"[{'id': '4bf58dd8d48988d125941735', 'name': 'Tech Startup', 'pluralName': 'Tech Startups', 'shortName': 'Tech Startup', 'icon': {'prefix': 'https://ss3.4sqi.net/img/categories_v2/shops/technology_', 'suffix': '.png'}, 'primary': True}]",,FR,,France,4fb38947e4b00cf2a9a8a782,43.551235,7.023053,PopSugar HQ Cannes,,4bf58dd8d48988d125941735,Tech Startup,
2,"[{'id': '4bf58dd8d48988d125941735', 'name': 'Tech Startup', 'pluralName': 'Tech Startups', 'shortName': 'Tech Startup', 'icon': {'prefix': 'https://ss3.4sqi.net/img/categories_v2/shops/technology_', 'suffix': '.png'}, 'primary': True}]",,FR,,France,530b27d2498ec735f3a6b05d,43.555965423583984,6.952767372131348,CréaCannes,06400,4bf58dd8d48988d125941735,Tech Startup,Provence-Alpes-Côte d'Azur
3,"[{'id': '4bf58dd8d48988d125941735', 'name': 'Tech Startup', 'pluralName': 'Tech Startups', 'shortName': 'Tech Startup', 'icon': {'prefix': 'https://ss3.4sqi.net/img/categories_v2/shops/technology_', 'suffix': '.png'}, 'primary': True}]",,FR,,France,52eca97711d22353e5bc3860,43.55074,7.028085,www.beatswitch.com # MIDEM,,4bf58dd8d48988d125941735,Tech Startup,
4,"[{'id': '4bf58dd8d48988d125941735', 'name': 'Tech Startup', 'pluralName': 'Tech Startups', 'shortName': 'Tech Startup', 'icon': {'prefix': 'https://ss3.4sqi.net/img/categories_v2/shops/technology_', 'suffix': '.png'}, 'primary': True}]",,FR,,France,52cb481d11d25bc168a84a73,43.560378,7.004767,#Orantiago,,4bf58dd8d48988d125941735,Tech Startup,
5,"[{'id': '4bf58dd8d48988d125941735', 'name': 'Tech Startup', 'pluralName': 'Tech Startups', 'shortName': 'Tech Startup', 'icon': {'prefix': 'https://ss3.4sqi.net/img/categories_v2/shops/technology_', 'suffix': '.png'}, 'primary': True}]",,FR,,France,4fb264b7e4b0ea9c3a9c67cc,43.54876196667147,7.0101377333228925,Yellow Pimento Pictures FIF2012,,4bf58dd8d48988d125941735,Tech Startup,
6,"[{'id': '4bf58dd8d48988d125941735', 'name': 'Tech Startup', 'pluralName': 'Tech Startups', 'shortName': 'Tech Startup', 'icon': {'prefix': 'https://ss3.4sqi.net/img/categories_v2/shops/technology_', 'suffix': '.png'}, 'primary': True}]",,FR,,France,5370b4e7498e32f56043aa79,43.55129911154431,7.018414630253882,HootHouse,06400,4bf58dd8d48988d125941735,Tech Startup,PACA
7,"[{'id': '4bf58dd8d48988d125941735', 'name': 'Tech Startup', 'pluralName': 'Tech Startups', 'shortName': 'Tech Startup', 'icon': {'prefix': 'https://ss3.4sqi.net/img/categories_v2/shops/technology_', 'suffix': '.png'}, 'primary': True}]",,FR,,France,50741691e4b04f71219030b5,43.54917394216222,7.011570501851643,DIM Techonologie,06400,4bf58dd8d48988d125941735,Tech Startup,Provence-Alpes-Côte d'Azur
8,"[{'id': '4bf58dd8d48988d125941735', 'name': 'Tech Startup', 'pluralName': 'Tech Startups', 'shortName': 'Tech Startup', 'icon': {'prefix': 'https://ss3.4sqi.net/img/categories_v2/shops/technology_', 'suffix': '.png'}, 'primary': True}]",,FR,,France,4cc456e5306e224bdb889c6c,43.56185382123835,6.998802637392461,First-Site Cannes,06400,4bf58dd8d48988d125941735,Tech Startup,Provence-Alpes-Côte d'Azur
9,"[{'id': '4bf58dd8d48988d125941735', 'name': 'Tech Startup', 'pluralName': 'Tech Startups', 'shortName': 'Tech Startup', 'icon': {'prefix': 'https://ss3.4sqi.net/img/categories_v2/shops/technology_', 'suffix': '.png'}, 'primary': True}]",,FR,,France,514c26f772da9d18ccf0f003,43.552233899104856,7.015178203582764,PLUSDIMMO,06400,4bf58dd8d48988d125941735,Tech Startup,Provence-Alpes-Côte d'Azur
10,"[{'id': '4bf58dd8d48988d125941735', 'name': 'Tech Startup', 'pluralName': 'Tech Startups', 'shortName': 'Tech Startup', 'icon': {'prefix': 'https://ss3.4sqi.net/img/categories_v2/shops/technology_', 'suffix': '.png'}, 'primary': True}]",,FR,,France,4ffd9b51e4b03a7893015b41,43.56874530605563,7.06122221747611,Luxury-Life-Style,,4bf58dd8d48988d125941735,Tech Startup,
11,"[{'id': '4bf58dd8d48988d125941735', 'name': 'Tech Startup', 'pluralName': 'Tech Startups', 'shortName': 'Tech Startup', 'icon': {'prefix': 'https://ss3.4sqi.net/img/categories_v2/shops/technology_', 'suffix': '.png'}, 'primary': True}]",,FR,,France,50446bd4e4b0f30042e1dfe2,43.554460535810826,7.007639647059884,Data Minded,,4bf58dd8d48988d125941735,Tech Startup,Provence-Alpes-Côte d'Azur
12,"[{'id': '4bf58dd8d48988d125941735', 'name': 'Tech Startup', 'pluralName': 'Tech Startups', 'shortName': 'Tech Startup', 'icon': {'prefix': 'https://ss3.4sqi.net/img/categories_v2/shops/technology_', 'suffix': '.png'}, 'primary': True}]",,FR,,France,4f78d27ce4b0f75aef6b9cb2,43.554948,7.018233,Tweek HQ Cannes,,4bf58dd8d48988d125941735,Tech Startup,
13,"[{'id': '4bf58dd8d48988d125941735', 'name': 'Tech Startup', 'pluralName': 'Tech Startups', 'shortName': 'Tech Startup', 'icon': {'prefix': 'https://ss3.4sqi.net/img/categories_v2/shops/technology_', 'suffix': '.png'}, 'primary': True}]",,FR,,France,508793e2498ef4b8bfa69858,43.56755214045097,7.015916231389425,Maxicours.com,,4bf58dd8d48988d125941735,Tech Startup,
14,"[{'id': '4bf58dd8d48988d125941735', 'name': 'Tech Startup', 'pluralName': 'Tech Startups', 'shortName': 'Tech Startup', 'icon': {'prefix': 'https://ss3.4sqi.net/img/categories_v2/shops/technology_', 'suffix': '.png'}, 'primary': True}]",,FR,,France,4b7a6a17f964a520312c2fe3,43.58854124437343,7.04035609960556,ipernity,06250,4bf58dd8d48988d125941735,Tech Startup,Provence-Alpes-Côte d'Azur
15,"[{'id': '4bf58dd8d48988d125941735', 'name': 'Tech Startup', 'pluralName': 'Tech Startups', 'shortName': 'Tech Startup', 'icon': {'prefix': 'https://ss3.4sqi.net/img/categories_v2/shops/technology_', 'suffix': '.png'}, 'primary': True}]",,FR,,France,510d2665e4b0ae0248332486,43.589596,7.000908,Global Electronic,,4bf58dd8d48988d125941735,Tech Startup,
16,"[{'id': '4bf58dd8d48988d125941735', 'name': 'Tech Startup', 'pluralName': 'Tech Startups', 'shortName': 'Tech Startup', 'icon': {'prefix': 'https://ss3.4sqi.net/img/categories_v2/shops/technology_', 'suffix': '.png'}, 'primary': True}]",,FR,,France,5071c251e4b0dc1ac0a2c690,43.5490554110681,7.0322730082274845,VAST MEDIA HQ Cannes,,4bf58dd8d48988d125941735,Tech Startup,Provence-Alpes-Côte d'Azur
17,"[{'id': '4bf58dd8d48988d125941735', 'name': 'Tech Startup', 'pluralName': 'Tech Startups', 'shortName': 'Tech Startup', 'icon': {'prefix': 'https://ss3.4sqi.net/img/categories_v2/shops/technology_', 'suffix': '.png'}, 'primary': True}]",,FR,,France,5221fddb8bbd2dde0b9822e9,43.55201257946674,7.027754584960348,Cannes Informatique,06400,4bf58dd8d48988d125941735,Tech Startup,Provence-Alpes-Côte d'Azur
0,"[{'id': '4bf58dd8d48988d125941735', 'name': 'Tech Startup', 'pluralName': 'Tech Startups', 'shortName': 'Tech Startup', 'icon': {'prefix': 'https://ss3.4sqi.net/img/categories_v2/shops/technology_', 'suffix': '.png'}, 'primary': True}]",,MC,,Monaco,53b11706498e59958f2ef3a3,43.72824203240618,7.413422751697731,Platinium Group,98000,4bf58dd8d48988d125941735,Tech Startup,
1,"[{'id': '4bf58dd8d48988d125941735', 'name': 'Tech Startup', 'pluralName': 'Tech Startups', 'shortName': 'Tech Startup', 'icon': {'prefix': 'https://ss3.4sqi.net/img/categories_v2/shops/technology_', 'suffix': '.png'}, 'primary': True}]",,MC,,Monaco,4e6f454b88779c905de06a48,43.732592,7.425846,Monaco Info,,4bf58dd8d48988d125941735,Tech Startup,
2,"[{'id': '4bf58dd8d48988d125941735', 'name': 'Tech Startup', 'pluralName': 'Tech Startups', 'shortName': 'Tech Startup', 'icon': {'prefix': 'https://ss3.4sqi.net/img/categories_v2/shops/technology_', 'suffix': '.png'}, 'primary': True}]",,MC,,Monaco,4e707c0b1f6ec963adfc188e,43.73756659666533,7.426846907724743,Swiss Re Tent,,4bf58dd8d48988d125941735,Tech Startup,
3,"[{'id': '4bf58dd8d48988d125941735', 'name': 'Tech Startup', 'pluralName': 'Tech Startups', 'shortName': 'Tech Startup', 'icon': {'prefix': 'https://ss3.4sqi.net/img/categories_v2/shops/technology_', 'suffix': '.png'}, 'primary': True}]",,MC,,Monaco,4f7eaa77121dfa83286a3e56,43.74373151826947,7.4285173416137695,Namebay,98000,4bf58dd8d48988d125941735,Tech Startup,
4,"[{'id': '4bf58dd8d48988d125941735', 'name': 'Tech Startup', 'pluralName': 'Tech Startups', 'shortName': 'Tech Startup', 'icon': {'prefix': 'https://ss3.4sqi.net/img/categories_v2/shops/technology_', 'suffix': '.png'}, 'primary': True}]",,MC,,Monaco,51d703d0498e82e78812dcef,43.732692,7.423199,Rs Simulation,98000,4bf58dd8d48988d125941735,Tech Startup,
5,"[{'id': '4bf58dd8d48988d125941735', 'name': 'Tech Startup', 'pluralName': 'Tech Startups', 'shortName': 'Tech Startup', 'icon': {'prefix': 'https://ss3.4sqi.net/img/categories_v2/shops/technology_', 'suffix': '.png'}, 'primary': True}]",,MC,,Monaco,5190d672498e9e7605e975a7,43.7422702413836,7.427206000854934,SBG Monaco,98000,4bf58dd8d48988d125941735,Tech Startup,MC
6,"[{'id': '4bf58dd8d48988d125941735', 'name': 'Tech Startup', 'pluralName': 'Tech Startups', 'shortName': 'Tech Startup', 'icon': {'prefix': 'https://ss3.4sqi.net/img/categories_v2/shops/technology_', 'suffix': '.png'}, 'primary': True}]",,MC,,Monaco,50cb000ee4b04e1f34bb8b0b,43.742818,7.429255,IGroom,,4bf58dd8d48988d125941735,Tech Startup,
7,"[{'id': '4bf58dd8d48988d125941735', 'name': 'Tech Startup', 'pluralName': 'Tech Startups', 'shortName': 'Tech Startup', 'icon': {'prefix': 'https://ss3.4sqi.net/img/categories_v2/shops/technology_', 'suffix': '.png'}, 'primary': True}]",,MC,,Monaco,5134ae7de4b021ede316c5b9,43.736873,7.421511,Monacotelecom,,4bf58dd8d48988d125941735,Tech Startup,
0,"[{'id': '4bf58dd8d48988d125941735', 'name': 'Tech Startup', 'pluralName': 'Tech Startups', 'shortName': 'Tech Startup', 'icon': {'prefix': 'https://ss3.4sqi.net/img/categories_v2/shops/technology_', 'suffix': '.png'}, 'primary': True}]",,FR,,France,4f0efaac7beb46168bb0e7fc,43.57743740305966,7.118625640869141,Agence AGIS,06600,4bf58dd8d48988d125941735,Tech Startup,Provence-Alpes-Côte d'Azur
1,"[{'id': '4bf58dd8d48988d125941735', 'name': 'Tech Startup', 'pluralName': 'Tech Startups', 'shortName': 'Tech Startup', 'icon': {'prefix': 'https://ss3.4sqi.net/img/categories_v2/shops/technology_', 'suffix': '.png'}, 'primary': True}]",,FR,,France,4e524925a809cef5beb4c780,43.606746673583984,7.075263977050781,Azuriel Technologies,06600,4bf58dd8d48988d125941735,Tech Startup,PACA
2,"[{'id': '4bf58dd8d48988d174941735', 'name': 'Coworking Space', 'pluralName': 'Coworking Spaces', 'shortName': 'Coworking Space', 'icon': {'prefix': 'https://ss3.4sqi.net/img/categories_v2/building/office_coworkingspace_', 'suffix': '.png'}, 'primary': True}]",,FR,,France,529307cd498e1383ee7291c6,43.59275663988589,7.117560438086511,Sdi06,06600,4bf58dd8d48988d174941735,Coworking Space,PACA
3,"[{'id': '4bf58dd8d48988d125941735', 'name': 'Tech Startup', 'pluralName': 'Tech Startups', 'shortName': 'Tech Startup', 'icon': {'prefix': 'https://ss3.4sqi.net/img/categories_v2/shops/technology_', 'suffix': '.png'}, 'primary': True}]",,FR,,France,515cbe2de4b0deb133a24da7,43.60375213623047,7.118681907653809,Bysus.fr,06600,4bf58dd8d48988d125941735,Tech Startup,Provence-Alpes-Côte d'Azur
4,"[{'id': '4bf58dd8d48988d125941735', 'name': 'Tech Startup', 'pluralName': 'Tech Startups', 'shortName': 'Tech Startup', 'icon': {'prefix': 'https://ss3.4sqi.net/img/categories_v2/shops/technology_', 'suffix': '.png'}, 'primary': True}]",,FR,,France,4cd31e702561a35df79d2fdd,43.55514,7.12591,2mprod,06160,4bf58dd8d48988d125941735,Tech Startup,Provence-Alpes-Côte d'Azur
0,"[{'id': '4bf58dd8d48988d125941735', 'name': 'Tech Startup', 'pluralName': 'Tech Startups', 'shortName': 'Tech Startup', 'icon': {'prefix': 'https://ss3.4sqi.net/img/categories_v2/shops/technology_', 'suffix': '.png'}, 'primary': True}]",,FR,,France,5144a1e790e730f430066cdc,43.65874427283292,7.000951766967773,YES!Design - Creation site internet,06650,4bf58dd8d48988d125941735,Tech Startup,Provence-Alpes-Côte d'Azur
1,"[{'id': '4bf58dd8d48988d125941735', 'name': 'Tech Startup', 'pluralName': 'Tech Startups', 'shortName': 'Tech Startup', 'icon': {'prefix': 'https://ss3.4sqi.net/img/categories_v2/shops/technology_', 'suffix': '.png'}, 'primary': True}]",,FR,,France,4d7f82a14219a1cd4fc775d3,43.59914026999944,6.932111966123239,Bureaux Athomefrance.com,06580,4bf58dd8d48988d125941735,Tech Startup,Provence-Alpes-Côte d'Azur
2,"[{'id': '4bf58dd8d48988d125941735', 'name': 'Tech Startup', 'pluralName': 'Tech Startups', 'shortName': 'Tech Startup', 'icon': {'prefix': 'https://ss3.4sqi.net/img/categories_v2/shops/technology_', 'suffix': '.png'}, 'primary': True}]",,FR,,France,4c4f01bcdb2c20a1b30b5775,43.612172687624074,7.018047212739999,Trusted Logic Sophia,06250,4bf58dd8d48988d125941735,Tech Startup,Provence-Alpes-Côte
3,"[{'id': '4bf58dd8d48988d125941735', 'name': 'Tech Startup', 'pluralName': 'Tech Startups', 'shortName': 'Tech Startup', 'icon': {'prefix': 'https://ss3.4sqi.net/img/categories_v2/shops/technology_', 'suffix': '.png'}, 'primary': True}]",,FR,,France,5357af58498e5bcc8a3ccbdf,43.618751,6.976229,les bureaux du soleil,,4bf58dd8d48988d125941735,Tech Startup,
4,"[{'id': '4bf58dd8d48988d125941735', 'name': 'Tech Startup', 'pluralName': 'Tech Startups', 'shortName': 'Tech Startup', 'icon': {'prefix': 'https://ss3.4sqi.net/img/categories_v2/shops/technology_', 'suffix': '.png'}, 'primary': True}]",,FR,,France,4bbf0a6f85fbb71360877167,43.610742451082075,7.014709055658659,Parc Haute Technologie,,4bf58dd8d48988d125941735,Tech Startup,
0,"[{'id': '4bf58dd8d48988d125941735', 'name': 'Tech Startup', 'pluralName': 'Tech Startups', 'shortName': 'Tech Startup', 'icon': {'prefix': 'https://ss3.4sqi.net/img/categories_v2/shops/technology_', 'suffix': '.png'}, 'primary': True}]",,FR,,France,4fbab353e4b0c54e94736303,43.784445,7.515818,ShakFive Computing,,4bf58dd8d48988d125941735,Tech Startup,
0,"[{'id': '4bf58dd8d48988d125941735', 'name': 'Tech Startup', 'pluralName': 'Tech Startups', 'shortName': 'Tech Startup', 'icon': {'prefix': 'https://ss3.4sqi.net/img/categories_v2/shops/technology_', 'suffix': '.png'}, 'primary': True}]",,FR,,France,4b9507e5f964a520398c34e3,43.628278703632276,7.04107248321408,WTC 2,06600,4bf58dd8d48988d125941735,Tech Startup,Provence-Alpes-Côte d'Azur
2,"[{'id': '4bf58dd8d48988d125941735', 'name': 'Tech Startup', 'pluralName': 'Tech Startups', 'shortName': 'Tech Startup', 'icon': {'prefix': 'https://ss3.4sqi.net/img/categories_v2/shops/technology_', 'suffix': '.png'}, 'primary': True}]",,FR,,France,4bd71a536798ef3bf134668d,43.629241689675126,7.04197883605957,SimplySim,06560,4bf58dd8d48988d125941735,Tech Startup,Provence-Alpes-Côte
3,"[{'id': '4bf58dd8d48988d125941735', 'name': 'Tech Startup', 'pluralName': 'Tech Startups', 'shortName': 'Tech Startup', 'icon': {'prefix': 'https://ss3.4sqi.net/img/categories_v2/shops/technology_', 'suffix': '.png'}, 'primary': True}]",,FR,,France,53282268498e22824f24c238,43.625205018779894,7.045992507815459,Travel Juice,06902,4bf58dd8d48988d125941735,Tech Startup,Provence-Alpes-Côte d'Azur
4,"[{'id': '4bf58dd8d48988d125941735', 'name': 'Tech Startup', 'pluralName': 'Tech Startups', 'shortName': 'Tech Startup', 'icon': {'prefix': 'https://ss3.4sqi.net/img/categories_v2/shops/technology_', 'suffix': '.png'}, 'primary': True}]",,FR,,France,4db04673fa8ca4b3e9df7e68,43.626826,7.046401,think&goNFC,,4bf58dd8d48988d125941735,Tech Startup,Provence-Alpes-Côte d'Azur
5,"[{'id': '4bf58dd8d48988d125941735', 'name': 'Tech Startup', 'pluralName': 'Tech Startups', 'shortName': 'Tech Startup', 'icon': {'prefix': 'https://ss3.4sqi.net/img/categories_v2/shops/technology_', 'suffix': '.png'}, 'primary': True}]",,FR,,France,52653b4111d205ec0998ff9f,43.625779,7.043592,Weddict,,4bf58dd8d48988d125941735,Tech Startup,
6,"[{'id': '4bf58dd8d48988d125941735', 'name': 'Tech Startup', 'pluralName': 'Tech Startups', 'shortName': 'Tech Startup', 'icon': {'prefix': 'https://ss3.4sqi.net/img/categories_v2/shops/technology_', 'suffix': '.png'}, 'primary': True}]",,FR,,France,4dcbc963d4c0dfa030d7638e,43.626064,7.044228,SOS Moustik World HQ,,4bf58dd8d48988d125941735,Tech Startup,Provence-Alpes-Côte d'Azur
7,"[{'id': '4bf58dd8d48988d125941735', 'name': 'Tech Startup', 'pluralName': 'Tech Startups', 'shortName': 'Tech Startup', 'icon': {'prefix': 'https://ss3.4sqi.net/img/categories_v2/shops/technology_', 'suffix': '.png'}, 'primary': True}]",,FR,,France,4e4b8eed6284a0b024b41557,43.626021,7.044328,Zarnos HQ,,4bf58dd8d48988d125941735,Tech Startup,Provence-Alpes-Côte d'Azur
8,"[{'id': '4bf58dd8d48988d125941735', 'name': 'Tech Startup', 'pluralName': 'Tech Startups', 'shortName': 'Tech Startup', 'icon': {'prefix': 'https://ss3.4sqi.net/img/categories_v2/shops/technology_', 'suffix': '.png'}, 'primary': True}]",,FR,,France,57736697498e31815bedcab9,43.623434,7.046818,Sophia Conseil,06560,4bf58dd8d48988d125941735,Tech Startup,Provence-Alpes-Côte d'Azur
9,"[{'id': '4bf58dd8d48988d125941735', 'name': 'Tech Startup', 'pluralName': 'Tech Startups', 'shortName': 'Tech Startup', 'icon': {'prefix': 'https://ss3.4sqi.net/img/categories_v2/shops/technology_', 'suffix': '.png'}, 'primary': True}]",,FR,,France,4da2c44dd686b60c7b07bf28,43.627295,7.044738,Bigsool,,4bf58dd8d48988d125941735,Tech Startup,Provence-Alpes-Côte d'Azur
10,"[{'id': '4bf58dd8d48988d125941735', 'name': 'Tech Startup', 'pluralName': 'Tech Startups', 'shortName': 'Tech Startup', 'icon': {'prefix': 'https://ss3.4sqi.net/img/categories_v2/shops/technology_', 'suffix': '.png'}, 'primary': True}]",,FR,,France,4e11a69a483bee47ff336832,43.627456,7.04494,Hot Apps Factory,06560,4bf58dd8d48988d125941735,Tech Startup,Provence-Alpes-Côte d'Azur
11,"[{'id': '4bf58dd8d48988d125941735', 'name': 'Tech Startup', 'pluralName': 'Tech Startups', 'shortName': 'Tech Startup', 'icon': {'prefix': 'https://ss3.4sqi.net/img/categories_v2/shops/technology_', 'suffix': '.png'}, 'primary': True}]",,FR,,France,4f53e8b40cd6abcc239efd1d,43.62697404962828,7.044081687927246,izypeo HQ,06560,4bf58dd8d48988d125941735,Tech Startup,Provence-Alpes-Côte d'Azur
12,"[{'id': '4bf58dd8d48988d125941735', 'name': 'Tech Startup', 'pluralName': 'Tech Startups', 'shortName': 'Tech Startup', 'icon': {'prefix': 'https://ss3.4sqi.net/img/categories_v2/shops/technology_', 'suffix': '.png'}, 'primary': True}]",,FR,,France,4ffbc909e4b00c8921919711,43.628013911735614,7.040878210118427,Transas Mediterranean,,4bf58dd8d48988d125941735,Tech Startup,Provence-Alpes-Côte d'Azur
13,"[{'id': '4bf58dd8d48988d125941735', 'name': 'Tech Startup', 'pluralName': 'Tech Startups', 'shortName': 'Tech Startup', 'icon': {'prefix': 'https://ss3.4sqi.net/img/categories_v2/shops/technology_', 'suffix': '.png'}, 'primary': True}]",,FR,,France,4d9326fe5cf5236aa3025ca3,43.62511561021325,7.04085384737208,Login People,06560,4bf58dd8d48988d125941735,Tech Startup,Provence-Alpes-Côte d'Azur
14,"[{'id': '4bf58dd8d48988d125941735', 'name': 'Tech Startup', 'pluralName': 'Tech Startups', 'shortName': 'Tech Startup', 'icon': {'prefix': 'https://ss3.4sqi.net/img/categories_v2/shops/technology_', 'suffix': '.png'}, 'primary': True}]",,FR,,France,4edcf307f9abeea3dca59749,43.627474133781696,7.039713917975926,Mobibase,06560,4bf58dd8d48988d125941735,Tech Startup,Provence-Alpes-Côte d'Azur
15,"[{'id': '4bf58dd8d48988d125941735', 'name': 'Tech Startup', 'pluralName': 'Tech Startups', 'shortName': 'Tech Startup', 'icon': {'prefix': 'https://ss3.4sqi.net/img/categories_v2/shops/technology_', 'suffix': '.png'}, 'primary': True}]",,FR,,France,5326d4f7498e660244842471,43.625300473815486,7.045918993555924,Le Drakkar,,4bf58dd8d48988d125941735,Tech Startup,
16,"[{'id': '4bf58dd8d48988d125941735', 'name': 'Tech Startup', 'pluralName': 'Tech Startups', 'shortName': 'Tech Startup', 'icon': {'prefix': 'https://ss3.4sqi.net/img/categories_v2/shops/technology_', 'suffix': '.png'}, 'primary': True}]",,FR,,France,503230d6e4b0a20c8a3bc34e,43.62711018146026,7.041046650856989,Whoog,,4bf58dd8d48988d125941735,Tech Startup,
17,"[{'id': '4bf58dd8d48988d125941735', 'name': 'Tech Startup', 'pluralName': 'Tech Startups', 'shortName': 'Tech Startup', 'icon': {'prefix': 'https://ss3.4sqi.net/img/categories_v2/shops/technology_', 'suffix': '.png'}, 'primary': True}]",,FR,,France,522df7e111d2add489542ec1,43.622283935546875,7.038170337677002,ideal-com,,4bf58dd8d48988d125941735,Tech Startup,
18,"[{'id': '4bf58dd8d48988d125941735', 'name': 'Tech Startup', 'pluralName': 'Tech Startups', 'shortName': 'Tech Startup', 'icon': {'prefix': 'https://ss3.4sqi.net/img/categories_v2/shops/technology_', 'suffix': '.png'}, 'primary': True}]",,FR,,France,506402dee4b027710728e1d1,43.628265,7.039219,Taodyne,,4bf58dd8d48988d125941735,Tech Startup,
19,"[{'id': '4bf58dd8d48988d125941735', 'name': 'Tech Startup', 'pluralName': 'Tech Startups', 'shortName': 'Tech Startup', 'icon': {'prefix': 'https://ss3.4sqi.net/img/categories_v2/shops/technology_', 'suffix': '.png'}, 'primary': True}]",,FR,,France,4c6e2da1f338236a1fe0091b,43.623716,7.047332,OD.Bee,,4bf58dd8d48988d125941735,Tech Startup,
20,"[{'id': '4bf58dd8d48988d125941735', 'name': 'Tech Startup', 'pluralName': 'Tech Startups', 'shortName': 'Tech Startup', 'icon': {'prefix': 'https://ss3.4sqi.net/img/categories_v2/shops/technology_', 'suffix': '.png'}, 'primary': True}]",,FR,,France,5165891be4b06965a3be1dad,43.62699356236199,7.041203749141495,Teach On Mars,,4bf58dd8d48988d125941735,Tech Startup,
21,"[{'id': '4bf58dd8d48988d125941735', 'name': 'Tech Startup', 'pluralName': 'Tech Startups', 'shortName': 'Tech Startup', 'icon': {'prefix': 'https://ss3.4sqi.net/img/categories_v2/shops/technology_', 'suffix': '.png'}, 'primary': True}]",,FR,,France,4ea7f9975c5cc8e498f6d8a5,43.62842188384856,7.0426581930082355,Doremi Labs,,4bf58dd8d48988d125941735,Tech Startup,
22,"[{'id': '4bf58dd8d48988d125941735', 'name': 'Tech Startup', 'pluralName': 'Tech Startups', 'shortName': 'Tech Startup', 'icon': {'prefix': 'https://ss3.4sqi.net/img/categories_v2/shops/technology_', 'suffix': '.png'}, 'primary': True}]",,FR,,France,4bb0992bf964a520754e3ce3,43.62723032830497,7.049918174743652,Alcatel-Lucent (ex-OpenPlug),06903,4bf58dd8d48988d125941735,Tech Startup,Provence-Alpes-Côte
23,"[{'id': '4bf58dd8d48988d125941735', 'name': 'Tech Startup', 'pluralName': 'Tech Startups', 'shortName': 'Tech Startup', 'icon': {'prefix': 'https://ss3.4sqi.net/img/categories_v2/shops/technology_', 'suffix': '.png'}, 'primary': True}]",,FR,,France,4b586c73f964a5201a5728e3,43.625280686188475,7.047473312391768,Intellicore,06560,4bf58dd8d48988d125941735,Tech Startup,Provence-Alpes-Côte d'Azur
24,"[{'id': '4bf58dd8d48988d125941735', 'name': 'Tech Startup', 'pluralName': 'Tech Startups', 'shortName': 'Tech Startup', 'icon': {'prefix': 'https://ss3.4sqi.net/img/categories_v2/shops/technology_', 'suffix': '.png'}, 'primary': True}]",,FR,,France,51de617a498eeb4efad7ed12,43.623679,7.046951,Stonesoft,,4bf58dd8d48988d125941735,Tech Startup,
25,"[{'id': '4bf58dd8d48988d125941735', 'name': 'Tech Startup', 'pluralName': 'Tech Startups', 'shortName': 'Tech Startup', 'icon': {'prefix': 'https://ss3.4sqi.net/img/categories_v2/shops/technology_', 'suffix': '.png'}, 'primary': True}]",,FR,,France,4db67a4ff7b121c29f736131,43.6269,7.045313,LM3LABS France,,4bf58dd8d48988d125941735,Tech Startup,
0,"[{'id': '4bf58dd8d48988d125941735', 'name': 'Tech Startup', 'pluralName': 'Tech Startups', 'shortName': 'Tech Startup', 'icon': {'prefix': 'https://ss3.4sqi.net/img/categories_v2/shops/technology_', 'suffix': '.png'}, 'primary': True}]",,FR,,France,5590fb6d498ec62497317454,43.64742985001748,7.121769036885923,Amadeus - Bel Air,06270,4bf58dd8d48988d125941735,Tech Startup,Provence-Alpes-Côte d'Azur
1,"[{'id': '4bf58dd8d48988d125941735', 'name': 'Tech Startup', 'pluralName': 'Tech Startups', 'shortName': 'Tech Startup', 'icon': {'prefix': 'https://ss3.4sqi.net/img/categories_v2/shops/technology_', 'suffix': '.png'}, 'primary': True}]",,FR,,France,4c2dd2a676a7ef3bc7dadeb8,43.62347146487249,7.070184946060181,BlueSky Positioning,06410,4bf58dd8d48988d125941735,Tech Startup,Provence-Alpes-Côte d'Azur
2,"[{'id': '4bf58dd8d48988d125941735', 'name': 'Tech Startup', 'pluralName': 'Tech Startups', 'shortName': 'Tech Startup', 'icon': {'prefix': 'https://ss3.4sqi.net/img/categories_v2/shops/technology_', 'suffix': '.png'}, 'primary': True}]",,FR,,France,5773fa51498e7a18980985e1,43.617902,7.050434,Wildmoka,,4bf58dd8d48988d125941735,Tech Startup,
5,"[{'id': '4bf58dd8d48988d125941735', 'name': 'Tech Startup', 'pluralName': 'Tech Startups', 'shortName': 'Tech Startup', 'icon': {'prefix': 'https://ss3.4sqi.net/img/categories_v2/shops/technology_', 'suffix': '.png'}, 'primary': True}]",,FR,,France,4dede4961f6e0f9053ecb6e7,43.615873,7.065908,"First-Site Création Sites, Référencement, Infographie",,4bf58dd8d48988d125941735,Tech Startup,PACA
6,"[{'id': '4bf58dd8d48988d124941735', 'name': 'Office', 'pluralName': 'Offices', 'shortName': 'Office', 'icon': {'prefix': 'https://ss3.4sqi.net/img/categories_v2/building/default_', 'suffix': '.png'}, 'primary': True}]",,FR,,France,4c1897924ff90f47b2970e49,43.616508,7.068173,Mobilegov France S.A,,4bf58dd8d48988d124941735,Office,Provence-Alpes-Côte
7,"[{'id': '4bf58dd8d48988d125941735', 'name': 'Tech Startup', 'pluralName': 'Tech Startups', 'shortName': 'Tech Startup', 'icon': {'prefix': 'https://ss3.4sqi.net/img/categories_v2/shops/technology_', 'suffix': '.png'}, 'primary': True}]",,FR,,France,4f9647a9bb3d831b8b26aafa,43.61515297910389,7.066987752914429,ActiveEon,06560,4bf58dd8d48988d125941735,Tech Startup,Provence-Alpes-Côte d'Azur
8,"[{'id': '4bf58dd8d48988d125941735', 'name': 'Tech Startup', 'pluralName': 'Tech Startups', 'shortName': 'Tech Startup', 'icon': {'prefix': 'https://ss3.4sqi.net/img/categories_v2/shops/technology_', 'suffix': '.png'}, 'primary': True}]",,FR,,France,559113e5498e1c64e5eec25d,43.61510561288296,7.074919280989781,Travelaer,,4bf58dd8d48988d125941735,Tech Startup,
9,"[{'id': '4bf58dd8d48988d125941735', 'name': 'Tech Startup', 'pluralName': 'Tech Startups', 'shortName': 'Tech Startup', 'icon': {'prefix': 'https://ss3.4sqi.net/img/categories_v2/shops/technology_', 'suffix': '.png'}, 'primary': True}]",,FR,,France,56056b38498eeba80b0480ab,43.62213280929254,7.075031755702819,Ignilife,06560,4bf58dd8d48988d125941735,Tech Startup,France
10,"[{'id': '4bf58dd8d48988d125941735', 'name': 'Tech Startup', 'pluralName': 'Tech Startups', 'shortName': 'Tech Startup', 'icon': {'prefix': 'https://ss3.4sqi.net/img/categories_v2/shops/technology_', 'suffix': '.png'}, 'primary': True}]",,FR,,France,4b992262f964a520d56335e3,43.62346692365187,7.069962497163315,Nasteo,06410,4bf58dd8d48988d125941735,Tech Startup,PACA
14,"[{'id': '4bf58dd8d48988d125941735', 'name': 'Tech Startup', 'pluralName': 'Tech Startups', 'shortName': 'Tech Startup', 'icon': {'prefix': 'https://ss3.4sqi.net/img/categories_v2/shops/technology_', 'suffix': '.png'}, 'primary': True}]",,FR,,France,4ee1e6cb722e9d45c56d5377,43.613277,7.05701,Local One ID,,4bf58dd8d48988d125941735,Tech Startup,Provence-Alpes-Côte d'Azur
16,"[{'id': '4bf58dd8d48988d125941735', 'name': 'Tech Startup', 'pluralName': 'Tech Startups', 'shortName': 'Tech Startup', 'icon': {'prefix': 'https://ss3.4sqi.net/img/categories_v2/shops/technology_', 'suffix': '.png'}, 'primary': True}]",,FR,,France,52dcd520498e08ab2dc3407d,43.6157112121582,7.066325664520264,leomaxly,06410,4bf58dd8d48988d125941735,Tech Startup,Provence-Alpes-Côte d'Azur
18,"[{'id': '4bf58dd8d48988d125941735', 'name': 'Tech Startup', 'pluralName': 'Tech Startups', 'shortName': 'Tech Startup', 'icon': {'prefix': 'https://ss3.4sqi.net/img/categories_v2/shops/technology_', 'suffix': '.png'}, 'primary': True}]",,FR,,France,4f2bf954e4b009e97100d2fa,43.623546194640106,7.070024804049939,Appyzz,,4bf58dd8d48988d125941735,Tech Startup,Biot
20,"[{'id': '4bf58dd8d48988d125941735', 'name': 'Tech Startup', 'pluralName': 'Tech Startups', 'shortName': 'Tech Startup', 'icon': {'prefix': 'https://ss3.4sqi.net/img/categories_v2/shops/technology_', 'suffix': '.png'}, 'primary': True}]",,FR,,France,56499050498eb840c39ec258,43.61890777142307,7.056211782485502,Datacorp Technologie,,4bf58dd8d48988d125941735,Tech Startup,Cote Da Azur
26,"[{'id': '4bf58dd8d48988d125941735', 'name': 'Tech Startup', 'pluralName': 'Tech Startups', 'shortName': 'Tech Startup', 'icon': {'prefix': 'https://ss3.4sqi.net/img/categories_v2/shops/technology_', 'suffix': '.png'}, 'primary': True}]",,FR,,France,4e8970b36da16acbb28b9d85,43.62152461603899,7.075313766156464,NetBenefit,,4bf58dd8d48988d125941735,Tech Startup,Provence-Alpes-Côte d'Azur
28,"[{'id': '4bf58dd8d48988d125941735', 'name': 'Tech Startup', 'pluralName': 'Tech Startups', 'shortName': 'Tech Startup', 'icon': {'prefix': 'https://ss3.4sqi.net/img/categories_v2/shops/technology_', 'suffix': '.png'}, 'primary': True}]",,FR,,France,56cca401498edef45843ea87,43.609447,7.070711,Ethertronics,,4bf58dd8d48988d125941735,Tech Startup,
32,"[{'id': '4bf58dd8d48988d125941735', 'name': 'Tech Startup', 'pluralName': 'Tech Startups', 'shortName': 'Tech Startup', 'icon': {'prefix': 'https://ss3.4sqi.net/img/categories_v2/shops/technology_', 'suffix': '.png'}, 'primary': True}]",,FR,,France,506084ffe4b0f0e1a31e33fa,43.616197,7.049329,L'ADEME,,4bf58dd8d48988d125941735,Tech Startup,
34,"[{'id': '4bf58dd8d48988d125941735', 'name': 'Tech Startup', 'pluralName': 'Tech Startups', 'shortName': 'Tech Startup', 'icon': {'prefix': 'https://ss3.4sqi.net/img/categories_v2/shops/technology_', 'suffix': '.png'}, 'primary': True}]",,FR,,France,4fd986e3e4b0b9560099e8b1,43.635606,7.134468,CLM,,4bf58dd8d48988d125941735,Tech Startup,
41,"[{'id': '4bf58dd8d48988d125941735', 'name': 'Tech Startup', 'pluralName': 'Tech Startups', 'shortName': 'Tech Startup', 'icon': {'prefix': 'https://ss3.4sqi.net/img/categories_v2/shops/technology_', 'suffix': '.png'}, 'primary': True}]",,FR,,France,5601089c498e7c8fcb9cbca0,43.615741,7.046959,Agence Waccan,,4bf58dd8d48988d125941735,Tech Startup,
42,"[{'id': '4bf58dd8d48988d125941735', 'name': 'Tech Startup', 'pluralName': 'Tech Startups', 'shortName': 'Tech Startup', 'icon': {'prefix': 'https://ss3.4sqi.net/img/categories_v2/shops/technology_', 'suffix': '.png'}, 'primary': True}]",,FR,,France,4c5803056418a5930f8e800e,43.62161524520879,7.07544207572937,Keeneo,06904,4bf58dd8d48988d125941735,Tech Startup,Provence-Alpes-Côte d'Azur
0,"[{'id': '4bf58dd8d48988d125941735', 'name': 'Tech Startup', 'pluralName': 'Tech Startups', 'shortName': 'Tech Startup', 'icon': {'prefix': 'https://ss3.4sqi.net/img/categories_v2/shops/technology_', 'suffix': '.png'}, 'primary': True}]",,IT,,Italia,4f4d0226e4b0774b55e083e8,43.77907,7.663043,Innovation consulting,18012,4bf58dd8d48988d125941735,Tech Startup,Liguria
0,"[{'id': '4bf58dd8d48988d125941735', 'name': 'Tech Startup', 'pluralName': 'Tech Startups', 'shortName': 'Tech Startup', 'icon': {'prefix': 'https://ss3.4sqi.net/img/categories_v2/shops/technology_', 'suffix': '.png'}, 'primary': True}]",,FR,,France,4da6f5e904377705c30336fc,43.462186,6.772213,Graphic Attitude,83600,4bf58dd8d48988d125941735,Tech Startup,Provence-Alpes-Côte d'Azur
1,"[{'id': '4bf58dd8d48988d125941735', 'name': 'Tech Startup', 'pluralName': 'Tech Startups', 'shortName': 'Tech Startup', 'icon': {'prefix': 'https://ss3.4sqi.net/img/categories_v2/shops/technology_', 'suffix': '.png'}, 'primary': True}]",,FR,,France,4d5e859d5b276dcb860ffbc5,43.43552046650706,6.805551006141256,Groupe Forum,83700,4bf58dd8d48988d125941735,Tech Startup,Provence-Alpes-Côte d'Azur
2,"[{'id': '4bf58dd8d48988d125941735', 'name': 'Tech Startup', 'pluralName': 'Tech Startups', 'shortName': 'Tech Startup', 'icon': {'prefix': 'https://ss3.4sqi.net/img/categories_v2/shops/technology_', 'suffix': '.png'}, 'primary': True}]",,FR,,France,4d80930223c3530c7c86f383,43.42613906167388,6.771637394924456,Webdrinks,83700,4bf58dd8d48988d125941735,Tech Startup,Provence-Alpes-Côte d'Azur
3,"[{'id': '4bf58dd8d48988d125941735', 'name': 'Tech Startup', 'pluralName': 'Tech Startups', 'shortName': 'Tech Startup', 'icon': {'prefix': 'https://ss3.4sqi.net/img/categories_v2/shops/technology_', 'suffix': '.png'}, 'primary': True}]",,FR,,France,4f98139be4b0b093e4bb0b0a,43.43562629246973,6.778435572768743,Agence Web Notoriete,83700,4bf58dd8d48988d125941735,Tech Startup,Provence-Alpes-Côte d'Azur
0,"[{'id': '4bf58dd8d48988d125941735', 'name': 'Tech Startup', 'pluralName': 'Tech Startups', 'shortName': 'Tech Startup', 'icon': {'prefix': 'https://ss3.4sqi.net/img/categories_v2/shops/technology_', 'suffix': '.png'}, 'primary': True}]",,FR,,France,517951f7498eac4e73c842aa,43.65309110645108,6.9210523401196316,Omkom-web,06130,4bf58dd8d48988d125941735,Tech Startup,Provence-Alpes-Côte d'Azur
1,"[{'id': '4bf58dd8d48988d125941735', 'name': 'Tech Startup', 'pluralName': 'Tech Startups', 'shortName': 'Tech Startup', 'icon': {'prefix': 'https://ss3.4sqi.net/img/categories_v2/shops/technology_', 'suffix': '.png'}, 'primary': True}]",,FR,,France,56af29d5498e5b44c3fe4fda,43.668953,7.1198187,BayLibre SAS,06270,4bf58dd8d48988d125941735,Tech Startup,Provence-Alpes-Côte d'Azur
2,"[{'id': '4bf58dd8d48988d125941735', 'name': 'Tech Startup', 'pluralName': 'Tech Startups', 'shortName': 'Tech Startup', 'icon': {'prefix': 'https://ss3.4sqi.net/img/categories_v2/shops/technology_', 'suffix': '.png'}, 'primary': True}]",,FR,,France,562e12ca498ec03db4b0a7e2,43.67931369008725,7.2045097126175195,VULOG HQ,06200,4bf58dd8d48988d125941735,Tech Startup,Provence-Alpes-Côte d'Azur
3,"[{'id': '4bf58dd8d48988d125941735', 'name': 'Tech Startup', 'pluralName': 'Tech Startups', 'shortName': 'Tech Startup', 'icon': {'prefix': 'https://ss3.4sqi.net/img/categories_v2/shops/technology_', 'suffix': '.png'}, 'primary': True}]",,FR,,France,537f5af6498e13026f99b7fe,43.666769573327755,7.210721969604492,MS Innovations (allmysms.com),06200,4bf58dd8d48988d125941735,Tech Startup,Provence-Alpes-Côte d'Azur
4,"[{'id': '4bf58dd8d48988d125941735', 'name': 'Tech Startup', 'pluralName': 'Tech Startups', 'shortName': 'Tech Startup', 'icon': {'prefix': 'https://ss3.4sqi.net/img/categories_v2/shops/technology_', 'suffix': '.png'}, 'primary': True}]",,FR,,France,50727e5fe4b03e8cff836a1f,43.68345273860393,7.202925417729667,Centre d'Accueil d'Entreprises Innovantes,,4bf58dd8d48988d125941735,Tech Startup,Provence-Alpes-Côte d'Azur
5,"[{'id': '4bf58dd8d48988d125941735', 'name': 'Tech Startup', 'pluralName': 'Tech Startups', 'shortName': 'Tech Startup', 'icon': {'prefix': 'https://ss3.4sqi.net/img/categories_v2/shops/technology_', 'suffix': '.png'}, 'primary': True}]",,FR,,France,4f981328e4b0b84704f83920,43.683567,7.20304,Azur Mobile,,4bf58dd8d48988d125941735,Tech Startup,
6,"[{'id': '4bf58dd8d48988d125941735', 'name': 'Tech Startup', 'pluralName': 'Tech Startups', 'shortName': 'Tech Startup', 'icon': {'prefix': 'https://ss3.4sqi.net/img/categories_v2/shops/technology_', 'suffix': '.png'}, 'primary': True}]",,FR,,France,5270e29011d27a9996a7b958,43.68223571777344,7.117251873016357,GreenPriz,06480,4bf58dd8d48988d125941735,Tech Startup,Provence-Alpes-Côte d'Azur
8,"[{'id': '4bf58dd8d48988d125941735', 'name': 'Tech Startup', 'pluralName': 'Tech Startups', 'shortName': 'Tech Startup', 'icon': {'prefix': 'https://ss3.4sqi.net/img/categories_v2/shops/technology_', 'suffix': '.png'}, 'primary': True}]",,FR,,France,4ffbf04d395039c3fea87708,43.65768087883745,7.164394855499268,Storm Communication,06800,4bf58dd8d48988d125941735,Tech Startup,Provence-Alpes-Côte d'Azur
9,"[{'id': '4bf58dd8d48988d125941735', 'name': 'Tech Startup', 'pluralName': 'Tech Startups', 'shortName': 'Tech Startup', 'icon': {'prefix': 'https://ss3.4sqi.net/img/categories_v2/shops/technology_', 'suffix': '.png'}, 'primary': True}]",,FR,,France,4f3382bce4b0a3e72238087c,43.66093422571949,7.192788919684742,Softbooking,,4bf58dd8d48988d125941735,Tech Startup,
6,"[{'id': '4bf58dd8d48988d125941735', 'name': 'Tech Startup', 'pluralName': 'Tech Startups', 'shortName': 'Tech Startup', 'icon': {'prefix': 'https://ss3.4sqi.net/img/categories_v2/shops/technology_', 'suffix': '.png'}, 'primary': True}]",,FR,,France,520df94411d2b1ca541f1590,43.706986,7.330965,Luxmarina Head Office,,4bf58dd8d48988d125941735,Tech Startup,Provence-Alpes-Côte d'Azur
0,"[{'id': '4bf58dd8d48988d113951735', 'name': 'Gas Station', 'pluralName': 'Gas Stations', 'shortName': 'Gas Station', 'icon': {'prefix': 'https://ss3.4sqi.net/img/categories_v2/shops/gas_', 'suffix': '.png'}, 'primary': True}]",,FR,,France,549fc9ac498e8b6d498a5d76,43.70207781,7.32519551,Total,06230,4bf58dd8d48988d113951735,Gas Station,Provence-Alpes-Côte d'Azur
1,"[{'id': '4bf58dd8d48988d174941735', 'name': 'Coworking Space', 'pluralName': 'Coworking Spaces', 'shortName': 'Coworking Space', 'icon': {'prefix': 'https://ss3.4sqi.net/img/categories_v2/building/office_coworkingspace_', 'suffix': '.png'}, 'primary': True}]",,FR,,France,5894b777a1492637fe409537,43.70148264689432,7.279078686187702,Workhouse Café,06300,4bf58dd8d48988d174941735,Coworking Space,Provence-Alpes-Côte d'Azur
2,"[{'id': '4bf58dd8d48988d174941735', 'name': 'Coworking Space', 'pluralName': 'Coworking Spaces', 'shortName': 'Coworking Space', 'icon': {'prefix': 'https://ss3.4sqi.net/img/categories_v2/building/office_coworkingspace_', 'suffix': '.png'}, 'primary': True}]",,FR,,France,4bfb6d01d2b720a1dc04336a,43.736960433231026,7.297350953287084,Espace Gabin,,4bf58dd8d48988d174941735,Coworking Space,
3,"[{'id': '4bf58dd8d48988d174941735', 'name': 'Coworking Space', 'pluralName': 'Coworking Spaces', 'shortName': 'Coworking Space', 'icon': {'prefix': 'https://ss3.4sqi.net/img/categories_v2/building/office_coworkingspace_', 'suffix': '.png'}, 'primary': True}]",,FR,,France,4f8c1f2ebe77b15e3aee6c67,43.707329812612436,7.272176742553711,RiaCréation,06000,4bf58dd8d48988d174941735,Coworking Space,Provence-Alpes-Côte d'Azur
4,"[{'id': '4bf58dd8d48988d174941735', 'name': 'Coworking Space', 'pluralName': 'Coworking Spaces', 'shortName': 'Coworking Space', 'icon': {'prefix': 'https://ss3.4sqi.net/img/categories_v2/building/office_coworkingspace_', 'suffix': '.png'}, 'primary': True}]",,FR,,France,4fa5523fe4b0cfe54cd66e46,43.682793679410324,7.227855920791626,ICR HQ,06200,4bf58dd8d48988d174941735,Coworking Space,Provence-Alpes-Côte d'Azur
5,"[{'id': '4bf58dd8d48988d174941735', 'name': 'Coworking Space', 'pluralName': 'Coworking Spaces', 'shortName': 'Coworking Space', 'icon': {'prefix': 'https://ss3.4sqi.net/img/categories_v2/building/office_coworkingspace_', 'suffix': '.png'}, 'primary': True}]",,FR,,France,4ecfc0cd2c5bc3505623ee82,43.736517019772116,7.304379596166236,Travail,,4bf58dd8d48988d174941735,Coworking Space,Provence-Alpes-Côte d'Azur
6,"[{'id': '4bf58dd8d48988d174941735', 'name': 'Coworking Space', 'pluralName': 'Coworking Spaces', 'shortName': 'Coworking Space', 'icon': {'prefix': 'https://ss3.4sqi.net/img/categories_v2/building/office_coworkingspace_', 'suffix': '.png'}, 'primary': True}]",,FR,,France,532b1ecf498e9998125737ef,43.70964572556656,7.25964111976216,Agence Picado,,4bf58dd8d48988d174941735,Coworking Space,
7,"[{'id': '4bf58dd8d48988d174941735', 'name': 'Coworking Space', 'pluralName': 'Coworking Spaces', 'shortName': 'Coworking Space', 'icon': {'prefix': 'https://ss3.4sqi.net/img/categories_v2/building/office_coworkingspace_', 'suffix': '.png'}, 'primary': True}]",,FR,,France,4ef4ae4a8b812e39d5dc742f,43.70744245015371,7.283007883657493,Robaut prestations,06300,4bf58dd8d48988d174941735,Coworking Space,Provence-Alpes-Côte d'Azur
8,"[{'id': '4bf58dd8d48988d174941735', 'name': 'Coworking Space', 'pluralName': 'Coworking Spaces', 'shortName': 'Coworking Space', 'icon': {'prefix': 'https://ss3.4sqi.net/img/categories_v2/building/office_coworkingspace_', 'suffix': '.png'}, 'primary': True}]",,FR,,France,4ec0ed1b6c25dfd982237896,43.703672,7.251061,Cryptone,,4bf58dd8d48988d174941735,Coworking Space,Provence-Alpes-Côte d'Azur
9,"[{'id': '4bf58dd8d48988d174941735', 'name': 'Coworking Space', 'pluralName': 'Coworking Spaces', 'shortName': 'Coworking Space', 'icon': {'prefix': 'https://ss3.4sqi.net/img/categories_v2/building/office_coworkingspace_', 'suffix': '.png'}, 'primary': True}]",,FR,,France,4e6e22ff8877d6d0b114e8f7,43.702786,7.236026,Garage De La Madeleine,,4bf58dd8d48988d174941735,Coworking Space,Provence-Alpes-Côte d'Azur
10,"[{'id': '4bf58dd8d48988d174941735', 'name': 'Coworking Space', 'pluralName': 'Coworking Spaces', 'shortName': 'Coworking Space', 'icon': {'prefix': 'https://ss3.4sqi.net/img/categories_v2/building/office_coworkingspace_', 'suffix': '.png'}, 'primary': True}]",,FR,,France,4e983f492c5b827059cf100a,43.705557,7.283996,Cfdt,,4bf58dd8d48988d174941735,Coworking Space,Provence-Alpes-Côte d'Azur
11,"[{'id': '4bf58dd8d48988d174941735', 'name': 'Coworking Space', 'pluralName': 'Coworking Spaces', 'shortName': 'Coworking Space', 'icon': {'prefix': 'https://ss3.4sqi.net/img/categories_v2/building/office_coworkingspace_', 'suffix': '.png'}, 'primary': True}]",,FR,,France,5592d1cb498e2a92dad434b0,43.701656341552734,7.264268398284912,Les Satellites -- Coworking,,4bf58dd8d48988d174941735,Coworking Space,
12,"[{'id': '4bf58dd8d48988d174941735', 'name': 'Coworking Space', 'pluralName': 'Coworking Spaces', 'shortName': 'Coworking Space', 'icon': {'prefix': 'https://ss3.4sqi.net/img/categories_v2/building/office_coworkingspace_', 'suffix': '.png'}, 'primary': True}]",,FR,,France,4e983ef19a52e266430f1e69,43.70491711750356,7.285015641676819,Cfdt UD,,4bf58dd8d48988d174941735,Coworking Space,
13,"[{'id': '4bf58dd8d48988d174941735', 'name': 'Coworking Space', 'pluralName': 'Coworking Spaces', 'shortName': 'Coworking Space', 'icon': {'prefix': 'https://ss3.4sqi.net/img/categories_v2/building/office_coworkingspace_', 'suffix': '.png'}, 'primary': True}]",,FR,,France,5207a44f11d219f1552935c0,43.695963,7.263313,Les Satellites,06000,4bf58dd8d48988d174941735,Coworking Space,PACA
14,"[{'id': '4bf58dd8d48988d174941735', 'name': 'Coworking Space', 'pluralName': 'Coworking Spaces', 'shortName': 'Coworking Space', 'icon': {'prefix': 'https://ss3.4sqi.net/img/categories_v2/building/office_coworkingspace_', 'suffix': '.png'}, 'primary': True}]",,FR,,France,4c2082feeac020a14b9f4cc2,43.70348890944971,7.24578820708894,Panda 06 office,,4bf58dd8d48988d174941735,Coworking Space,Provence-Alpes-Côte
15,"[{'id': '4bf58dd8d48988d174941735', 'name': 'Coworking Space', 'pluralName': 'Coworking Spaces', 'shortName': 'Coworking Space', 'icon': {'prefix': 'https://ss3.4sqi.net/img/categories_v2/building/office_coworkingspace_', 'suffix': '.png'}, 'primary': True}]",,FR,,France,516ebf41e4b07cebef6ca46c,43.69620219212272,7.263297077047686,Bianco Invest Assurances,,4bf58dd8d48988d174941735,Coworking Space,
16,"[{'id': '4bf58dd8d48988d113951735', 'name': 'Gas Station', 'pluralName': 'Gas Stations', 'shortName': 'Gas Station', 'icon': {'prefix': 'https://ss3.4sqi.net/img/categories_v2/shops/gas_', 'suffix': '.png'}, 'primary': True}]",,FR,,France,599d6ad3a3061917e51b5135,43.73187217,7.28653109,Total,06300,4bf58dd8d48988d113951735,Gas Station,Provence-Alpes-Côte d'Azur
17,"[{'id': '4bf58dd8d48988d174941735', 'name': 'Coworking Space', 'pluralName': 'Coworking Spaces', 'shortName': 'Coworking Space', 'icon': {'prefix': 'https://ss3.4sqi.net/img/categories_v2/building/office_coworkingspace_', 'suffix': '.png'}, 'primary': True}]",,FR,,France,516c1320e4b04aa2827a3f6f,43.700864,7.267981,Agence MPO,,4bf58dd8d48988d174941735,Coworking Space,Provence-Alpes-Côte d'Azur
18,"[{'id': '4bf58dd8d48988d174941735', 'name': 'Coworking Space', 'pluralName': 'Coworking Spaces', 'shortName': 'Coworking Space', 'icon': {'prefix': 'https://ss3.4sqi.net/img/categories_v2/building/office_coworkingspace_', 'suffix': '.png'}, 'primary': True}]",,FR,,France,52519c522fc620faa5f135b5,43.68367041984684,7.216687202453612,Agence Project,06200,4bf58dd8d48988d174941735,Coworking Space,PACA
19,"[{'id': '4bf58dd8d48988d174941735', 'name': 'Coworking Space', 'pluralName': 'Coworking Spaces', 'shortName': 'Coworking Space', 'icon': {'prefix': 'https://ss3.4sqi.net/img/categories_v2/building/office_coworkingspace_', 'suffix': '.png'}, 'primary': True}]",,FR,,France,50600857e4b0a70768d28be5,43.702676,7.259536,Le Studio Orange,,4bf58dd8d48988d174941735,Coworking Space,
20,"[{'id': '4bf58dd8d48988d127941735', 'name': 'Conference Room', 'pluralName': 'Conference Rooms', 'shortName': 'Conference room', 'icon': {'prefix': 'https://ss3.4sqi.net/img/categories_v2/building/office_conferenceroom_', 'suffix': '.png'}, 'primary': True}]",,FR,,France,4dcc044b1838cc2cc659e627,43.69247472822288,7.292799560306121,by Sushi Developpement,06300,4bf58dd8d48988d127941735,Conference Room,Provence-Alpes-Côte d'Azur
21,"[{'id': '4bf58dd8d48988d174941735', 'name': 'Coworking Space', 'pluralName': 'Coworking Spaces', 'shortName': 'Coworking Space', 'icon': {'prefix': 'https://ss3.4sqi.net/img/categories_v2/building/office_coworkingspace_', 'suffix': '.png'}, 'primary': True}]",,FR,,France,558cfe29498ede23f9bd6329,43.701697,7.26417,Les Satellites v3,,4bf58dd8d48988d174941735,Coworking Space,
22,"[{'id': '4bf58dd8d48988d174941735', 'name': 'Coworking Space', 'pluralName': 'Coworking Spaces', 'shortName': 'Coworking Space', 'icon': {'prefix': 'https://ss3.4sqi.net/img/categories_v2/building/office_coworkingspace_', 'suffix': '.png'}, 'primary': True}]",,FR,,France,4e940f3161afe52cf3850cd8,43.702726443987096,7.259119608836776,Trésorerie du CHU de Nice,06000,4bf58dd8d48988d174941735,Coworking Space,Provence-Alpes-Côte d'Azur
23,"[{'id': '4bf58dd8d48988d174941735', 'name': 'Coworking Space', 'pluralName': 'Coworking Spaces', 'shortName': 'Coworking Space', 'icon': {'prefix': 'https://ss3.4sqi.net/img/categories_v2/building/office_coworkingspace_', 'suffix': '.png'}, 'primary': True}]",,FR,,France,52d3f741498eded401d8851f,43.714089,7.258311,easy assurances,06000,4bf58dd8d48988d174941735,Coworking Space,Provence-Alpes-Côte d'Azur
24,"[{'id': '4bf58dd8d48988d174941735', 'name': 'Coworking Space', 'pluralName': 'Coworking Spaces', 'shortName': 'Coworking Space', 'icon': {'prefix': 'https://ss3.4sqi.net/img/categories_v2/building/office_coworkingspace_', 'suffix': '.png'}, 'primary': True}]",,FR,,France,4e82ea1e0cd6eee02019bd81,43.707186321780995,7.292680801054681,Les Satellites,06300,4bf58dd8d48988d174941735,Coworking Space,Provence-Alpes-Côte d'Azur
25,"[{'id': '4bf58dd8d48988d174941735', 'name': 'Coworking Space', 'pluralName': 'Coworking Spaces', 'shortName': 'Coworking Space', 'icon': {'prefix': 'https://ss3.4sqi.net/img/categories_v2/building/office_coworkingspace_', 'suffix': '.png'}, 'primary': True}]",,FR,,France,4f9ea5d4e4b01764678c993f,43.699978,7.276549,La Rédaction Du Petit Niçois,,4bf58dd8d48988d174941735,Coworking Space,
26,"[{'id': '4bf58dd8d48988d174941735', 'name': 'Coworking Space', 'pluralName': 'Coworking Spaces', 'shortName': 'Coworking Space', 'icon': {'prefix': 'https://ss3.4sqi.net/img/categories_v2/building/office_coworkingspace_', 'suffix': '.png'}, 'primary': True}]",,FR,,France,50cee5e0e4b0af446d53d799,43.670788,7.223292,Hays Recruiting experts worldwide,,4bf58dd8d48988d174941735,Coworking Space,
27,"[{'id': '4bf58dd8d48988d174941735', 'name': 'Coworking Space', 'pluralName': 'Coworking Spaces', 'shortName': 'Coworking Space', 'icon': {'prefix': 'https://ss3.4sqi.net/img/categories_v2/building/office_coworkingspace_', 'suffix': '.png'}, 'primary': True}]",,FR,,France,518d8ac5498e15ff85fb5352,43.700769,7.266244,MVK'D'STUDIO architect,,4bf58dd8d48988d174941735,Coworking Space,
28,"[{'id': '4bf58dd8d48988d174941735', 'name': 'Coworking Space', 'pluralName': 'Coworking Spaces', 'shortName': 'Coworking Space', 'icon': {'prefix': 'https://ss3.4sqi.net/img/categories_v2/building/office_coworkingspace_', 'suffix': '.png'}, 'primary': True}]",,FR,,France,4e3fdecce4cdab9b9361e8c2,43.70409680521481,7.267739058271786,APEC Nice,06000,4bf58dd8d48988d174941735,Coworking Space,Provence-Alpes-Côte d'Azur
0,"[{'id': '4bf58dd8d48988d174941735', 'name': 'Coworking Space', 'pluralName': 'Coworking Spaces', 'shortName': 'Coworking Space', 'icon': {'prefix': 'https://ss3.4sqi.net/img/categories_v2/building/office_coworkingspace_', 'suffix': '.png'}, 'primary': True}]",,FR,,France,4d2aaca1f7a9224b4d4c09a0,43.54144013231399,6.956171770247072,Thales Alenia Space,,4bf58dd8d48988d174941735,Coworking Space,
1,"[{'id': '4bf58dd8d48988d174941735', 'name': 'Coworking Space', 'pluralName': 'Coworking Spaces', 'shortName': 'Coworking Space', 'icon': {'prefix': 'https://ss3.4sqi.net/img/categories_v2/building/office_coworkingspace_', 'suffix': '.png'}, 'primary': True}]",,FR,,France,4fe311afe4b0fa547ae9f2cb,43.574732631964054,6.99153555494701,Frederic M FRANCE,06110,4bf58dd8d48988d174941735,Coworking Space,Provence-Alpes-Côte d'Azur
2,"[{'id': '4bf58dd8d48988d174941735', 'name': 'Coworking Space', 'pluralName': 'Coworking Spaces', 'shortName': 'Coworking Space', 'icon': {'prefix': 'https://ss3.4sqi.net/img/categories_v2/building/office_coworkingspace_', 'suffix': '.png'}, 'primary': True}]",,FR,,France,4e01ea9caeb76b6109895fe2,43.56949018871677,6.9947258142206135,Cabinet Global Invest,,4bf58dd8d48988d174941735,Coworking Space,PACA
3,"[{'id': '4bf58dd8d48988d174941735', 'name': 'Coworking Space', 'pluralName': 'Coworking Spaces', 'shortName': 'Coworking Space', 'icon': {'prefix': 'https://ss3.4sqi.net/img/categories_v2/building/office_coworkingspace_', 'suffix': '.png'}, 'primary': True}]",,FR,,France,4f0430e30e0149a030e5b078,43.549921,7.006638,STUDIO,,4bf58dd8d48988d174941735,Coworking Space,Provence-Alpes-Côte d'Azur
4,"[{'id': '4bf58dd8d48988d174941735', 'name': 'Coworking Space', 'pluralName': 'Coworking Spaces', 'shortName': 'Coworking Space', 'icon': {'prefix': 'https://ss3.4sqi.net/img/categories_v2/building/office_coworkingspace_', 'suffix': '.png'}, 'primary': True}]",,FR,,France,4fba0379e4b0eca653aada9c,43.55113218880218,7.025154479071085,Palais du Filmpro,,4bf58dd8d48988d174941735,Coworking Space,
5,"[{'id': '4bf58dd8d48988d174941735', 'name': 'Coworking Space', 'pluralName': 'Coworking Spaces', 'shortName': 'Coworking Space', 'icon': {'prefix': 'https://ss3.4sqi.net/img/categories_v2/building/office_coworkingspace_', 'suffix': '.png'}, 'primary': True}]",,FR,,France,4fb76cdfe4b04335c713f980,43.55123,7.017021,Bureau rose de Sophie et Sophie,,4bf58dd8d48988d174941735,Coworking Space,Provence-Alpes-Côte d'Azur
6,"[{'id': '4bf58dd8d48988d174941735', 'name': 'Coworking Space', 'pluralName': 'Coworking Spaces', 'shortName': 'Coworking Space', 'icon': {'prefix': 'https://ss3.4sqi.net/img/categories_v2/building/office_coworkingspace_', 'suffix': '.png'}, 'primary': True}]",,FR,,France,4df12d7645dd4e2693368abd,43.55340024082241,7.014985084533691,Axion Sp,06400,4bf58dd8d48988d174941735,Coworking Space,PACA
7,"[{'id': '4bf58dd8d48988d174941735', 'name': 'Coworking Space', 'pluralName': 'Coworking Spaces', 'shortName': 'Coworking Space', 'icon': {'prefix': 'https://ss3.4sqi.net/img/categories_v2/building/office_coworkingspace_', 'suffix': '.png'}, 'primary': True}]",,FR,,France,534d61e9498edb49911d8071,43.551063,7.023988,Agence Immo'Internationale,,4bf58dd8d48988d174941735,Coworking Space,
8,"[{'id': '4bf58dd8d48988d174941735', 'name': 'Coworking Space', 'pluralName': 'Coworking Spaces', 'shortName': 'Coworking Space', 'icon': {'prefix': 'https://ss3.4sqi.net/img/categories_v2/building/office_coworkingspace_', 'suffix': '.png'}, 'primary': True}]",,FR,,France,55882b3a498ebcd404245f1b,43.550213,7.020353,The House of PR,,4bf58dd8d48988d174941735,Coworking Space,
9,"[{'id': '4bf58dd8d48988d174941735', 'name': 'Coworking Space', 'pluralName': 'Coworking Spaces', 'shortName': 'Coworking Space', 'icon': {'prefix': 'https://ss3.4sqi.net/img/categories_v2/building/office_coworkingspace_', 'suffix': '.png'}, 'primary': True}]",,FR,,France,51923e8e498eb8fd24f1671d,43.55348438716698,7.023815903086324,Cannes-fest.com HQ,,4bf58dd8d48988d174941735,Coworking Space,Provence-Alpes-Côte d'Azur
10,"[{'id': '4bf58dd8d48988d174941735', 'name': 'Coworking Space', 'pluralName': 'Coworking Spaces', 'shortName': 'Coworking Space', 'icon': {'prefix': 'https://ss3.4sqi.net/img/categories_v2/building/office_coworkingspace_', 'suffix': '.png'}, 'primary': True}]",,FR,,France,4e1d5f36b0fb93d2d0619f9d,43.5536219,7.023595,SSL Designer,,4bf58dd8d48988d174941735,Coworking Space,
11,"[{'id': '4bf58dd8d48988d174941735', 'name': 'Coworking Space', 'pluralName': 'Coworking Spaces', 'shortName': 'Coworking Space', 'icon': {'prefix': 'https://ss3.4sqi.net/img/categories_v2/building/office_coworkingspace_', 'suffix': '.png'}, 'primary': True}]",,FR,,France,4fdd993ce4b01dfebfe4c83d,43.548659,7.029654,club mindshare,,4bf58dd8d48988d174941735,Coworking Space,
12,"[{'id': '4bf58dd8d48988d174941735', 'name': 'Coworking Space', 'pluralName': 'Coworking Spaces', 'shortName': 'Coworking Space', 'icon': {'prefix': 'https://ss3.4sqi.net/img/categories_v2/building/office_coworkingspace_', 'suffix': '.png'}, 'primary': True}]",,FR,,France,5991919c2955134db1ced0e3,43.552597,7.025344,Kitchen,06400,4bf58dd8d48988d174941735,Coworking Space,Provence-Alpes-Côte d'Azur
13,"[{'id': '4bf58dd8d48988d174941735', 'name': 'Coworking Space', 'pluralName': 'Coworking Spaces', 'shortName': 'Coworking Space', 'icon': {'prefix': 'https://ss3.4sqi.net/img/categories_v2/building/office_coworkingspace_', 'suffix': '.png'}, 'primary': True}]",,FR,,France,51bf2987498e71fc2c67a7cf,43.550134804895265,7.012221293412625,LezBald World Tour French HQ,,4bf58dd8d48988d174941735,Coworking Space,
14,"[{'id': '4bf58dd8d48988d174941735', 'name': 'Coworking Space', 'pluralName': 'Coworking Spaces', 'shortName': 'Coworking Space', 'icon': {'prefix': 'https://ss3.4sqi.net/img/categories_v2/building/office_coworkingspace_', 'suffix': '.png'}, 'primary': True}]",,FR,,France,4dfcaa5952b18923030cc8a8,43.564746,7.012203,MOST Original Soundtracks & Audio Post,,4bf58dd8d48988d174941735,Coworking Space,PACA
15,"[{'id': '4bf58dd8d48988d174941735', 'name': 'Coworking Space', 'pluralName': 'Coworking Spaces', 'shortName': 'Coworking Space', 'icon': {'prefix': 'https://ss3.4sqi.net/img/categories_v2/building/office_coworkingspace_', 'suffix': '.png'}, 'primary': True}]",,FR,,France,55717fbe498e24b1986e11de,43.550941467285156,7.017817497253418,Midem Hackday Loft,,4bf58dd8d48988d174941735,Coworking Space,
16,"[{'id': '4bf58dd8d48988d174941735', 'name': 'Coworking Space', 'pluralName': 'Coworking Spaces', 'shortName': 'Coworking Space', 'icon': {'prefix': 'https://ss3.4sqi.net/img/categories_v2/building/office_coworkingspace_', 'suffix': '.png'}, 'primary': True}]",,FR,,France,53381c8a11d28251387a1929,43.55578549507093,7.0177847729076275,Les 6 Degrés,,4bf58dd8d48988d174941735,Coworking Space,
17,"[{'id': '4bf58dd8d48988d174941735', 'name': 'Coworking Space', 'pluralName': 'Coworking Spaces', 'shortName': 'Coworking Space', 'icon': {'prefix': 'https://ss3.4sqi.net/img/categories_v2/building/office_coworkingspace_', 'suffix': '.png'}, 'primary': True}]",,FR,,France,53986a17498e56d20e47bb02,43.581645939715266,7.010316171667225,Immeuble l'Européen - Cabinet d'Architecte Philippe Bracco,06110,4bf58dd8d48988d174941735,Coworking Space,Provence-Alpes-Côte d'Azur
18,"[{'id': '4bf58dd8d48988d174941735', 'name': 'Coworking Space', 'pluralName': 'Coworking Spaces', 'shortName': 'Coworking Space', 'icon': {'prefix': 'https://ss3.4sqi.net/img/categories_v2/building/office_coworkingspace_', 'suffix': '.png'}, 'primary': True}]",,FR,,France,4f0bff22e4b0ece6d0e28a85,43.549196,7.030389,Riviera Best Of International,,4bf58dd8d48988d174941735,Coworking Space,Provence-Alpes-Côte d'Azur
19,"[{'id': '4bf58dd8d48988d174941735', 'name': 'Coworking Space', 'pluralName': 'Coworking Spaces', 'shortName': 'Coworking Space', 'icon': {'prefix': 'https://ss3.4sqi.net/img/categories_v2/building/office_coworkingspace_', 'suffix': '.png'}, 'primary': True}]",,FR,,France,4f66d6b2e4b08383b3c173fa,43.54363973249314,6.96067118038746,stage,,4bf58dd8d48988d174941735,Coworking Space,
0,"[{'id': '4bf58dd8d48988d174941735', 'name': 'Coworking Space', 'pluralName': 'Coworking Spaces', 'shortName': 'Coworking Space', 'icon': {'prefix': 'https://ss3.4sqi.net/img/categories_v2/building/office_coworkingspace_', 'suffix': '.png'}, 'primary': True}]",,MC,,Monaco,4e09bad0d1640223a4ab6733,43.7297921,7.4155733,Distrimarq,98000,4bf58dd8d48988d174941735,Coworking Space,
1,"[{'id': '4bf58dd8d48988d174941735', 'name': 'Coworking Space', 'pluralName': 'Coworking Spaces', 'shortName': 'Coworking Space', 'icon': {'prefix': 'https://ss3.4sqi.net/img/categories_v2/building/office_coworkingspace_', 'suffix': '.png'}, 'primary': True}]",,MC,,Monaco,4edcbcf261af8a14b911a164,43.72812331812371,7.414084481387446,CCA International,98008,4bf58dd8d48988d174941735,Coworking Space,
2,"[{'id': '4bf58dd8d48988d174941735', 'name': 'Coworking Space', 'pluralName': 'Coworking Spaces', 'shortName': 'Coworking Space', 'icon': {'prefix': 'https://ss3.4sqi.net/img/categories_v2/building/office_coworkingspace_', 'suffix': '.png'}, 'primary': True}]",,MC,,Monaco,4e0c94871f6e9300e4e79f47,43.734414168033815,7.41727352142334,Capital Banking Solutions,98000,4bf58dd8d48988d174941735,Coworking Space,
3,"[{'id': '4bf58dd8d48988d174941735', 'name': 'Coworking Space', 'pluralName': 'Coworking Spaces', 'shortName': 'Coworking Space', 'icon': {'prefix': 'https://ss3.4sqi.net/img/categories_v2/building/office_coworkingspace_', 'suffix': '.png'}, 'primary': True}]",,MC,,Monaco,50f3d0d5e4b03ea4cc5def8b,43.728081,7.413619,V. Ships Monaco,,4bf58dd8d48988d174941735,Coworking Space,
4,"[{'id': '4bf58dd8d48988d174941735', 'name': 'Coworking Space', 'pluralName': 'Coworking Spaces', 'shortName': 'Coworking Space', 'icon': {'prefix': 'https://ss3.4sqi.net/img/categories_v2/building/office_coworkingspace_', 'suffix': '.png'}, 'primary': True}]",,MC,,Monaco,4ec13fdbb803bca7dee0fbaa,43.728074,7.413963,Salle De Pause,,4bf58dd8d48988d174941735,Coworking Space,
5,"[{'id': '4bf58dd8d48988d174941735', 'name': 'Coworking Space', 'pluralName': 'Coworking Spaces', 'shortName': 'Coworking Space', 'icon': {'prefix': 'https://ss3.4sqi.net/img/categories_v2/building/office_coworkingspace_', 'suffix': '.png'}, 'primary': True}]",,MC,,Monaco,4ea18640e3008f7d91adb31f,43.73002236254025,7.415610355897091,Concorde,,4bf58dd8d48988d174941735,Coworking Space,
6,"[{'id': '4bf58dd8d48988d174941735', 'name': 'Coworking Space', 'pluralName': 'Coworking Spaces', 'shortName': 'Coworking Space', 'icon': {'prefix': 'https://ss3.4sqi.net/img/categories_v2/building/office_coworkingspace_', 'suffix': '.png'}, 'primary': True}]",,MC,,Monaco,4f4e595ce4b05b49b5daa9a3,43.730089145840026,7.411075070789265,Therascience,,4bf58dd8d48988d174941735,Coworking Space,
7,"[{'id': '4bf58dd8d48988d174941735', 'name': 'Coworking Space', 'pluralName': 'Coworking Spaces', 'shortName': 'Coworking Space', 'icon': {'prefix': 'https://ss3.4sqi.net/img/categories_v2/building/office_coworkingspace_', 'suffix': '.png'}, 'primary': True}]",,MC,,Monaco,4e0c8b3bd1646f1517872847,43.7435,7.43014,MPM & Partners,98000,4bf58dd8d48988d174941735,Coworking Space,
8,"[{'id': '4bf58dd8d48988d174941735', 'name': 'Coworking Space', 'pluralName': 'Coworking Spaces', 'shortName': 'Coworking Space', 'icon': {'prefix': 'https://ss3.4sqi.net/img/categories_v2/building/office_coworkingspace_', 'suffix': '.png'}, 'primary': True}]",,MC,,Monaco,4f7ee8e6e4b06838141e091c,43.73646275403276,7.419084619162319,Catalano Shipping Services,,4bf58dd8d48988d174941735,Coworking Space,
9,"[{'id': '4bf58dd8d48988d174941735', 'name': 'Coworking Space', 'pluralName': 'Coworking Spaces', 'shortName': 'Coworking Space', 'icon': {'prefix': 'https://ss3.4sqi.net/img/categories_v2/building/office_coworkingspace_', 'suffix': '.png'}, 'primary': True}]",,FR,,France,5742a9ad498e33efbb54232a,43.72774630039905,7.412474166278446,Vitalité Juices,,4bf58dd8d48988d174941735,Coworking Space,
10,"[{'id': '4bf58dd8d48988d174941735', 'name': 'Coworking Space', 'pluralName': 'Coworking Spaces', 'shortName': 'Coworking Space', 'icon': {'prefix': 'https://ss3.4sqi.net/img/categories_v2/building/office_coworkingspace_', 'suffix': '.png'}, 'primary': True}]",,MC,,Monaco,515bf3eee4b03192d6664495,43.7271730363405,7.416201707410035,SPIELO International,,4bf58dd8d48988d174941735,Coworking Space,
11,"[{'id': '4bf58dd8d48988d174941735', 'name': 'Coworking Space', 'pluralName': 'Coworking Spaces', 'shortName': 'Coworking Space', 'icon': {'prefix': 'https://ss3.4sqi.net/img/categories_v2/building/office_coworkingspace_', 'suffix': '.png'}, 'primary': True}]",,MC,,Monaco,51237809e4b0b01f1d71bf85,43.72731,7.413747,Jiki,,4bf58dd8d48988d174941735,Coworking Space,
12,"[{'id': '4bf58dd8d48988d147941735', 'name': 'Diner', 'pluralName': 'Diners', 'shortName': 'Diner', 'icon': {'prefix': 'https://ss3.4sqi.net/img/categories_v2/food/diner_', 'suffix': '.png'}, 'primary': True}]",,MC,,Monaco,4c52ba81f31a9c74131385ea,43.73349079127704,7.420933991299795,le shangri-la,,4bf58dd8d48988d147941735,Diner,
13,"[{'id': '4bf58dd8d48988d174941735', 'name': 'Coworking Space', 'pluralName': 'Coworking Spaces', 'shortName': 'Coworking Space', 'icon': {'prefix': 'https://ss3.4sqi.net/img/categories_v2/building/office_coworkingspace_', 'suffix': '.png'}, 'primary': True}]",,MC,,Monaco,4eb7ce8b8b81a81f918842ca,43.73704335066729,7.424924735311534,CMB,98000,4bf58dd8d48988d174941735,Coworking Space,
0,"[{'id': '4bf58dd8d48988d113951735', 'name': 'Gas Station', 'pluralName': 'Gas Stations', 'shortName': 'Gas Station', 'icon': {'prefix': 'https://ss3.4sqi.net/img/categories_v2/shops/gas_', 'suffix': '.png'}, 'primary': True}]",,FR,,France,4fe89eb2e4b06572994bb59c,43.59828899,7.08733137,Total,06600,4bf58dd8d48988d113951735,Gas Station,Provence-Alpes-Côte d'Azur
1,"[{'id': '4bf58dd8d48988d113951735', 'name': 'Gas Station', 'pluralName': 'Gas Stations', 'shortName': 'Gas Station', 'icon': {'prefix': 'https://ss3.4sqi.net/img/categories_v2/shops/gas_', 'suffix': '.png'}, 'primary': True}]",,FR,,France,4d89fe671508a1439c201a1e,43.59050269,7.12090722,Total,06600,4bf58dd8d48988d113951735,Gas Station,Provence-Alpes-Côte d'Azur
3,"[{'id': '4bf58dd8d48988d174941735', 'name': 'Coworking Space', 'pluralName': 'Coworking Spaces', 'shortName': 'Coworking Space', 'icon': {'prefix': 'https://ss3.4sqi.net/img/categories_v2/building/office_coworkingspace_', 'suffix': '.png'}, 'primary': True}]",,FR,,France,4c173edc96040f47e20874a5,43.605333079583524,7.076392378964153,Lasersymag,06600,4bf58dd8d48988d174941735,Coworking Space,Provence-Alpes-Côte
4,"[{'id': '4bf58dd8d48988d174941735', 'name': 'Coworking Space', 'pluralName': 'Coworking Spaces', 'shortName': 'Coworking Space', 'icon': {'prefix': 'https://ss3.4sqi.net/img/categories_v2/building/office_coworkingspace_', 'suffix': '.png'}, 'primary': True}]",,FR,,France,4f13f381e4b0804e8cdb3a24,43.60204,7.08585,Gmf,,4bf58dd8d48988d174941735,Coworking Space,
5,"[{'id': '4bf58dd8d48988d174941735', 'name': 'Coworking Space', 'pluralName': 'Coworking Spaces', 'shortName': 'Coworking Space', 'icon': {'prefix': 'https://ss3.4sqi.net/img/categories_v2/building/office_coworkingspace_', 'suffix': '.png'}, 'primary': True}]",,FR,,France,4e2e6ef86284021061e8c797,43.601544,7.08562,Ekypage,,4bf58dd8d48988d174941735,Coworking Space,Provence-Alpes-Côte d'Azur
0,"[{'id': '4bf58dd8d48988d174941735', 'name': 'Coworking Space', 'pluralName': 'Coworking Spaces', 'shortName': 'Coworking Space', 'icon': {'prefix': 'https://ss3.4sqi.net/img/categories_v2/building/office_coworkingspace_', 'suffix': '.png'}, 'primary': True}]",,FR,,France,4f27e275e4b0927facb9b555,43.64438247680664,6.943496227264404,Office Notarial Vouillon,,4bf58dd8d48988d174941735,Coworking Space,
1,"[{'id': '4bf58dd8d48988d174941735', 'name': 'Coworking Space', 'pluralName': 'Coworking Spaces', 'shortName': 'Coworking Space', 'icon': {'prefix': 'https://ss3.4sqi.net/img/categories_v2/building/office_coworkingspace_', 'suffix': '.png'}, 'primary': True}]",,FR,,France,4bd68fa96798ef3b2359658d,43.60510091109212,7.011170983314514,WhichBudget.com Cheap Flights,06250,4bf58dd8d48988d174941735,Coworking Space,Provence-Alpes-Côte
2,"[{'id': '4bf58dd8d48988d174941735', 'name': 'Coworking Space', 'pluralName': 'Coworking Spaces', 'shortName': 'Coworking Space', 'icon': {'prefix': 'https://ss3.4sqi.net/img/categories_v2/building/office_coworkingspace_', 'suffix': '.png'}, 'primary': True}]",,FR,,France,52583c1511d229b154b09417,43.64540779419671,6.944475173950195,AromaGrasse,06130,4bf58dd8d48988d174941735,Coworking Space,Provence-Alpes-Côte d'Azur
3,"[{'id': '4bf58dd8d48988d174941735', 'name': 'Coworking Space', 'pluralName': 'Coworking Spaces', 'shortName': 'Coworking Space', 'icon': {'prefix': 'https://ss3.4sqi.net/img/categories_v2/building/office_coworkingspace_', 'suffix': '.png'}, 'primary': True}]",,FR,,France,4ec51f8bf5b9b3183ff16ccf,43.630787,6.962814,Pole Emploi,,4bf58dd8d48988d174941735,Coworking Space,Provence-Alpes-Côte d'Azur
0,"[{'id': '4bf58dd8d48988d113951735', 'name': 'Gas Station', 'pluralName': 'Gas Stations', 'shortName': 'Gas Station', 'icon': {'prefix': 'https://ss3.4sqi.net/img/categories_v2/shops/gas_', 'suffix': '.png'}, 'primary': True}]",,FR,,France,4f5f8cf9e4b01708308952e0,43.78442454,7.52018777,Total,06500,4bf58dd8d48988d113951735,Gas Station,Provence-Alpes-Côte d'Azur
1,"[{'id': '4bf58dd8d48988d174941735', 'name': 'Coworking Space', 'pluralName': 'Coworking Spaces', 'shortName': 'Coworking Space', 'icon': {'prefix': 'https://ss3.4sqi.net/img/categories_v2/building/office_coworkingspace_', 'suffix': '.png'}, 'primary': True}]",,MC,,Monaco,4f6e141ae4b0a6b772156d3e,43.779584357281486,7.449105978012084,Base Alpha,06500,4bf58dd8d48988d174941735,Coworking Space,
2,"[{'id': '4bf58dd8d48988d174941735', 'name': 'Coworking Space', 'pluralName': 'Coworking Spaces', 'shortName': 'Coworking Space', 'icon': {'prefix': 'https://ss3.4sqi.net/img/categories_v2/building/office_coworkingspace_', 'suffix': '.png'}, 'primary': True}]",,MC,,Monaco,4fdf226ce4b09d4fcd2c417f,43.761287557230766,7.470627870627477,Ford Models,,4bf58dd8d48988d174941735,Coworking Space,
0,"[{'id': '4bf58dd8d48988d174941735', 'name': 'Coworking Space', 'pluralName': 'Coworking Spaces', 'shortName': 'Coworking Space', 'icon': {'prefix': 'https://ss3.4sqi.net/img/categories_v2/building/office_coworkingspace_', 'suffix': '.png'}, 'primary': True}]",,FR,,France,4e8eea0b7ee6c06365ba3ca9,43.626416662542454,7.033838791534907,Air France,,4bf58dd8d48988d174941735,Coworking Space,Provence-Alpes-Côte d'Azur
1,"[{'id': '4bf58dd8d48988d174941735', 'name': 'Coworking Space', 'pluralName': 'Coworking Spaces', 'shortName': 'Coworking Space', 'icon': {'prefix': 'https://ss3.4sqi.net/img/categories_v2/building/office_coworkingspace_', 'suffix': '.png'}, 'primary': True}]",,FR,,France,4d66662ba282a1cd91f42d64,43.62605432558861,7.052315622449746,Amadeus Clara,,4bf58dd8d48988d174941735,Coworking Space,Provence-Alpes-Côte d'Azur
2,"[{'id': '4bf58dd8d48988d174941735', 'name': 'Coworking Space', 'pluralName': 'Coworking Spaces', 'shortName': 'Coworking Space', 'icon': {'prefix': 'https://ss3.4sqi.net/img/categories_v2/building/office_coworkingspace_', 'suffix': '.png'}, 'primary': True}]",,FR,,France,4e367873b0fb59390ea928a0,43.625372,7.046,Mindspeed Technologies,,4bf58dd8d48988d174941735,Coworking Space,
3,"[{'id': '4bf58dd8d48988d174941735', 'name': 'Coworking Space', 'pluralName': 'Coworking Spaces', 'shortName': 'Coworking Space', 'icon': {'prefix': 'https://ss3.4sqi.net/img/categories_v2/building/office_coworkingspace_', 'suffix': '.png'}, 'primary': True}]",,FR,,France,4fbf4a95e4b054971f05d9bd,43.62799706053756,7.038994765760147,NVIDIA,06560,4bf58dd8d48988d174941735,Coworking Space,Provence-Alpes-Côte d'Azur
4,"[{'id': '4bf58dd8d48988d174941735', 'name': 'Coworking Space', 'pluralName': 'Coworking Spaces', 'shortName': 'Coworking Space', 'icon': {'prefix': 'https://ss3.4sqi.net/img/categories_v2/building/office_coworkingspace_', 'suffix': '.png'}, 'primary': True}]",,FR,,France,4f6c9310e4b03cbd0f6ae454,43.62383035503404,7.069694598917111,les toilettes d'appyzz,06410,4bf58dd8d48988d174941735,Coworking Space,Provence-Alpes-Côte d'Azur
5,"[{'id': '4bf58dd8d48988d174941735', 'name': 'Coworking Space', 'pluralName': 'Coworking Spaces', 'shortName': 'Coworking Space', 'icon': {'prefix': 'https://ss3.4sqi.net/img/categories_v2/building/office_coworkingspace_', 'suffix': '.png'}, 'primary': True}]",,FR,,France,5138a173e4b0556d00b016bf,43.623142,7.032964,Startup Show WebTV,,4bf58dd8d48988d174941735,Coworking Space,
6,"[{'id': '4bf58dd8d48988d174941735', 'name': 'Coworking Space', 'pluralName': 'Coworking Spaces', 'shortName': 'Coworking Space', 'icon': {'prefix': 'https://ss3.4sqi.net/img/categories_v2/building/office_coworkingspace_', 'suffix': '.png'}, 'primary': True}]",,FR,,France,4fbf4302e4b083733cfe63cf,43.62717415198664,7.046927196218353,EN07-Eurecom,,4bf58dd8d48988d174941735,Coworking Space,
7,"[{'id': '4bf58dd8d48988d174941735', 'name': 'Coworking Space', 'pluralName': 'Coworking Spaces', 'shortName': 'Coworking Space', 'icon': {'prefix': 'https://ss3.4sqi.net/img/categories_v2/building/office_coworkingspace_', 'suffix': '.png'}, 'primary': True}]",,FR,,France,4e009a1fae609fa8eddfbb5e,43.628275,7.039256,Toilettes De Chez Cobra,,4bf58dd8d48988d174941735,Coworking Space,PACA
8,"[{'id': '4bf58dd8d48988d174941735', 'name': 'Coworking Space', 'pluralName': 'Coworking Spaces', 'shortName': 'Coworking Space', 'icon': {'prefix': 'https://ss3.4sqi.net/img/categories_v2/building/office_coworkingspace_', 'suffix': '.png'}, 'primary': True}]",,FR,,France,4eca331e6c251306ce9299d5,43.625018,7.047271,JDC's Office,,4bf58dd8d48988d174941735,Coworking Space,
0,"[{'id': '4bf58dd8d48988d174941735', 'name': 'Coworking Space', 'pluralName': 'Coworking Spaces', 'shortName': 'Coworking Space', 'icon': {'prefix': 'https://ss3.4sqi.net/img/categories_v2/building/office_coworkingspace_', 'suffix': '.png'}, 'primary': True}]",,FR,,France,56f5231ecd1083ad4653360b,43.616533,7.048804,Amadeus Navigator,,4bf58dd8d48988d174941735,Coworking Space,
4,"[{'id': '4bf58dd8d48988d174941735', 'name': 'Coworking Space', 'pluralName': 'Coworking Spaces', 'shortName': 'Coworking Space', 'icon': {'prefix': 'https://ss3.4sqi.net/img/categories_v2/building/office_coworkingspace_', 'suffix': '.png'}, 'primary': True}]",,FR,,France,4c57d54730d82d7fdeb5da62,43.6571918665181,7.135705947875977,Pro BTP DSI/DMOP,06800,4bf58dd8d48988d174941735,Coworking Space,Provence-Alpes-Côte d'Azur
6,"[{'id': '4bf58dd8d48988d174941735', 'name': 'Coworking Space', 'pluralName': 'Coworking Spaces', 'shortName': 'Coworking Space', 'icon': {'prefix': 'https://ss3.4sqi.net/img/categories_v2/building/office_coworkingspace_', 'suffix': '.png'}, 'primary': True}]",,FR,,France,4e76fcc31838f9188a835f3f,43.61905072541941,7.0580236886077365,IMRA Europe,,4bf58dd8d48988d174941735,Coworking Space,Provence-Alpes-Côte d'Azur
7,"[{'id': '4bf58dd8d48988d174941735', 'name': 'Coworking Space', 'pluralName': 'Coworking Spaces', 'shortName': 'Coworking Space', 'icon': {'prefix': 'https://ss3.4sqi.net/img/categories_v2/building/office_coworkingspace_', 'suffix': '.png'}, 'primary': True}]",,FR,,France,506bd9a0e4b015a7e24219a0,43.617003,7.064536,Junior MIAGE Concept-HQ,,4bf58dd8d48988d174941735,Coworking Space,
8,"[{'id': '4bf58dd8d48988d174941735', 'name': 'Coworking Space', 'pluralName': 'Coworking Spaces', 'shortName': 'Coworking Space', 'icon': {'prefix': 'https://ss3.4sqi.net/img/categories_v2/building/office_coworkingspace_', 'suffix': '.png'}, 'primary': True}]",,FR,,France,50914ed7e4b0784a93fee25a,43.61507405161541,7.075257648757146,Hewlett-Packard Sophia-Antipolis,06901,4bf58dd8d48988d174941735,Coworking Space,Provence-Alpes-Côte d'Azur
9,"[{'id': '4bf58dd8d48988d174941735', 'name': 'Coworking Space', 'pluralName': 'Coworking Spaces', 'shortName': 'Coworking Space', 'icon': {'prefix': 'https://ss3.4sqi.net/img/categories_v2/building/office_coworkingspace_', 'suffix': '.png'}, 'primary': True}]",,FR,,France,50570a0ae4b0244ddf8aef6f,43.61517476825164,7.074270028967054,Hp,,4bf58dd8d48988d174941735,Coworking Space,
10,"[{'id': '4bf58dd8d48988d174941735', 'name': 'Coworking Space', 'pluralName': 'Coworking Spaces', 'shortName': 'Coworking Space', 'icon': {'prefix': 'https://ss3.4sqi.net/img/categories_v2/building/office_coworkingspace_', 'suffix': '.png'}, 'primary': True}]",,FR,,France,4fd5dd02e4b0d43255b54fbd,43.61747491222683,7.075037009020948,Adecco Experts,,4bf58dd8d48988d174941735,Coworking Space,
11,"[{'id': '4bf58dd8d48988d174941735', 'name': 'Coworking Space', 'pluralName': 'Coworking Spaces', 'shortName': 'Coworking Space', 'icon': {'prefix': 'https://ss3.4sqi.net/img/categories_v2/building/office_coworkingspace_', 'suffix': '.png'}, 'primary': True}]",,FR,,France,52bd91bd11d2f5e160a852e2,43.66525402304249,7.123295714384527,Plein Cap Croisières,96270,4bf58dd8d48988d174941735,Coworking Space,Provence-Alpes-Côte d'Azur
14,"[{'id': '4bf58dd8d48988d174941735', 'name': 'Coworking Space', 'pluralName': 'Coworking Spaces', 'shortName': 'Coworking Space', 'icon': {'prefix': 'https://ss3.4sqi.net/img/categories_v2/building/office_coworkingspace_', 'suffix': '.png'}, 'primary': True}]",,FR,,France,4e92a09155037de99d729f38,43.621571009400725,7.075416028810809,Volt europe,,4bf58dd8d48988d174941735,Coworking Space,Provence-Alpes-Côte d'Azur
16,"[{'id': '4bf58dd8d48988d174941735', 'name': 'Coworking Space', 'pluralName': 'Coworking Spaces', 'shortName': 'Coworking Space', 'icon': {'prefix': 'https://ss3.4sqi.net/img/categories_v2/building/office_coworkingspace_', 'suffix': '.png'}, 'primary': True}]",,FR,,France,4f605731e4b0ae6370b6579c,43.61541368170712,7.074821623317952,Amadeus Rail,,4bf58dd8d48988d174941735,Coworking Space,
19,"[{'id': '4bf58dd8d48988d174941735', 'name': 'Coworking Space', 'pluralName': 'Coworking Spaces', 'shortName': 'Coworking Space', 'icon': {'prefix': 'https://ss3.4sqi.net/img/categories_v2/building/office_coworkingspace_', 'suffix': '.png'}, 'primary': True}]",,FR,,France,4c639bd8de1b2d7f274be570,43.61502511188769,7.0751663590820515,Amadeus Templiers,,4bf58dd8d48988d174941735,Coworking Space,
20,"[{'id': '4bf58dd8d48988d174941735', 'name': 'Coworking Space', 'pluralName': 'Coworking Spaces', 'shortName': 'Coworking Space', 'icon': {'prefix': 'https://ss3.4sqi.net/img/categories_v2/building/office_coworkingspace_', 'suffix': '.png'}, 'primary': True}]",,FR,,France,56e93c09498ee23eacafb764,43.614779,7.07163,EIT Digital CLC,,4bf58dd8d48988d174941735,Coworking Space,
21,"[{'id': '4bf58dd8d48988d174941735', 'name': 'Coworking Space', 'pluralName': 'Coworking Spaces', 'shortName': 'Coworking Space', 'icon': {'prefix': 'https://ss3.4sqi.net/img/categories_v2/building/office_coworkingspace_', 'suffix': '.png'}, 'primary': True}]",,FR,,France,4bd8c794e914a593108154fa,43.61867,7.07623,Devisy,,4bf58dd8d48988d174941735,Coworking Space,Provence-Alpes-Côte
22,"[{'id': '4bf58dd8d48988d174941735', 'name': 'Coworking Space', 'pluralName': 'Coworking Spaces', 'shortName': 'Coworking Space', 'icon': {'prefix': 'https://ss3.4sqi.net/img/categories_v2/building/office_coworkingspace_', 'suffix': '.png'}, 'primary': True}]",,FR,,France,4bb1b0a4f964a5200b9f3ce3,43.622920041583946,7.075710296630859,NCI,06560,4bf58dd8d48988d174941735,Coworking Space,Provence-Alpes-Côte d'Azur
0,"[{'id': '4bf58dd8d48988d113951735', 'name': 'Gas Station', 'pluralName': 'Gas Stations', 'shortName': 'Gas Station', 'icon': {'prefix': 'https://ss3.4sqi.net/img/categories_v2/shops/gas_', 'suffix': '.png'}, 'primary': True}]",,FR,,France,4e2be7aa483bb05f05a36ad1,43.43691753,6.76516465,Total,83600,4bf58dd8d48988d113951735,Gas Station,Provence-Alpes-Côte d'Azur
1,"[{'id': '4bf58dd8d48988d113951735', 'name': 'Gas Station', 'pluralName': 'Gas Stations', 'shortName': 'Gas Station', 'icon': {'prefix': 'https://ss3.4sqi.net/img/categories_v2/shops/gas_', 'suffix': '.png'}, 'primary': True}]",,FR,,France,4f7c462be4b04e01b8797bef,43.4354891,6.72486858,Total,83600,4bf58dd8d48988d113951735,Gas Station,Provence-Alpes-Côte d'Azur
2,"[{'id': '4bf58dd8d48988d174941735', 'name': 'Coworking Space', 'pluralName': 'Coworking Spaces', 'shortName': 'Coworking Space', 'icon': {'prefix': 'https://ss3.4sqi.net/img/categories_v2/building/office_coworkingspace_', 'suffix': '.png'}, 'primary': True}]",,FR,,France,5838649cfc73d41260cd230d,43.433365,6.747478,Espace Coworking 42,,4bf58dd8d48988d174941735,Coworking Space,
1,"[{'id': '4bf58dd8d48988d174941735', 'name': 'Coworking Space', 'pluralName': 'Coworking Spaces', 'shortName': 'Coworking Space', 'icon': {'prefix': 'https://ss3.4sqi.net/img/categories_v2/building/office_coworkingspace_', 'suffix': '.png'}, 'primary': True}]",,FR,,France,4fd1cc96e4b08f355c97fd01,43.67539912553677,7.2095102236982935,Esat Jean Medecin,,4bf58dd8d48988d174941735,Coworking Space,
2,"[{'id': '4bf58dd8d48988d174941735', 'name': 'Coworking Space', 'pluralName': 'Coworking Spaces', 'shortName': 'Coworking Space', 'icon': {'prefix': 'https://ss3.4sqi.net/img/categories_v2/building/office_coworkingspace_', 'suffix': '.png'}, 'primary': True}]",,FR,,France,52a5e18311d217d419751946,43.662850827832635,7.196614925953661,partenaire,,4bf58dd8d48988d174941735,Coworking Space,
3,"[{'id': '4bf58dd8d48988d174941735', 'name': 'Coworking Space', 'pluralName': 'Coworking Spaces', 'shortName': 'Coworking Space', 'icon': {'prefix': 'https://ss3.4sqi.net/img/categories_v2/building/office_coworkingspace_', 'suffix': '.png'}, 'primary': True}]",,FR,,France,4f33bef6e4b0747f3fd6ca22,43.6788373541668,7.203051738875974,Randstad,,4bf58dd8d48988d174941735,Coworking Space,
4,"[{'id': '4bf58dd8d48988d174941735', 'name': 'Coworking Space', 'pluralName': 'Coworking Spaces', 'shortName': 'Coworking Space', 'icon': {'prefix': 'https://ss3.4sqi.net/img/categories_v2/building/office_coworkingspace_', 'suffix': '.png'}, 'primary': True}]",,FR,,France,4c8658fd51ada1cd013a3f10,43.657766,7.147799,Impression Design,,4bf58dd8d48988d174941735,Coworking Space,
5,"[{'id': '4bf58dd8d48988d174941735', 'name': 'Coworking Space', 'pluralName': 'Coworking Spaces', 'shortName': 'Coworking Space', 'icon': {'prefix': 'https://ss3.4sqi.net/img/categories_v2/building/office_coworkingspace_', 'suffix': '.png'}, 'primary': True}]",,FR,,France,4e2ff67062e1fbac610ffba7,43.658931071819026,7.150796132571497,ECF,,4bf58dd8d48988d174941735,Coworking Space,
6,"[{'id': '4bf58dd8d48988d174941735', 'name': 'Coworking Space', 'pluralName': 'Coworking Spaces', 'shortName': 'Coworking Space', 'icon': {'prefix': 'https://ss3.4sqi.net/img/categories_v2/building/office_coworkingspace_', 'suffix': '.png'}, 'primary': True}]",,FR,,France,4bbf3d9e006dc9b66237fc3f,43.66650614590777,7.189368328305034,Min Fleurs,,4bf58dd8d48988d174941735,Coworking Space,Provence-Alpes-Côte
7,"[{'id': '4bf58dd8d48988d113951735', 'name': 'Gas Station', 'pluralName': 'Gas Stations', 'shortName': 'Gas Station', 'icon': {'prefix': 'https://ss3.4sqi.net/img/categories_v2/shops/gas_', 'suffix': '.png'}, 'primary': True}]",,FR,,France,512c7162e4b0823d3fe1e639,43.66855599,7.19214377,Total,06700,4bf58dd8d48988d113951735,Gas Station,Provence-Alpes-Côte d'Azur
8,"[{'id': '4bf58dd8d48988d174941735', 'name': 'Coworking Space', 'pluralName': 'Coworking Spaces', 'shortName': 'Coworking Space', 'icon': {'prefix': 'https://ss3.4sqi.net/img/categories_v2/building/office_coworkingspace_', 'suffix': '.png'}, 'primary': True}]",,FR,,France,5065c344e4b0b3a2e9e169c9,43.66516133677968,7.2119948263930205,ERC Terminal1,,4bf58dd8d48988d174941735,Coworking Space,Provence-Alpes-Côte d'Azur
9,"[{'id': '4bf58dd8d48988d113951735', 'name': 'Gas Station', 'pluralName': 'Gas Stations', 'shortName': 'Gas Station', 'icon': {'prefix': 'https://ss3.4sqi.net/img/categories_v2/shops/gas_', 'suffix': '.png'}, 'primary': True}]",,FR,,France,4f01d823e5faf2869d980a63,43.66471698,7.17117759,Total,06800,4bf58dd8d48988d113951735,Gas Station,Provence-Alpes-Côte d'Azur
11,"[{'id': '4bf58dd8d48988d174941735', 'name': 'Coworking Space', 'pluralName': 'Coworking Spaces', 'shortName': 'Coworking Space', 'icon': {'prefix': 'https://ss3.4sqi.net/img/categories_v2/building/office_coworkingspace_', 'suffix': '.png'}, 'primary': True}]",,FR,,France,55291185498e5f398a12867c,43.65925069088369,7.16338805064388,MBE280 NM.TEDESCHI,06800,4bf58dd8d48988d174941735,Coworking Space,Provence-Alpes-Côte d'Azur
13,"[{'id': '4bf58dd8d48988d174941735', 'name': 'Coworking Space', 'pluralName': 'Coworking Spaces', 'shortName': 'Coworking Space', 'icon': {'prefix': 'https://ss3.4sqi.net/img/categories_v2/building/office_coworkingspace_', 'suffix': '.png'}, 'primary': True}]",,FR,,France,4f980a53e4b0e0a128211f59,43.66482680093435,7.169490249136724,Circonscription Du Val Fleuri,,4bf58dd8d48988d174941735,Coworking Space,
14,"[{'id': '4bf58dd8d48988d174941735', 'name': 'Coworking Space', 'pluralName': 'Coworking Spaces', 'shortName': 'Coworking Space', 'icon': {'prefix': 'https://ss3.4sqi.net/img/categories_v2/building/office_coworkingspace_', 'suffix': '.png'}, 'primary': True}]",,FR,,France,4eeb25fe99119cf9cdc6217c,43.66086595087973,7.194167730393614,ES Paie,,4bf58dd8d48988d174941735,Coworking Space,Provence-Alpes-Côte d'Azur
0,"[{'id': '58daa1558bbb0b01f18ec1f1', 'name': 'Insurance Office', 'pluralName': 'Insurance Offices', 'shortName': 'Insurance Office', 'icon': {'prefix': 'https://ss3.4sqi.net/img/categories_v2/shops/financial_', 'suffix': '.png'}, 'primary': True}]",,FR,,France,5a0de3a66eda02780afc67a3,43.7359312,7.29958199,AXA Assurance ZIANE BOUZIANE,06300,58daa1558bbb0b01f18ec1f1,Insurance Office,Provence-Alpes-Côte d'Azur
1,"[{'id': '4bf58dd8d48988d10a951735', 'name': 'Bank', 'pluralName': 'Banks', 'shortName': 'Bank', 'icon': {'prefix': 'https://ss3.4sqi.net/img/categories_v2/shops/financial_', 'suffix': '.png'}, 'primary': True}]",,FR,,France,5c665124ecb3ed00250cd00c,43.69606303626225,7.274498011524997,CREDIT MUTUEL PROFESSIONS JURIDIQUES NICE,06300,4bf58dd8d48988d10a951735,Bank,Provence-Alpes-Côte d'Azur
2,"[{'id': '503287a291d4c4b30a586d65', 'name': 'Financial or Legal Service', 'pluralName': 'Financial or Legal Services', 'shortName': 'Financial / Legal', 'icon': {'prefix': 'https://ss3.4sqi.net/img/categories_v2/shops/financial_', 'suffix': '.png'}, 'primary': True}]",,FR,,France,577c3cb1498e71bff626166a,43.702117,7.275615,MACIF Assurances,06000,503287a291d4c4b30a586d65,Financial or Legal Service,Provence-Alpes-Côte d'Azur
3,"[{'id': '58daa1558bbb0b01f18ec1f1', 'name': 'Insurance Office', 'pluralName': 'Insurance Offices', 'shortName': 'Insurance Office', 'icon': {'prefix': 'https://ss3.4sqi.net/img/categories_v2/shops/financial_', 'suffix': '.png'}, 'primary': True}]",,FR,,France,5a0d497eb04056135f5b6624,43.68383207,7.22875653,AXA Assurance Frederic Gerin,06200,58daa1558bbb0b01f18ec1f1,Insurance Office,Provence-Alpes-Côte d'Azur
4,"[{'id': '58daa1558bbb0b01f18ec1f1', 'name': 'Insurance Office', 'pluralName': 'Insurance Offices', 'shortName': 'Insurance Office', 'icon': {'prefix': 'https://ss3.4sqi.net/img/categories_v2/shops/financial_', 'suffix': '.png'}, 'primary': True}]",,FR,,France,5c6da22c4f0e58002c5e619d,43.70159166,7.27290272,MMA Nice Massena,06016,58daa1558bbb0b01f18ec1f1,Insurance Office,Provence-Alpes-Côte d'Azur
5,"[{'id': '58daa1558bbb0b01f18ec1f1', 'name': 'Insurance Office', 'pluralName': 'Insurance Offices', 'shortName': 'Insurance Office', 'icon': {'prefix': 'https://ss3.4sqi.net/img/categories_v2/shops/financial_', 'suffix': '.png'}, 'primary': True}]",,FR,,France,5a0e0957a6ec983a4a1cce43,43.71857851,7.25275904,AXA Assurance Laurent Prevost,06100,58daa1558bbb0b01f18ec1f1,Insurance Office,Provence-Alpes-Côte d'Azur
6,"[{'id': '58daa1558bbb0b01f18ec1f1', 'name': 'Insurance Office', 'pluralName': 'Insurance Offices', 'shortName': 'Insurance Office', 'icon': {'prefix': 'https://ss3.4sqi.net/img/categories_v2/shops/financial_', 'suffix': '.png'}, 'primary': True}]",,FR,,France,5a5f8c8f2105c370fbcc8172,43.69676497,7.26103024,AXA Assurance DENIS DJIAN,06000,58daa1558bbb0b01f18ec1f1,Insurance Office,Provence-Alpes-Côte d'Azur
7,"[{'id': '58daa1558bbb0b01f18ec1f1', 'name': 'Insurance Office', 'pluralName': 'Insurance Offices', 'shortName': 'Insurance Office', 'icon': {'prefix': 'https://ss3.4sqi.net/img/categories_v2/shops/financial_', 'suffix': '.png'}, 'primary': True}]",,FR,,France,5abdf500491be763882d70ae,43.703332494912,7.278524964418,MAIF Nice Acropolis,06000,58daa1558bbb0b01f18ec1f1,Insurance Office,Provence-Alpes-Côte d'Azur
8,"[{'id': '58daa1558bbb0b01f18ec1f1', 'name': 'Insurance Office', 'pluralName': 'Insurance Offices', 'shortName': 'Insurance Office', 'icon': {'prefix': 'https://ss3.4sqi.net/img/categories_v2/shops/financial_', 'suffix': '.png'}, 'primary': True}]",,FR,,France,5c698d95c4df1d002ca42b07,43.72114224,7.26064008,MMA,06100,58daa1558bbb0b01f18ec1f1,Insurance Office,Provence-Alpes-Côte d'Azur
9,"[{'id': '4bf58dd8d48988d10a951735', 'name': 'Bank', 'pluralName': 'Banks', 'shortName': 'Bank', 'icon': {'prefix': 'https://ss3.4sqi.net/img/categories_v2/shops/financial_', 'suffix': '.png'}, 'primary': True}]",,FR,,France,5c6645f1febf31002ce82463,43.67903577737851,7.229268717179366,CREDIT MUTUEL NICE BAIE DES ANGES,06200,4bf58dd8d48988d10a951735,Bank,Provence-Alpes-Côte d'Azur
10,"[{'id': '503287a291d4c4b30a586d65', 'name': 'Financial or Legal Service', 'pluralName': 'Financial or Legal Services', 'shortName': 'Financial / Legal', 'icon': {'prefix': 'https://ss3.4sqi.net/img/categories_v2/shops/financial_', 'suffix': '.png'}, 'primary': True}]",,FR,,France,5c8bab663abcaf002c97f941,43.698885,7.264384,Assurance Nice Centre Aviva,06300,503287a291d4c4b30a586d65,Financial or Legal Service,Provence-Alpes-Côte d'Azur
11,"[{'id': '58daa1558bbb0b01f18ec1f1', 'name': 'Insurance Office', 'pluralName': 'Insurance Offices', 'shortName': 'Insurance Office', 'icon': {'prefix': 'https://ss3.4sqi.net/img/categories_v2/shops/financial_', 'suffix': '.png'}, 'primary': True}]",,FR,,France,5a5f8b5be0755028403401b9,43.70168684,7.2670721,AXA Assurance Claude Salinas,06000,58daa1558bbb0b01f18ec1f1,Insurance Office,Provence-Alpes-Côte d'Azur
12,"[{'id': '58daa1558bbb0b01f18ec1f1', 'name': 'Insurance Office', 'pluralName': 'Insurance Offices', 'shortName': 'Insurance Office', 'icon': {'prefix': 'https://ss3.4sqi.net/img/categories_v2/shops/financial_', 'suffix': '.png'}, 'primary': True}]",,FR,,France,5a0f0f6450a6f01f4a8204f1,43.7009572,7.28671038,AXA Assurance Nicolas Taddei,06300,58daa1558bbb0b01f18ec1f1,Insurance Office,Provence-Alpes-Côte d'Azur
13,"[{'id': '4bf58dd8d48988d10a951735', 'name': 'Bank', 'pluralName': 'Banks', 'shortName': 'Bank', 'icon': {'prefix': 'https://ss3.4sqi.net/img/categories_v2/shops/financial_', 'suffix': '.png'}, 'primary': True}]",,FR,,France,5c66513be65d0c002c1e4717,43.70165160412259,7.267143373016324,CREDIT MUTUEL NICE AVENUE,06011,4bf58dd8d48988d10a951735,Bank,Provence-Alpes-Côte d'Azur
14,"[{'id': '58daa1558bbb0b01f18ec1f1', 'name': 'Insurance Office', 'pluralName': 'Insurance Offices', 'shortName': 'Insurance Office', 'icon': {'prefix': 'https://ss3.4sqi.net/img/categories_v2/shops/financial_', 'suffix': '.png'}, 'primary': True}]",,FR,,France,5c642cbe9fca56002c730eb0,43.7111829,7.25871279,MMA NICE BORRIGLIONE LIBERATION,06100,58daa1558bbb0b01f18ec1f1,Insurance Office,Provence-Alpes-Côte d'Azur
15,"[{'id': '58daa1558bbb0b01f18ec1f1', 'name': 'Insurance Office', 'pluralName': 'Insurance Offices', 'shortName': 'Insurance Office', 'icon': {'prefix': 'https://ss3.4sqi.net/img/categories_v2/shops/financial_', 'suffix': '.png'}, 'primary': True}]",,FR,,France,5c6711e8a92d98002cbee9df,43.69527885,7.25712475,AXA Assurance Olivier Culioli,06000,58daa1558bbb0b01f18ec1f1,Insurance Office,Provence-Alpes-Côte d'Azur
16,"[{'id': '58daa1558bbb0b01f18ec1f1', 'name': 'Insurance Office', 'pluralName': 'Insurance Offices', 'shortName': 'Insurance Office', 'icon': {'prefix': 'https://ss3.4sqi.net/img/categories_v2/shops/financial_', 'suffix': '.png'}, 'primary': True}]",,FR,,France,5a10c71e0fe7a0039d57668f,43.69443079,7.24326942,AXA Assurance CAPITAL ET SANTE,06000,58daa1558bbb0b01f18ec1f1,Insurance Office,Provence-Alpes-Côte d'Azur
17,"[{'id': '58daa1558bbb0b01f18ec1f1', 'name': 'Insurance Office', 'pluralName': 'Insurance Offices', 'shortName': 'Insurance Office', 'icon': {'prefix': 'https://ss3.4sqi.net/img/categories_v2/shops/financial_', 'suffix': '.png'}, 'primary': True}]",,FR,,France,5a0bf9009ba3e54b1a4ae533,43.705359,7.28776997,AXA Assurance Philippe Barrali,06302,58daa1558bbb0b01f18ec1f1,Insurance Office,Provence-Alpes-Côte d'Azur
18,"[{'id': '4bf58dd8d48988d10a951735', 'name': 'Bank', 'pluralName': 'Banks', 'shortName': 'Bank', 'icon': {'prefix': 'https://ss3.4sqi.net/img/categories_v2/shops/financial_', 'suffix': '.png'}, 'primary': True}]",,FR,,France,5c66430c286fda0039bf5688,43.700901,7.26815,CREDIT MUTUEL NICE JOFFRE,06007,4bf58dd8d48988d10a951735,Bank,Provence-Alpes-Côte d'Azur
19,"[{'id': '4bf58dd8d48988d10a951735', 'name': 'Bank', 'pluralName': 'Banks', 'shortName': 'Bank', 'icon': {'prefix': 'https://ss3.4sqi.net/img/categories_v2/shops/financial_', 'suffix': '.png'}, 'primary': True}]",,FR,,France,5c664de889b06a002c55bf20,43.70169743752802,7.267038804934373,CREDIT MUTUEL ENSEIGNANT NICE - CME NICE,06000,4bf58dd8d48988d10a951735,Bank,Provence-Alpes-Côte d'Azur
20,"[{'id': '503287a291d4c4b30a586d65', 'name': 'Financial or Legal Service', 'pluralName': 'Financial or Legal Services', 'shortName': 'Financial / Legal', 'icon': {'prefix': 'https://ss3.4sqi.net/img/categories_v2/shops/financial_', 'suffix': '.png'}, 'primary': True}]",,FR,,France,5c8bab6375eee4002c2b7729,43.698628,7.271382,Assurance Nice Massena Aviva,06000,503287a291d4c4b30a586d65,Financial or Legal Service,Provence-Alpes-Côte d'Azur
21,"[{'id': '4bf58dd8d48988d10a951735', 'name': 'Bank', 'pluralName': 'Banks', 'shortName': 'Bank', 'icon': {'prefix': 'https://ss3.4sqi.net/img/categories_v2/shops/financial_', 'suffix': '.png'}, 'primary': True}]",,FR,,France,5c664e4bd807ee002c0d59cf,43.70440046828083,7.286391097423802,CREDIT MUTUEL NICE REPUBLIQUE,06300,4bf58dd8d48988d10a951735,Bank,Provence-Alpes-Côte d'Azur
22,"[{'id': '58daa1558bbb0b01f18ec1f1', 'name': 'Insurance Office', 'pluralName': 'Insurance Offices', 'shortName': 'Insurance Office', 'icon': {'prefix': 'https://ss3.4sqi.net/img/categories_v2/shops/financial_', 'suffix': '.png'}, 'primary': True}]",,FR,,France,5c0106cebd4009002c29561c,43.70414346,7.2688223,AXA Assurance Djian Fitoussi Niddam Niddam Nid,06000,58daa1558bbb0b01f18ec1f1,Insurance Office,Provence-Alpes-Côte d'Azur
23,"[{'id': '4bf58dd8d48988d10a951735', 'name': 'Bank', 'pluralName': 'Banks', 'shortName': 'Bank', 'icon': {'prefix': 'https://ss3.4sqi.net/img/categories_v2/shops/financial_', 'suffix': '.png'}, 'primary': True}]",,FR,,France,5c6647a12619ee002d401eaf,43.699560510261264,7.282574535563981,CREDIT MUTUEL NICE BAIE DES ANGES - NICE-CASSINI,06300,4bf58dd8d48988d10a951735,Bank,Provence-Alpes-Côte d'Azur
24,"[{'id': '58daa1558bbb0b01f18ec1f1', 'name': 'Insurance Office', 'pluralName': 'Insurance Offices', 'shortName': 'Insurance Office', 'icon': {'prefix': 'https://ss3.4sqi.net/img/categories_v2/shops/financial_', 'suffix': '.png'}, 'primary': True}]",,FR,,France,5c6a4ef3603d2a0039f0892d,43.70147212,7.28371893,MMA Nice Acropolis Le Port,06300,58daa1558bbb0b01f18ec1f1,Insurance Office,Provence-Alpes-Côte d'Azur
