,categories,categoriesList,cc,city,country,id,lat,lng,name,postalCode,primary_category_id,primary_category_name,state
0,"[{'id': '4bf58dd8d48988d125941735', 'name': 'Tech Startup', 'pluralName': 'Tech Startups', 'shortName': 'Tech Startup', 'icon': {'prefix': 'https://ss3.4sqi.net/img/categories_v2/shops/technology_', 'suffix': '.png'}, 'primary': True}]",,FR,,France,51384c10e4b04267f9cd64dd,48.100332,-1.622623,Alkante,35530,4bf58dd8d48988d125941735,Tech Startup,Bretagne
1,"[{'id': '4bf58dd8d48988d124941735', 'name': 'Office', 'pluralName': 'Offices', 'shortName': 'Office', 'icon': {'prefix': 'https://ss3.4sqi.net/img/categories_v2/building/default_', 'suffix': '.png'}, 'primary': True}]",,FR,,France,59b661f047f8761788cdd6d0,48.12773864004702,-1.6240652304923755,OVH,35510,4bf58dd8d48988d124941735,Office,Bretagne
2,"[{'id': '4bf58dd8d48988d125941735', 'name': 'Tech Startup', 'pluralName': 'Tech Startups', 'shortName': 'Tech Startup', 'icon': {'prefix': 'https://ss3.4sqi.net/img/categories_v2/shops/technology_', 'suffix': '.png'}, 'primary': True}]",,FR,,France,4c35fcde7cc0c9b6d6cef59a,48.130485739810915,-1.6231897483779674,Technopole Rennes Atalante,,4bf58dd8d48988d125941735,Tech Startup,Bretagne
3,"[{'id': '4bf58dd8d48988d1e0931735', 'name': 'Coffee Shop', 'pluralName': 'Coffee Shops', 'shortName': 'Coffee Shop', 'icon': {'prefix': 'https://ss3.4sqi.net/img/categories_v2/food/coffeeshop_', 'suffix': '.png'}, 'primary': True}]",,FR,,France,54c7d8f4498ebfa050cd2447,48.106877646528936,-1.694182053257074,Le Mabilay,35000,4bf58dd8d48988d1e0931735,Coffee Shop,Bretagne
4,"[{'id': '4bf58dd8d48988d125941735', 'name': 'Tech Startup', 'pluralName': 'Tech Startups', 'shortName': 'Tech Startup', 'icon': {'prefix': 'https://ss3.4sqi.net/img/categories_v2/shops/technology_', 'suffix': '.png'}, 'primary': True}]",,FR,,France,4d9adb78e086a35de84ac3ad,48.119952387714015,-1.630096435546875,Alliance Qualité Logicielle (AQL),35510,4bf58dd8d48988d125941735,Tech Startup,Bretagne
5,"[{'id': '4bf58dd8d48988d125941735', 'name': 'Tech Startup', 'pluralName': 'Tech Startups', 'shortName': 'Tech Startup', 'icon': {'prefix': 'https://ss3.4sqi.net/img/categories_v2/shops/technology_', 'suffix': '.png'}, 'primary': True}]",,FR,,France,5b1a6e58a2c00b002c2698a1,48.11224,-1.682575,Google Atelier Numérique,35000,4bf58dd8d48988d125941735,Tech Startup,Bretagne
6,"[{'id': '4bf58dd8d48988d125941735', 'name': 'Tech Startup', 'pluralName': 'Tech Startups', 'shortName': 'Tech Startup', 'icon': {'prefix': 'https://ss3.4sqi.net/img/categories_v2/shops/technology_', 'suffix': '.png'}, 'primary': True}]",,FR,,France,50ea8c23e4b0aa6e0c9e30b7,48.1081560021714,-1.67087414302087,Aladom,,4bf58dd8d48988d125941735,Tech Startup,Bretagne
7,"[{'id': '4bf58dd8d48988d125941735', 'name': 'Tech Startup', 'pluralName': 'Tech Startups', 'shortName': 'Tech Startup', 'icon': {'prefix': 'https://ss3.4sqi.net/img/categories_v2/shops/technology_', 'suffix': '.png'}, 'primary': True}]",,FR,,France,5acdc5570ff4f94edf58b94a,48.098399,-1.699618,Advalo,35000,4bf58dd8d48988d125941735,Tech Startup,Bretagne
8,"[{'id': '4bf58dd8d48988d125941735', 'name': 'Tech Startup', 'pluralName': 'Tech Startups', 'shortName': 'Tech Startup', 'icon': {'prefix': 'https://ss3.4sqi.net/img/categories_v2/shops/technology_', 'suffix': '.png'}, 'primary': True}]",,FR,,France,54e64378498e902f448d45ab,48.11179031599354,-1.6793042421340942,ImMinimalist,35000,4bf58dd8d48988d125941735,Tech Startup,Bretagne
9,"[{'id': '4bf58dd8d48988d125941735', 'name': 'Tech Startup', 'pluralName': 'Tech Startups', 'shortName': 'Tech Startup', 'icon': {'prefix': 'https://ss3.4sqi.net/img/categories_v2/shops/technology_', 'suffix': '.png'}, 'primary': True}]",,FR,,France,4f42476ae4b080aa7a1e7d6d,48.099205412683354,-1.6175567784223042,Voyelle.fr,35135,4bf58dd8d48988d125941735,Tech Startup,Bretagne
10,"[{'id': '4bf58dd8d48988d125941735', 'name': 'Tech Startup', 'pluralName': 'Tech Startups', 'shortName': 'Tech Startup', 'icon': {'prefix': 'https://ss3.4sqi.net/img/categories_v2/shops/technology_', 'suffix': '.png'}, 'primary': True}]",,FR,,France,4f8479b6e4b02ab945932be6,48.12147390475564,-1.6626059119258014,fjob,35700,4bf58dd8d48988d125941735,Tech Startup,Bretagne
11,"[{'id': '4bf58dd8d48988d125941735', 'name': 'Tech Startup', 'pluralName': 'Tech Startups', 'shortName': 'Tech Startup', 'icon': {'prefix': 'https://ss3.4sqi.net/img/categories_v2/shops/technology_', 'suffix': '.png'}, 'primary': True}]",,FR,,France,5242a5e211d24d1140aa0245,48.12586,-1.629528,Gallium,,4bf58dd8d48988d125941735,Tech Startup,
12,"[{'id': '4bf58dd8d48988d125941735', 'name': 'Tech Startup', 'pluralName': 'Tech Startups', 'shortName': 'Tech Startup', 'icon': {'prefix': 'https://ss3.4sqi.net/img/categories_v2/shops/technology_', 'suffix': '.png'}, 'primary': True}]",,FR,,France,4f5f368fe4b0697e363085c5,48.114496460049196,-1.683547920584855,Thinking Factory Ltd,35000,4bf58dd8d48988d125941735,Tech Startup,Bretagne
13,"[{'id': '4bf58dd8d48988d125941735', 'name': 'Tech Startup', 'pluralName': 'Tech Startups', 'shortName': 'Tech Startup', 'icon': {'prefix': 'https://ss3.4sqi.net/img/categories_v2/shops/technology_', 'suffix': '.png'}, 'primary': True}]",,FR,,France,4f68b907e5e8c09d6493e96e,48.08642195945275,-1.6989541053771973,Cinatis,35200,4bf58dd8d48988d125941735,Tech Startup,Bretagne
14,"[{'id': '4bf58dd8d48988d125941735', 'name': 'Tech Startup', 'pluralName': 'Tech Startups', 'shortName': 'Tech Startup', 'icon': {'prefix': 'https://ss3.4sqi.net/img/categories_v2/shops/technology_', 'suffix': '.png'}, 'primary': True}]",,FR,,France,4bab2e48f964a52026983ae3,48.11973751872352,-1.6294527053833008,Incubateur Télécom Bretagne - Rennes,35576,4bf58dd8d48988d125941735,Tech Startup,Bretagne
15,"[{'id': '4bf58dd8d48988d125941735', 'name': 'Tech Startup', 'pluralName': 'Tech Startups', 'shortName': 'Tech Startup', 'icon': {'prefix': 'https://ss3.4sqi.net/img/categories_v2/shops/technology_', 'suffix': '.png'}, 'primary': True}]",,FR,,France,4e65e9256365c91912922724,48.10491809706802,-1.7326003437974091,Ciblage & Performance,35000,4bf58dd8d48988d125941735,Tech Startup,Bretagne
16,"[{'id': '4bf58dd8d48988d125941735', 'name': 'Tech Startup', 'pluralName': 'Tech Startups', 'shortName': 'Tech Startup', 'icon': {'prefix': 'https://ss3.4sqi.net/img/categories_v2/shops/technology_', 'suffix': '.png'}, 'primary': True}]",,FR,,France,4d8891947139b1f7b22aa3d4,48.0878162,-1.62225536,Effitic,35135,4bf58dd8d48988d125941735,Tech Startup,Bretagne
17,"[{'id': '4bf58dd8d48988d125941735', 'name': 'Tech Startup', 'pluralName': 'Tech Startups', 'shortName': 'Tech Startup', 'icon': {'prefix': 'https://ss3.4sqi.net/img/categories_v2/shops/technology_', 'suffix': '.png'}, 'primary': True}]",,FR,,France,57347eb3498e3f53e39c4fed,48.1160917712065,-1.6778075695037842,Le Shift,35000,4bf58dd8d48988d125941735,Tech Startup,Bretagne
18,"[{'id': '4bf58dd8d48988d125941735', 'name': 'Tech Startup', 'pluralName': 'Tech Startups', 'shortName': 'Tech Startup', 'icon': {'prefix': 'https://ss3.4sqi.net/img/categories_v2/shops/technology_', 'suffix': '.png'}, 'primary': True}]",,FR,,France,56289bc0498e8d365fc9c8ba,48.11438050053207,-1.6178374149748715,Kurmi,,4bf58dd8d48988d125941735,Tech Startup,Bretagne
19,"[{'id': '4bf58dd8d48988d125941735', 'name': 'Tech Startup', 'pluralName': 'Tech Startups', 'shortName': 'Tech Startup', 'icon': {'prefix': 'https://ss3.4sqi.net/img/categories_v2/shops/technology_', 'suffix': '.png'}, 'primary': True}]",,FR,,France,569f8986498ef41b7c14906c,48.09649,-1.6575173,Move4Ideas,,4bf58dd8d48988d125941735,Tech Startup,Bretagne
20,"[{'id': '4bf58dd8d48988d125941735', 'name': 'Tech Startup', 'pluralName': 'Tech Startups', 'shortName': 'Tech Startup', 'icon': {'prefix': 'https://ss3.4sqi.net/img/categories_v2/shops/technology_', 'suffix': '.png'}, 'primary': True}]",,FR,,France,568a755138fa80c613a684e5,48.1113,-1.6812404,Keepeek,35000,4bf58dd8d48988d125941735,Tech Startup,Bretagne
21,"[{'id': '4bf58dd8d48988d125941735', 'name': 'Tech Startup', 'pluralName': 'Tech Startups', 'shortName': 'Tech Startup', 'icon': {'prefix': 'https://ss3.4sqi.net/img/categories_v2/shops/technology_', 'suffix': '.png'}, 'primary': True}]",,FR,,France,4d514229e0275481e99ea8b6,48.15418922334143,-1.6961020859831843,FrenchGamers.com,,4bf58dd8d48988d125941735,Tech Startup,
22,"[{'id': '4bf58dd8d48988d125941735', 'name': 'Tech Startup', 'pluralName': 'Tech Startups', 'shortName': 'Tech Startup', 'icon': {'prefix': 'https://ss3.4sqi.net/img/categories_v2/shops/technology_', 'suffix': '.png'}, 'primary': True}]",,FR,,France,507d1539e4b06a750cb178e2,48.12533228927415,-1.6299873763872008,Ariadnext,,4bf58dd8d48988d125941735,Tech Startup,
23,"[{'id': '4bf58dd8d48988d125941735', 'name': 'Tech Startup', 'pluralName': 'Tech Startups', 'shortName': 'Tech Startup', 'icon': {'prefix': 'https://ss3.4sqi.net/img/categories_v2/shops/technology_', 'suffix': '.png'}, 'primary': True}]",,FR,,France,4e8dc9f1b803ca3dfcecf08a,48.11479398376781,-1.6864999676267274,Havas 360 Rennes - Digital Tank,,4bf58dd8d48988d125941735,Tech Startup,
24,"[{'id': '4bf58dd8d48988d125941735', 'name': 'Tech Startup', 'pluralName': 'Tech Startups', 'shortName': 'Tech Startup', 'icon': {'prefix': 'https://ss3.4sqi.net/img/categories_v2/shops/technology_', 'suffix': '.png'}, 'primary': True}]",,FR,,France,52f8d0d7498ef1db8a7c8122,48.11517,-1.71686,Innès,,4bf58dd8d48988d125941735,Tech Startup,
25,"[{'id': '4bf58dd8d48988d125941735', 'name': 'Tech Startup', 'pluralName': 'Tech Startups', 'shortName': 'Tech Startup', 'icon': {'prefix': 'https://ss3.4sqi.net/img/categories_v2/shops/technology_', 'suffix': '.png'}, 'primary': True}]",,FR,,France,51b86e2e498e919a7d6ce3e1,48.09849845266354,-1.6991473960623895,Digitaleo,,4bf58dd8d48988d125941735,Tech Startup,
26,"[{'id': '4bf58dd8d48988d125941735', 'name': 'Tech Startup', 'pluralName': 'Tech Startups', 'shortName': 'Tech Startup', 'icon': {'prefix': 'https://ss3.4sqi.net/img/categories_v2/shops/technology_', 'suffix': '.png'}, 'primary': True}]",,FR,,France,50d07a9352627d48ed82d7ec,48.1051493942046,-1.6689133644104004,Un coin d'pixel,35000,4bf58dd8d48988d125941735,Tech Startup,Bretagne
27,"[{'id': '4bf58dd8d48988d125941735', 'name': 'Tech Startup', 'pluralName': 'Tech Startups', 'shortName': 'Tech Startup', 'icon': {'prefix': 'https://ss3.4sqi.net/img/categories_v2/shops/technology_', 'suffix': '.png'}, 'primary': True}]",,FR,,France,4f2523e8e4b0eec7fee6870f,48.15200188112106,-1.6855184140766122,Awedia,35760,4bf58dd8d48988d125941735,Tech Startup,Bretagne
28,"[{'id': '4bf58dd8d48988d125941735', 'name': 'Tech Startup', 'pluralName': 'Tech Startups', 'shortName': 'Tech Startup', 'icon': {'prefix': 'https://ss3.4sqi.net/img/categories_v2/shops/technology_', 'suffix': '.png'}, 'primary': True}]",,FR,,France,57fc9fb8498e8ad49fb9a410,48.10434,-1.671179,cherry Biotech,35000,4bf58dd8d48988d125941735,Tech Startup,Bretagne
29,"[{'id': '4bf58dd8d48988d125941735', 'name': 'Tech Startup', 'pluralName': 'Tech Startups', 'shortName': 'Tech Startup', 'icon': {'prefix': 'https://ss3.4sqi.net/img/categories_v2/shops/technology_', 'suffix': '.png'}, 'primary': True}]",,FR,,France,53725ae5498ea1264b9a03a0,48.115124781011424,-1.7156481742858887,HCS Pharma,35000,4bf58dd8d48988d125941735,Tech Startup,Bretagne
30,"[{'id': '4bf58dd8d48988d125941735', 'name': 'Tech Startup', 'pluralName': 'Tech Startups', 'shortName': 'Tech Startup', 'icon': {'prefix': 'https://ss3.4sqi.net/img/categories_v2/shops/technology_', 'suffix': '.png'}, 'primary': True}]",,FR,,France,4c067a50191f20a12290e414,48.13215216736922,-1.6234504608470988,Gfi Informatique,,4bf58dd8d48988d125941735,Tech Startup,
31,"[{'id': '52e81612bcbc57f1066b7a3d', 'name': 'Advertising Agency', 'pluralName': 'Advertising Agencies', 'shortName': 'Advertising Agency', 'icon': {'prefix': 'https://ss3.4sqi.net/img/categories_v2/building/default_', 'suffix': '.png'}, 'primary': True}]",,FR,,France,4be6bb3c2457a5938f13ad15,48.11374947472005,-1.6617250442504883,woOtzhome,35000,52e81612bcbc57f1066b7a3d,Advertising Agency,Bretagne
32,"[{'id': '4bf58dd8d48988d125941735', 'name': 'Tech Startup', 'pluralName': 'Tech Startups', 'shortName': 'Tech Startup', 'icon': {'prefix': 'https://ss3.4sqi.net/img/categories_v2/shops/technology_', 'suffix': '.png'}, 'primary': True}]",,FR,,France,4fdd5947e4b0e07803469af6,48.10603901396247,-1.6958153412618424,Studio,,4bf58dd8d48988d125941735,Tech Startup,
33,"[{'id': '4bf58dd8d48988d125941735', 'name': 'Tech Startup', 'pluralName': 'Tech Startups', 'shortName': 'Tech Startup', 'icon': {'prefix': 'https://ss3.4sqi.net/img/categories_v2/shops/technology_', 'suffix': '.png'}, 'primary': True}]",,FR,,France,4cb5628a58b6ef3b7d68270c,48.10850936371937,-1.6808760166168213,Agence Studiotic,35000,4bf58dd8d48988d125941735,Tech Startup,Bretagne
34,"[{'id': '4bf58dd8d48988d125941735', 'name': 'Tech Startup', 'pluralName': 'Tech Startups', 'shortName': 'Tech Startup', 'icon': {'prefix': 'https://ss3.4sqi.net/img/categories_v2/shops/technology_', 'suffix': '.png'}, 'primary': True}]",,FR,,France,4f1fbd07771650cfa5abe6e9,48.13250812867654,-1.6358739137649536,Net-NG,35700,4bf58dd8d48988d125941735,Tech Startup,Bretagne
35,"[{'id': '4bf58dd8d48988d125941735', 'name': 'Tech Startup', 'pluralName': 'Tech Startups', 'shortName': 'Tech Startup', 'icon': {'prefix': 'https://ss3.4sqi.net/img/categories_v2/shops/technology_', 'suffix': '.png'}, 'primary': True}]",,FR,,France,500d5cd1e4b0c2a4e124a683,48.1078156,-1.6781031,STUDIO AMA BRETAGNE,35000,4bf58dd8d48988d125941735,Tech Startup,Bretagne
36,"[{'id': '4bf58dd8d48988d125941735', 'name': 'Tech Startup', 'pluralName': 'Tech Startups', 'shortName': 'Tech Startup', 'icon': {'prefix': 'https://ss3.4sqi.net/img/categories_v2/shops/technology_', 'suffix': '.png'}, 'primary': True}]",,FR,,France,4bfa2248508c0f4792d33f31,48.132538334610246,-1.6909410160148557,Streamezzo Amdocs,35000,4bf58dd8d48988d125941735,Tech Startup,Bretagne
37,"[{'id': '4bf58dd8d48988d125941735', 'name': 'Tech Startup', 'pluralName': 'Tech Startups', 'shortName': 'Tech Startup', 'icon': {'prefix': 'https://ss3.4sqi.net/img/categories_v2/shops/technology_', 'suffix': '.png'}, 'primary': True}]",,FR,,France,4fe485f3e4b037f4b634e802,48.12358,-1.660507,Scenarii,35200,4bf58dd8d48988d125941735,Tech Startup,Bretagne
38,"[{'id': '4bf58dd8d48988d125941735', 'name': 'Tech Startup', 'pluralName': 'Tech Startups', 'shortName': 'Tech Startup', 'icon': {'prefix': 'https://ss3.4sqi.net/img/categories_v2/shops/technology_', 'suffix': '.png'}, 'primary': True}]",,FR,,France,563071e0498e1810fcd3be0d,48.08914533147951,-1.692366600036621,FormaTIC Création,35200,4bf58dd8d48988d125941735,Tech Startup,Bretagne
39,"[{'id': '4bf58dd8d48988d125941735', 'name': 'Tech Startup', 'pluralName': 'Tech Startups', 'shortName': 'Tech Startup', 'icon': {'prefix': 'https://ss3.4sqi.net/img/categories_v2/shops/technology_', 'suffix': '.png'}, 'primary': True}]",,FR,,France,4dbaca1681548ee14d805c0b,48.116339373955135,-1.6813018004705476,Dotgee,35200,4bf58dd8d48988d125941735,Tech Startup,Bretagne
40,"[{'id': '4bf58dd8d48988d125941735', 'name': 'Tech Startup', 'pluralName': 'Tech Startups', 'shortName': 'Tech Startup', 'icon': {'prefix': 'https://ss3.4sqi.net/img/categories_v2/shops/technology_', 'suffix': '.png'}, 'primary': True}]",,FR,,France,50d078ba52627d48ed801765,48.09868316319339,-1.6168463230133057,Cartelmatic,35135,4bf58dd8d48988d125941735,Tech Startup,Bretagne
41,"[{'id': '4bf58dd8d48988d125941735', 'name': 'Tech Startup', 'pluralName': 'Tech Startups', 'shortName': 'Tech Startup', 'icon': {'prefix': 'https://ss3.4sqi.net/img/categories_v2/shops/technology_', 'suffix': '.png'}, 'primary': True}]",,FR,,France,4f561b567b0ca24d35663fdb,48.11066743723673,-1.665702760219574,Alexandre Ionoff - Conception Web,35000,4bf58dd8d48988d125941735,Tech Startup,Bretagne
42,"[{'id': '4bf58dd8d48988d125941735', 'name': 'Tech Startup', 'pluralName': 'Tech Startups', 'shortName': 'Tech Startup', 'icon': {'prefix': 'https://ss3.4sqi.net/img/categories_v2/shops/technology_', 'suffix': '.png'}, 'primary': True}]",,FR,,France,4fdb3fa9e4b0fdc50d313b2f,48.119773864746094,-1.629291296005249,Semsoft,,4bf58dd8d48988d125941735,Tech Startup,
43,"[{'id': '4bf58dd8d48988d125941735', 'name': 'Tech Startup', 'pluralName': 'Tech Startups', 'shortName': 'Tech Startup', 'icon': {'prefix': 'https://ss3.4sqi.net/img/categories_v2/shops/technology_', 'suffix': '.png'}, 'primary': True}]",,FR,,France,50f0136ce4b0591d133014a2,48.107707,-1.677863,e-liberte,,4bf58dd8d48988d125941735,Tech Startup,
44,"[{'id': '4bf58dd8d48988d125941735', 'name': 'Tech Startup', 'pluralName': 'Tech Startups', 'shortName': 'Tech Startup', 'icon': {'prefix': 'https://ss3.4sqi.net/img/categories_v2/shops/technology_', 'suffix': '.png'}, 'primary': True}]",,FR,,France,4e292ec41fc7f0a6e149e4ef,48.13006453829942,-1.6425204277038574,Tocea,35700,4bf58dd8d48988d125941735,Tech Startup,Bretagne
45,"[{'id': '4bf58dd8d48988d125941735', 'name': 'Tech Startup', 'pluralName': 'Tech Startups', 'shortName': 'Tech Startup', 'icon': {'prefix': 'https://ss3.4sqi.net/img/categories_v2/shops/technology_', 'suffix': '.png'}, 'primary': True}]",,FR,,France,5183dd67498eb93ba218af4e,48.116875,-1.674213,Kalixo,35000,4bf58dd8d48988d125941735,Tech Startup,Bretagne
46,"[{'id': '4bf58dd8d48988d125941735', 'name': 'Tech Startup', 'pluralName': 'Tech Startups', 'shortName': 'Tech Startup', 'icon': {'prefix': 'https://ss3.4sqi.net/img/categories_v2/shops/technology_', 'suffix': '.png'}, 'primary': True}]",,FR,,France,4f2bb3ffe4b0a98a48bac7e9,48.12614182813053,-1.629730335694093,Broadpeak,35000,4bf58dd8d48988d125941735,Tech Startup,
47,"[{'id': '4bf58dd8d48988d125941735', 'name': 'Tech Startup', 'pluralName': 'Tech Startups', 'shortName': 'Tech Startup', 'icon': {'prefix': 'https://ss3.4sqi.net/img/categories_v2/shops/technology_', 'suffix': '.png'}, 'primary': True}]",,FR,,France,4c924b2651d9b1f7c0b68746,48.13233157504302,-1.6831932097182154,Creative ingenierie,,4bf58dd8d48988d125941735,Tech Startup,
48,"[{'id': '4bf58dd8d48988d125941735', 'name': 'Tech Startup', 'pluralName': 'Tech Startups', 'shortName': 'Tech Startup', 'icon': {'prefix': 'https://ss3.4sqi.net/img/categories_v2/shops/technology_', 'suffix': '.png'}, 'primary': True}]",,FR,,France,4f0f160be4b0a8783efb470d,48.1092100103089,-1.6645687234278066,L'œil au carré,35000,4bf58dd8d48988d125941735,Tech Startup,Bretagne
49,"[{'id': '4bf58dd8d48988d125941735', 'name': 'Tech Startup', 'pluralName': 'Tech Startups', 'shortName': 'Tech Startup', 'icon': {'prefix': 'https://ss3.4sqi.net/img/categories_v2/shops/technology_', 'suffix': '.png'}, 'primary': True}]",,FR,,France,4d5101899b27721e956cb346,48.11313847543299,-1.7131380190486538,Proservia,35000,4bf58dd8d48988d125941735,Tech Startup,Bretagne
2,"[{'id': '4bf58dd8d48988d125941735', 'name': 'Tech Startup', 'pluralName': 'Tech Startups', 'shortName': 'Tech Startup', 'icon': {'prefix': 'https://ss3.4sqi.net/img/categories_v2/shops/technology_', 'suffix': '.png'}, 'primary': True}]",,FR,,France,4ff144b1e4b0309855db1928,48.076024110677366,-1.6021062957983363,Astellia,35770,4bf58dd8d48988d125941735,Tech Startup,Bretagne
11,"[{'id': '4bf58dd8d48988d125941735', 'name': 'Tech Startup', 'pluralName': 'Tech Startups', 'shortName': 'Tech Startup', 'icon': {'prefix': 'https://ss3.4sqi.net/img/categories_v2/shops/technology_', 'suffix': '.png'}, 'primary': True}]",,FR,,France,4e8b13b761afcc24d9957c6a,48.114217,-1.604919,TC (telephonie Centrale),,4bf58dd8d48988d125941735,Tech Startup,Bretagne
15,"[{'id': '4bf58dd8d48988d125941735', 'name': 'Tech Startup', 'pluralName': 'Tech Startups', 'shortName': 'Tech Startup', 'icon': {'prefix': 'https://ss3.4sqi.net/img/categories_v2/shops/technology_', 'suffix': '.png'}, 'primary': True}]",,FR,,France,4d2d7006853ff04d80cac8da,48.1137572,-1.5884071000000002,Wizdeo,35510,4bf58dd8d48988d125941735,Tech Startup,Bretagne
19,"[{'id': '4bf58dd8d48988d125941735', 'name': 'Tech Startup', 'pluralName': 'Tech Startups', 'shortName': 'Tech Startup', 'icon': {'prefix': 'https://ss3.4sqi.net/img/categories_v2/shops/technology_', 'suffix': '.png'}, 'primary': True}]",,FR,,France,5224618a11d2cb138058e2cb,48.134286590991344,-1.6201970452978738,Proservia,35576,4bf58dd8d48988d125941735,Tech Startup,Bretagne
23,"[{'id': '4bf58dd8d48988d125941735', 'name': 'Tech Startup', 'pluralName': 'Tech Startups', 'shortName': 'Tech Startup', 'icon': {'prefix': 'https://ss3.4sqi.net/img/categories_v2/shops/technology_', 'suffix': '.png'}, 'primary': True}]",,FR,,France,5194c2de498e91fb3ed59c61,48.134477,-1.620273,BlueFox,,4bf58dd8d48988d125941735,Tech Startup,
29,"[{'id': '4bf58dd8d48988d125941735', 'name': 'Tech Startup', 'pluralName': 'Tech Startups', 'shortName': 'Tech Startup', 'icon': {'prefix': 'https://ss3.4sqi.net/img/categories_v2/shops/technology_', 'suffix': '.png'}, 'primary': True}]",,FR,,France,522ee7dc11d21b85bae219e0,48.12531998364213,-1.628996954689843,Mobizel,35000,4bf58dd8d48988d125941735,Tech Startup,Bretagne
30,"[{'id': '4bf58dd8d48988d125941735', 'name': 'Tech Startup', 'pluralName': 'Tech Startups', 'shortName': 'Tech Startup', 'icon': {'prefix': 'https://ss3.4sqi.net/img/categories_v2/shops/technology_', 'suffix': '.png'}, 'primary': True}]",,FR,,France,5087d03ee4b097b4d902d4f4,48.126803,-1.627278,Toilettes en face de l'amphi,35512,4bf58dd8d48988d125941735,Tech Startup,
31,"[{'id': '4bf58dd8d48988d125941735', 'name': 'Tech Startup', 'pluralName': 'Tech Startups', 'shortName': 'Tech Startup', 'icon': {'prefix': 'https://ss3.4sqi.net/img/categories_v2/shops/technology_', 'suffix': '.png'}, 'primary': True}]",,FR,,France,4cab333097c8a1cdad1199a5,48.10629060711363,-1.6214022536639552,In Cite Solution,35510,4bf58dd8d48988d125941735,Tech Startup,Bretagne
32,"[{'id': '4bf58dd8d48988d125941735', 'name': 'Tech Startup', 'pluralName': 'Tech Startups', 'shortName': 'Tech Startup', 'icon': {'prefix': 'https://ss3.4sqi.net/img/categories_v2/shops/technology_', 'suffix': '.png'}, 'primary': True}]",,FR,,France,4f059cacf790d4c1a2cb08e5,48.113976352424494,-1.6024953580880332,Optavis,,4bf58dd8d48988d125941735,Tech Startup,Bretagne
0,"[{'id': '4bf58dd8d48988d125941735', 'name': 'Tech Startup', 'pluralName': 'Tech Startups', 'shortName': 'Tech Startup', 'icon': {'prefix': 'https://ss3.4sqi.net/img/categories_v2/shops/technology_', 'suffix': '.png'}, 'primary': True}]",,FR,,France,4e64df8c45ddda352a9a885a,48.064472,-1.526166,Groupe C2R,35410,4bf58dd8d48988d125941735,Tech Startup,Bretagne
0,"[{'id': '4bf58dd8d48988d125941735', 'name': 'Tech Startup', 'pluralName': 'Tech Startups', 'shortName': 'Tech Startup', 'icon': {'prefix': 'https://ss3.4sqi.net/img/categories_v2/shops/technology_', 'suffix': '.png'}, 'primary': True}]",,FR,,France,520b61d3498ee269bb168fd8,48.63553288230031,-1.991130612559788,Awedia Saint-Malo,,4bf58dd8d48988d125941735,Tech Startup,
1,"[{'id': '4bf58dd8d48988d125941735', 'name': 'Tech Startup', 'pluralName': 'Tech Startups', 'shortName': 'Tech Startup', 'icon': {'prefix': 'https://ss3.4sqi.net/img/categories_v2/shops/technology_', 'suffix': '.png'}, 'primary': True}]",,FR,,France,4e3ff353c65b4ec27602469b,48.63532463674977,-2.0242873754220856,L Annexe De Mon Bureau A Solidor,,4bf58dd8d48988d125941735,Tech Startup,Bretagne
2,"[{'id': '4bf58dd8d48988d125941735', 'name': 'Tech Startup', 'pluralName': 'Tech Startups', 'shortName': 'Tech Startup', 'icon': {'prefix': 'https://ss3.4sqi.net/img/categories_v2/shops/technology_', 'suffix': '.png'}, 'primary': True}]",,FR,,France,50616100e4b07f87196fb046,48.62890129840623,-1.9780627722227835,Alkante,35400,4bf58dd8d48988d125941735,Tech Startup,Bretagne
4,"[{'id': '4bf58dd8d48988d125941735', 'name': 'Tech Startup', 'pluralName': 'Tech Startups', 'shortName': 'Tech Startup', 'icon': {'prefix': 'https://ss3.4sqi.net/img/categories_v2/shops/technology_', 'suffix': '.png'}, 'primary': True}]",,FR,,France,4feaeafde4b03c9494709cec,48.06572325395986,-1.622374570677048,Somaintel,35770,4bf58dd8d48988d125941735,Tech Startup,Bretagne
6,"[{'id': '4bf58dd8d48988d1f4941735', 'name': 'Design Studio', 'pluralName': 'Design Studios', 'shortName': 'Design', 'icon': {'prefix': 'https://ss3.4sqi.net/img/categories_v2/shops/design_', 'suffix': '.png'}, 'primary': True}]",,FR,,France,4e57a33418a82d0a33483b12,48.06213607979422,-1.604379168479551,MBA Multimedia,35770,4bf58dd8d48988d1f4941735,Design Studio,Bretagne
34,"[{'id': '4bf58dd8d48988d125941735', 'name': 'Tech Startup', 'pluralName': 'Tech Startups', 'shortName': 'Tech Startup', 'icon': {'prefix': 'https://ss3.4sqi.net/img/categories_v2/shops/technology_', 'suffix': '.png'}, 'primary': True}]",,FR,,France,500e485ae4b0ded039d5f7ae,48.0821789457898,-1.6788974461643331,Aborama,35000,4bf58dd8d48988d125941735,Tech Startup,Bretagne
16,"[{'id': '4bf58dd8d48988d125941735', 'name': 'Tech Startup', 'pluralName': 'Tech Startups', 'shortName': 'Tech Startup', 'icon': {'prefix': 'https://ss3.4sqi.net/img/categories_v2/shops/technology_', 'suffix': '.png'}, 'primary': True}]",,FR,,France,4e1576c7b0fb1946c793c491,48.092857,-1.777505,Neli Technologies,,4bf58dd8d48988d125941735,Tech Startup,Bretagne
24,"[{'id': '4bf58dd8d48988d125941735', 'name': 'Tech Startup', 'pluralName': 'Tech Startups', 'shortName': 'Tech Startup', 'icon': {'prefix': 'https://ss3.4sqi.net/img/categories_v2/shops/technology_', 'suffix': '.png'}, 'primary': True}]",,FR,,France,542e604f498ef1e0305d775d,48.10594741099672,-1.7326618681350456,Hiboost,35000,4bf58dd8d48988d125941735,Tech Startup,Bretagne
26,"[{'id': '4bf58dd8d48988d125941735', 'name': 'Tech Startup', 'pluralName': 'Tech Startups', 'shortName': 'Tech Startup', 'icon': {'prefix': 'https://ss3.4sqi.net/img/categories_v2/shops/technology_', 'suffix': '.png'}, 'primary': True}]",,FR,,France,5110c080183fb9749eddaeb1,48.11526087702818,-1.708974838256836,Dolmen Technologies,35000,4bf58dd8d48988d125941735,Tech Startup,Bretagne
27,"[{'id': '4bf58dd8d48988d125941735', 'name': 'Tech Startup', 'pluralName': 'Tech Startups', 'shortName': 'Tech Startup', 'icon': {'prefix': 'https://ss3.4sqi.net/img/categories_v2/shops/technology_', 'suffix': '.png'}, 'primary': True}]",,FR,,France,4f609dcbd5fb16f55f6a6710,48.10682139075704,-1.6907491092014915,Mktlines,35000,4bf58dd8d48988d125941735,Tech Startup,Bretagne
28,"[{'id': '4bf58dd8d48988d125941735', 'name': 'Tech Startup', 'pluralName': 'Tech Startups', 'shortName': 'Tech Startup', 'icon': {'prefix': 'https://ss3.4sqi.net/img/categories_v2/shops/technology_', 'suffix': '.png'}, 'primary': True}]",,FR,,France,4fce192be4b0589b099aea4d,48.105705277412675,-1.7082338825980055,salle de réunion du 1er / Regionsjob,35000,4bf58dd8d48988d125941735,Tech Startup,Bretagne
29,"[{'id': '4bf58dd8d48988d125941735', 'name': 'Tech Startup', 'pluralName': 'Tech Startups', 'shortName': 'Tech Startup', 'icon': {'prefix': 'https://ss3.4sqi.net/img/categories_v2/shops/technology_', 'suffix': '.png'}, 'primary': True}]",,FR,,France,4d9c1a7bab0c3704dacebc67,48.086373745867995,-1.6992139750363298,Saooti,35000,4bf58dd8d48988d125941735,Tech Startup,Bretagne
0,"[{'id': '4bf58dd8d48988d125941735', 'name': 'Tech Startup', 'pluralName': 'Tech Startups', 'shortName': 'Tech Startup', 'icon': {'prefix': 'https://ss3.4sqi.net/img/categories_v2/shops/technology_', 'suffix': '.png'}, 'primary': True}]",,FR,,France,51ba05f3498ee45c499bc78e,48.167769,-1.652798,ubiplex,,4bf58dd8d48988d125941735,Tech Startup,
2,"[{'id': '4bf58dd8d48988d125941735', 'name': 'Tech Startup', 'pluralName': 'Tech Startups', 'shortName': 'Tech Startup', 'icon': {'prefix': 'https://ss3.4sqi.net/img/categories_v2/shops/technology_', 'suffix': '.png'}, 'primary': True}]",,FR,,France,5056e8b6e4b01f3aa6924d9d,48.159004977702466,-1.6898810167567935,Askom Agent Virtuel,35760,4bf58dd8d48988d125941735,Tech Startup,Bretagne
3,"[{'id': '4bf58dd8d48988d125941735', 'name': 'Tech Startup', 'pluralName': 'Tech Startups', 'shortName': 'Tech Startup', 'icon': {'prefix': 'https://ss3.4sqi.net/img/categories_v2/shops/technology_', 'suffix': '.png'}, 'primary': True}]",,FR,,France,504dbd60e4b09a443276a362,48.183765,-1.65078,Vegazvegaz Inc.,,4bf58dd8d48988d125941735,Tech Startup,
0,"[{'id': '4bf58dd8d48988d125941735', 'name': 'Tech Startup', 'pluralName': 'Tech Startups', 'shortName': 'Tech Startup', 'icon': {'prefix': 'https://ss3.4sqi.net/img/categories_v2/shops/technology_', 'suffix': '.png'}, 'primary': True}]",,FR,,France,509bac87e4b077a116f9c98c,48.110543,-1.177869,Decofestive,,4bf58dd8d48988d125941735,Tech Startup,
0,"[{'id': '4bf58dd8d48988d125941735', 'name': 'Tech Startup', 'pluralName': 'Tech Startups', 'shortName': 'Tech Startup', 'icon': {'prefix': 'https://ss3.4sqi.net/img/categories_v2/shops/technology_', 'suffix': '.png'}, 'primary': True}]",,FR,,France,5177d613e4b0de6e7f61d9ff,48.353931,-1.201106,StartUp,35300,4bf58dd8d48988d125941735,Tech Startup,Bretagne
1,"[{'id': '4bf58dd8d48988d125941735', 'name': 'Tech Startup', 'pluralName': 'Tech Startups', 'shortName': 'Tech Startup', 'icon': {'prefix': 'https://ss3.4sqi.net/img/categories_v2/shops/technology_', 'suffix': '.png'}, 'primary': True}]",,FR,,France,5587b83f498e4e0b31548e59,48.35198554186253,-1.1986041069030762,TelUrban,35300,4bf58dd8d48988d125941735,Tech Startup,Bretagne
0,"[{'id': '4bf58dd8d48988d125941735', 'name': 'Tech Startup', 'pluralName': 'Tech Startups', 'shortName': 'Tech Startup', 'icon': {'prefix': 'https://ss3.4sqi.net/img/categories_v2/shops/technology_', 'suffix': '.png'}, 'primary': True}]",,FR,,France,4de6166d18389f0558705604,48.0327939,-1.7601393,TazTag,,4bf58dd8d48988d125941735,Tech Startup,Bretagne
2,"[{'id': '4bf58dd8d48988d125941735', 'name': 'Tech Startup', 'pluralName': 'Tech Startups', 'shortName': 'Tech Startup', 'icon': {'prefix': 'https://ss3.4sqi.net/img/categories_v2/shops/technology_', 'suffix': '.png'}, 'primary': True}]",,FR,,France,4e44de3cd4c02cf15f679ee5,48.089171,-1.786845,Nilfisk,,4bf58dd8d48988d125941735,Tech Startup,Bretagne
0,"[{'id': '4bf58dd8d48988d125941735', 'name': 'Tech Startup', 'pluralName': 'Tech Startups', 'shortName': 'Tech Startup', 'icon': {'prefix': 'https://ss3.4sqi.net/img/categories_v2/shops/technology_', 'suffix': '.png'}, 'primary': True}]",,FR,,France,52495e55498ee1e66bb22d5d,48.21974880964299,-1.756269494887275,Geomap,,4bf58dd8d48988d125941735,Tech Startup,
0,"[{'id': '4bf58dd8d48988d125941735', 'name': 'Tech Startup', 'pluralName': 'Tech Startups', 'shortName': 'Tech Startup', 'icon': {'prefix': 'https://ss3.4sqi.net/img/categories_v2/shops/technology_', 'suffix': '.png'}, 'primary': True}]",,FR,,France,4f6debf3e4b0ca47b15ef88a,47.919573825780056,-1.8605527739498338,Bobby Services,35580,4bf58dd8d48988d125941735,Tech Startup,Bretagne
0,"[{'id': '4bf58dd8d48988d125941735', 'name': 'Tech Startup', 'pluralName': 'Tech Startups', 'shortName': 'Tech Startup', 'icon': {'prefix': 'https://ss3.4sqi.net/img/categories_v2/shops/technology_', 'suffix': '.png'}, 'primary': True}]",,FR,,France,4f2fbb58e4b050b64b7a4c26,48.14730109718793,-1.786565587660955,inoveha,,4bf58dd8d48988d125941735,Tech Startup,
1,"[{'id': '4bf58dd8d48988d125941735', 'name': 'Tech Startup', 'pluralName': 'Tech Startups', 'shortName': 'Tech Startup', 'icon': {'prefix': 'https://ss3.4sqi.net/img/categories_v2/shops/technology_', 'suffix': '.png'}, 'primary': True}]",,FR,,France,4fb3b135e4b088c4ea6df3bb,48.145823,-1.76161,Toillettes immeuble oméga,,4bf58dd8d48988d125941735,Tech Startup,
4,"[{'id': '4bf58dd8d48988d125941735', 'name': 'Tech Startup', 'pluralName': 'Tech Startups', 'shortName': 'Tech Startup', 'icon': {'prefix': 'https://ss3.4sqi.net/img/categories_v2/shops/technology_', 'suffix': '.png'}, 'primary': True}]",,FR,,France,4fb0ea3fe4b0a5d4c1765ea0,48.14570692689178,-1.7618273738604797,Openlog - Genious Interactive,35740,4bf58dd8d48988d125941735,Tech Startup,Bretagne
5,"[{'id': '52f2ab2ebcbc57f1066b8b36', 'name': 'IT Services', 'pluralName': 'IT Services', 'shortName': 'IT Services', 'icon': {'prefix': 'https://ss3.4sqi.net/img/categories_v2/shops/technology_', 'suffix': '.png'}, 'primary': True}]",,FR,,France,5289b76f11d222c37d6b0857,48.14486002641252,-1.7654109798223874,Groupe Abi France,35740,52f2ab2ebcbc57f1066b8b36,IT Services,Bretagne
0,"[{'id': '4bf58dd8d48988d124941735', 'name': 'Office', 'pluralName': 'Offices', 'shortName': 'Office', 'icon': {'prefix': 'https://ss3.4sqi.net/img/categories_v2/building/default_', 'suffix': '.png'}, 'primary': True}]",,FR,,France,4b9e3345f964a5205ed136e3,48.09350586787418,-1.6283046676861495,Ouest-France,35000,4bf58dd8d48988d124941735,Office,Bretagne
1,"[{'id': '4bf58dd8d48988d113951735', 'name': 'Gas Station', 'pluralName': 'Gas Stations', 'shortName': 'Gas Station', 'icon': {'prefix': 'https://ss3.4sqi.net/img/categories_v2/shops/gas_', 'suffix': '.png'}, 'primary': True}]",,FR,,France,5406beb7498e852b085ea2f5,48.11399733,-1.61375301,Total,35510,4bf58dd8d48988d113951735,Gas Station,Bretagne
2,"[{'id': '4bf58dd8d48988d174941735', 'name': 'Coworking Space', 'pluralName': 'Coworking Spaces', 'shortName': 'Coworking Space', 'icon': {'prefix': 'https://ss3.4sqi.net/img/categories_v2/building/office_coworkingspace_', 'suffix': '.png'}, 'primary': True}]",,FR,,France,50bcacb2e4b0f191467c5d1c,48.125927524493754,-1.688792857054047,O.F.I.I.,,4bf58dd8d48988d174941735,Coworking Space,
3,"[{'id': '4bf58dd8d48988d174941735', 'name': 'Coworking Space', 'pluralName': 'Coworking Spaces', 'shortName': 'Coworking Space', 'icon': {'prefix': 'https://ss3.4sqi.net/img/categories_v2/building/office_coworkingspace_', 'suffix': '.png'}, 'primary': True}]",,FR,,France,4e0ca4dd45dd7a490b08d04d,48.13067333978668,-1.680809222455143,Maison Du Bâtiment,,4bf58dd8d48988d174941735,Coworking Space,Bretagne
4,"[{'id': '4bf58dd8d48988d174941735', 'name': 'Coworking Space', 'pluralName': 'Coworking Spaces', 'shortName': 'Coworking Space', 'icon': {'prefix': 'https://ss3.4sqi.net/img/categories_v2/building/office_coworkingspace_', 'suffix': '.png'}, 'primary': True}]",,FR,,France,4c5aa154f346c9289b634fca,48.08975506660649,-1.6733690661225447,Pages Jaunes,35200,4bf58dd8d48988d174941735,Coworking Space,Bretagne
5,"[{'id': '4bf58dd8d48988d174941735', 'name': 'Coworking Space', 'pluralName': 'Coworking Spaces', 'shortName': 'Coworking Space', 'icon': {'prefix': 'https://ss3.4sqi.net/img/categories_v2/building/office_coworkingspace_', 'suffix': '.png'}, 'primary': True}]",,FR,,France,4e8aad4430f82dd42bc17d20,48.113879749999995,-1.6567825,Firstwan DNS,35510,4bf58dd8d48988d174941735,Coworking Space,Bretagne
6,"[{'id': '4bf58dd8d48988d174941735', 'name': 'Coworking Space', 'pluralName': 'Coworking Spaces', 'shortName': 'Coworking Space', 'icon': {'prefix': 'https://ss3.4sqi.net/img/categories_v2/building/office_coworkingspace_', 'suffix': '.png'}, 'primary': True}]",,FR,,France,4fc62c2be4b0d1962f18bce2,48.114162564976645,-1.7135801662417518,Udaf 35,35000,4bf58dd8d48988d174941735,Coworking Space,Bretagne
7,"[{'id': '4bf58dd8d48988d174941735', 'name': 'Coworking Space', 'pluralName': 'Coworking Spaces', 'shortName': 'Coworking Space', 'icon': {'prefix': 'https://ss3.4sqi.net/img/categories_v2/building/office_coworkingspace_', 'suffix': '.png'}, 'primary': True}]",,FR,,France,50d5e02fe4b0ecbbfad89caf,48.1058322611075,-1.6851193481208706,Cook & Go,35000,4bf58dd8d48988d174941735,Coworking Space,Bretagne
8,"[{'id': '4bf58dd8d48988d174941735', 'name': 'Coworking Space', 'pluralName': 'Coworking Spaces', 'shortName': 'Coworking Space', 'icon': {'prefix': 'https://ss3.4sqi.net/img/categories_v2/building/office_coworkingspace_', 'suffix': '.png'}, 'primary': True}]",,FR,,France,50b4d95be4b09f711bbfa084,48.152112,-1.687355,Contempo Renes,,4bf58dd8d48988d174941735,Coworking Space,
9,"[{'id': '4bf58dd8d48988d113951735', 'name': 'Gas Station', 'pluralName': 'Gas Stations', 'shortName': 'Gas Station', 'icon': {'prefix': 'https://ss3.4sqi.net/img/categories_v2/shops/gas_', 'suffix': '.png'}, 'primary': True}]",,FR,,France,4fb0ee9be4b091b46384ddbc,48.12469128,-1.70078048,Total,35000,4bf58dd8d48988d113951735,Gas Station,Bretagne
10,"[{'id': '4bf58dd8d48988d174941735', 'name': 'Coworking Space', 'pluralName': 'Coworking Spaces', 'shortName': 'Coworking Space', 'icon': {'prefix': 'https://ss3.4sqi.net/img/categories_v2/building/office_coworkingspace_', 'suffix': '.png'}, 'primary': True}]",,FR,,France,5111635df2e71b369bb8ad03,48.1044078788092,-1.620934009552002,ETIC-Center COWORK,35510,4bf58dd8d48988d174941735,Coworking Space,Bretagne
11,"[{'id': '4bf58dd8d48988d174941735', 'name': 'Coworking Space', 'pluralName': 'Coworking Spaces', 'shortName': 'Coworking Space', 'icon': {'prefix': 'https://ss3.4sqi.net/img/categories_v2/building/office_coworkingspace_', 'suffix': '.png'}, 'primary': True}]",,FR,,France,527d5657498eff5aee9d2548,48.10605239868164,-1.6718693971633911,l'agence,,4bf58dd8d48988d174941735,Coworking Space,
12,"[{'id': '4bf58dd8d48988d174941735', 'name': 'Coworking Space', 'pluralName': 'Coworking Spaces', 'shortName': 'Coworking Space', 'icon': {'prefix': 'https://ss3.4sqi.net/img/categories_v2/building/office_coworkingspace_', 'suffix': '.png'}, 'primary': True}]",,FR,,France,4f9920efe4b0e84394ef8b6c,48.09843063354492,-1.6224528551101685,DiVINeSENS,35135,4bf58dd8d48988d174941735,Coworking Space,Bretagne
13,"[{'id': '4bf58dd8d48988d174941735', 'name': 'Coworking Space', 'pluralName': 'Coworking Spaces', 'shortName': 'Coworking Space', 'icon': {'prefix': 'https://ss3.4sqi.net/img/categories_v2/building/office_coworkingspace_', 'suffix': '.png'}, 'primary': True}]",,FR,,France,51b5d0ec498e2c9c8593c7af,48.12242,-1.69273,Agence de la Biomédecine,,4bf58dd8d48988d174941735,Coworking Space,Rennes
14,"[{'id': '4bf58dd8d48988d174941735', 'name': 'Coworking Space', 'pluralName': 'Coworking Spaces', 'shortName': 'Coworking Space', 'icon': {'prefix': 'https://ss3.4sqi.net/img/categories_v2/building/office_coworkingspace_', 'suffix': '.png'}, 'primary': True}]",,FR,,France,4cc7e2ab0fa2721e38a960b1,48.140478,-1.632492,Atos Origin,35000,4bf58dd8d48988d174941735,Coworking Space,Bretagne
15,"[{'id': '4bf58dd8d48988d174941735', 'name': 'Coworking Space', 'pluralName': 'Coworking Spaces', 'shortName': 'Coworking Space', 'icon': {'prefix': 'https://ss3.4sqi.net/img/categories_v2/building/office_coworkingspace_', 'suffix': '.png'}, 'primary': True}]",,FR,,France,4e54e8ec22710ebb5a8f82be,48.11721692489836,-1.7176471892508374,Adecco,,4bf58dd8d48988d174941735,Coworking Space,Bretagne
16,"[{'id': '4bf58dd8d48988d174941735', 'name': 'Coworking Space', 'pluralName': 'Coworking Spaces', 'shortName': 'Coworking Space', 'icon': {'prefix': 'https://ss3.4sqi.net/img/categories_v2/building/office_coworkingspace_', 'suffix': '.png'}, 'primary': True}]",,FR,,France,502e310be4b0c5661c3f2272,48.0873412713911,-1.6736173006716843,groupe le duff,35000,4bf58dd8d48988d174941735,Coworking Space,Bretagne
17,"[{'id': '4bf58dd8d48988d174941735', 'name': 'Coworking Space', 'pluralName': 'Coworking Spaces', 'shortName': 'Coworking Space', 'icon': {'prefix': 'https://ss3.4sqi.net/img/categories_v2/building/office_coworkingspace_', 'suffix': '.png'}, 'primary': True}]",,FR,,France,4dd0cedc52b1f8915bcf91bf,48.13209085,-1.63596189,Capgemini,35700,4bf58dd8d48988d174941735,Coworking Space,Bretagne
18,"[{'id': '4bf58dd8d48988d174941735', 'name': 'Coworking Space', 'pluralName': 'Coworking Spaces', 'shortName': 'Coworking Space', 'icon': {'prefix': 'https://ss3.4sqi.net/img/categories_v2/building/office_coworkingspace_', 'suffix': '.png'}, 'primary': True}]",,FR,,France,4e4b615162e1ce23e575341a,48.125315,-1.628803,Germanium,,4bf58dd8d48988d174941735,Coworking Space,Bretagne
19,"[{'id': '4bf58dd8d48988d174941735', 'name': 'Coworking Space', 'pluralName': 'Coworking Spaces', 'shortName': 'Coworking Space', 'icon': {'prefix': 'https://ss3.4sqi.net/img/categories_v2/building/office_coworkingspace_', 'suffix': '.png'}, 'primary': True}]",,FR,,France,4ed4d8000e61888eaacf71c9,48.094386,-1.635359,Kermarrec,,4bf58dd8d48988d174941735,Coworking Space,Bretagne
20,"[{'id': '4bf58dd8d48988d174941735', 'name': 'Coworking Space', 'pluralName': 'Coworking Spaces', 'shortName': 'Coworking Space', 'icon': {'prefix': 'https://ss3.4sqi.net/img/categories_v2/building/office_coworkingspace_', 'suffix': '.png'}, 'primary': True}]",,FR,,France,4f4e5dfbe4b0ef284c417888,48.11529973203763,-1.7088583128807988,KelBillet,35000,4bf58dd8d48988d174941735,Coworking Space,Bretagne
21,"[{'id': '4bf58dd8d48988d174941735', 'name': 'Coworking Space', 'pluralName': 'Coworking Spaces', 'shortName': 'Coworking Space', 'icon': {'prefix': 'https://ss3.4sqi.net/img/categories_v2/building/office_coworkingspace_', 'suffix': '.png'}, 'primary': True}]",,FR,,France,50475a91582f7eea7e63cf77,48.11770338108962,-1.670072078704834,Salle 511 - UFR Droit et science politique,35000,4bf58dd8d48988d174941735,Coworking Space,Bretagne
22,"[{'id': '4bf58dd8d48988d174941735', 'name': 'Coworking Space', 'pluralName': 'Coworking Spaces', 'shortName': 'Coworking Space', 'icon': {'prefix': 'https://ss3.4sqi.net/img/categories_v2/building/office_coworkingspace_', 'suffix': '.png'}, 'primary': True}]",,FR,,France,4be7d37fd837c9b62f94a406,48.154109235377035,-1.6949370449854013,Sopra Group,35760,4bf58dd8d48988d174941735,Coworking Space,Bretagne
23,"[{'id': '4bf58dd8d48988d174941735', 'name': 'Coworking Space', 'pluralName': 'Coworking Spaces', 'shortName': 'Coworking Space', 'icon': {'prefix': 'https://ss3.4sqi.net/img/categories_v2/building/office_coworkingspace_', 'suffix': '.png'}, 'primary': True}]",,FR,,France,4d2d640fa40da35d3d939177,48.10946925854088,-1.682260420281149,Adecco Medical,35000,4bf58dd8d48988d174941735,Coworking Space,Bretagne
24,"[{'id': '4bf58dd8d48988d174941735', 'name': 'Coworking Space', 'pluralName': 'Coworking Spaces', 'shortName': 'Coworking Space', 'icon': {'prefix': 'https://ss3.4sqi.net/img/categories_v2/building/office_coworkingspace_', 'suffix': '.png'}, 'primary': True}]",,FR,,France,4ec0ccc19adfe2b7b6986487,48.13054710418966,-1.709836010612045,@work,,4bf58dd8d48988d174941735,Coworking Space,Bretagne
25,"[{'id': '4bf58dd8d48988d174941735', 'name': 'Coworking Space', 'pluralName': 'Coworking Spaces', 'shortName': 'Coworking Space', 'icon': {'prefix': 'https://ss3.4sqi.net/img/categories_v2/building/office_coworkingspace_', 'suffix': '.png'}, 'primary': True}]",,FR,,France,4d5a8afd1d4a8cfa667a99ed,48.12994888598528,-1.681867041512477,Medef 35,,4bf58dd8d48988d174941735,Coworking Space,Bretagne
26,"[{'id': '4bf58dd8d48988d174941735', 'name': 'Coworking Space', 'pluralName': 'Coworking Spaces', 'shortName': 'Coworking Space', 'icon': {'prefix': 'https://ss3.4sqi.net/img/categories_v2/building/office_coworkingspace_', 'suffix': '.png'}, 'primary': True}]",,FR,,France,4f254326e4b050258c0d5b70,48.08421909010728,-1.6613965985097312,Les Imposteurs,35000,4bf58dd8d48988d174941735,Coworking Space,Bretagne
27,"[{'id': '4bf58dd8d48988d174941735', 'name': 'Coworking Space', 'pluralName': 'Coworking Spaces', 'shortName': 'Coworking Space', 'icon': {'prefix': 'https://ss3.4sqi.net/img/categories_v2/building/office_coworkingspace_', 'suffix': '.png'}, 'primary': True}]",,FR,,France,4ecf8fe99adf254455dced6f,48.13685412927444,-1.6593203391490217,Coca-Cola,35000,4bf58dd8d48988d174941735,Coworking Space,Bretagne
28,"[{'id': '4bf58dd8d48988d174941735', 'name': 'Coworking Space', 'pluralName': 'Coworking Spaces', 'shortName': 'Coworking Space', 'icon': {'prefix': 'https://ss3.4sqi.net/img/categories_v2/building/office_coworkingspace_', 'suffix': '.png'}, 'primary': True}]",,FR,,France,4d9714bdb188721e04f60537,48.10526,-1.688644,Cabinet Cartron,,4bf58dd8d48988d174941735,Coworking Space,Bretagne
29,"[{'id': '4bf58dd8d48988d174941735', 'name': 'Coworking Space', 'pluralName': 'Coworking Spaces', 'shortName': 'Coworking Space', 'icon': {'prefix': 'https://ss3.4sqi.net/img/categories_v2/building/office_coworkingspace_', 'suffix': '.png'}, 'primary': True}]",,FR,,France,54abc28c498ee5c5825079d1,48.110540626468655,-1.6831112574022271,Happy Hours,35000,4bf58dd8d48988d174941735,Coworking Space,Bretagne
30,"[{'id': '4bf58dd8d48988d174941735', 'name': 'Coworking Space', 'pluralName': 'Coworking Spaces', 'shortName': 'Coworking Space', 'icon': {'prefix': 'https://ss3.4sqi.net/img/categories_v2/building/office_coworkingspace_', 'suffix': '.png'}, 'primary': True}]",,FR,,France,4e54e7f1d164a1ac2f3a49ce,48.12876653244022,-1.6254804513063006,SII,35510,4bf58dd8d48988d174941735,Coworking Space,Bretagne
31,"[{'id': '4bf58dd8d48988d174941735', 'name': 'Coworking Space', 'pluralName': 'Coworking Spaces', 'shortName': 'Coworking Space', 'icon': {'prefix': 'https://ss3.4sqi.net/img/categories_v2/building/office_coworkingspace_', 'suffix': '.png'}, 'primary': True}]",,FR,,France,4c34a3ff16adc928ce72c59c,48.112319189442736,-1.6614860071714013,Parc d'Affaires Oberthur,35830,4bf58dd8d48988d174941735,Coworking Space,Bretagne
32,"[{'id': '4bf58dd8d48988d174941735', 'name': 'Coworking Space', 'pluralName': 'Coworking Spaces', 'shortName': 'Coworking Space', 'icon': {'prefix': 'https://ss3.4sqi.net/img/categories_v2/building/office_coworkingspace_', 'suffix': '.png'}, 'primary': True}]",,FR,,France,4c35ed8ded37a593bd3e7103,48.119644,-1.629477,Bureau Kelbillet.com,35510,4bf58dd8d48988d174941735,Coworking Space,Bretagne
33,"[{'id': '4bf58dd8d48988d174941735', 'name': 'Coworking Space', 'pluralName': 'Coworking Spaces', 'shortName': 'Coworking Space', 'icon': {'prefix': 'https://ss3.4sqi.net/img/categories_v2/building/office_coworkingspace_', 'suffix': '.png'}, 'primary': True}]",,FR,,France,4f267b55e4b063d402835c89,48.11540148833843,-1.7083880926075963,Le Nucléole,35000,4bf58dd8d48988d174941735,Coworking Space,Bretagne
34,"[{'id': '4bf58dd8d48988d174941735', 'name': 'Coworking Space', 'pluralName': 'Coworking Spaces', 'shortName': 'Coworking Space', 'icon': {'prefix': 'https://ss3.4sqi.net/img/categories_v2/building/office_coworkingspace_', 'suffix': '.png'}, 'primary': True}]",,FR,,France,50daa029498e6fa64f3ba0cd,48.09775374222486,-1.6354579411776433,Sneff Rennes,,4bf58dd8d48988d174941735,Coworking Space,
35,"[{'id': '4bf58dd8d48988d174941735', 'name': 'Coworking Space', 'pluralName': 'Coworking Spaces', 'shortName': 'Coworking Space', 'icon': {'prefix': 'https://ss3.4sqi.net/img/categories_v2/building/office_coworkingspace_', 'suffix': '.png'}, 'primary': True}]",,FR,,France,4c161d3aa1010f4749ef4e18,48.10586605879309,-1.673863871558028,4CA7,,4bf58dd8d48988d174941735,Coworking Space,
36,"[{'id': '4bf58dd8d48988d174941735', 'name': 'Coworking Space', 'pluralName': 'Coworking Spaces', 'shortName': 'Coworking Space', 'icon': {'prefix': 'https://ss3.4sqi.net/img/categories_v2/building/office_coworkingspace_', 'suffix': '.png'}, 'primary': True}]",,FR,,France,51beece1498e2d775884953b,48.10523613937077,-1.6775825049296118,L'Annexe - Cantine numérique rennaise,,4bf58dd8d48988d174941735,Coworking Space,
37,"[{'id': '4bf58dd8d48988d174941735', 'name': 'Coworking Space', 'pluralName': 'Coworking Spaces', 'shortName': 'Coworking Space', 'icon': {'prefix': 'https://ss3.4sqi.net/img/categories_v2/building/office_coworkingspace_', 'suffix': '.png'}, 'primary': True}]",,FR,,France,50460ad9e4b07411457c8977,48.1063418,-1.6843274,Graphisweet,,4bf58dd8d48988d174941735,Coworking Space,
38,"[{'id': '4bf58dd8d48988d174941735', 'name': 'Coworking Space', 'pluralName': 'Coworking Spaces', 'shortName': 'Coworking Space', 'icon': {'prefix': 'https://ss3.4sqi.net/img/categories_v2/building/office_coworkingspace_', 'suffix': '.png'}, 'primary': True}]",,FR,,France,4d217fd26e8c37045b4203a0,48.09957644,-1.62973055,CableOrganizer,35000,4bf58dd8d48988d174941735,Coworking Space,Bretagne
39,"[{'id': '4bf58dd8d48988d174941735', 'name': 'Coworking Space', 'pluralName': 'Coworking Spaces', 'shortName': 'Coworking Space', 'icon': {'prefix': 'https://ss3.4sqi.net/img/categories_v2/building/office_coworkingspace_', 'suffix': '.png'}, 'primary': True}]",,FR,,France,5575d1aa498ecf73ababee00,48.103712206674864,-1.6984098737762119,French Tech Rennes,,4bf58dd8d48988d174941735,Coworking Space,
40,"[{'id': '4bf58dd8d48988d174941735', 'name': 'Coworking Space', 'pluralName': 'Coworking Spaces', 'shortName': 'Coworking Space', 'icon': {'prefix': 'https://ss3.4sqi.net/img/categories_v2/building/office_coworkingspace_', 'suffix': '.png'}, 'primary': True}]",,FR,,France,4be145f126879c74fa6bd4c3,48.094963,-1.629362,Rédaction Maville.com,35000,4bf58dd8d48988d174941735,Coworking Space,Bretagne
41,"[{'id': '4bf58dd8d48988d174941735', 'name': 'Coworking Space', 'pluralName': 'Coworking Spaces', 'shortName': 'Coworking Space', 'icon': {'prefix': 'https://ss3.4sqi.net/img/categories_v2/building/office_coworkingspace_', 'suffix': '.png'}, 'primary': True}]",,FR,,France,4cb2e305b4b0a35d4ca65cce,48.11108887195587,-1.664804220199585,Cognix Systems,35000,4bf58dd8d48988d174941735,Coworking Space,Bretagne
42,"[{'id': '4bf58dd8d48988d174941735', 'name': 'Coworking Space', 'pluralName': 'Coworking Spaces', 'shortName': 'Coworking Space', 'icon': {'prefix': 'https://ss3.4sqi.net/img/categories_v2/building/office_coworkingspace_', 'suffix': '.png'}, 'primary': True}]",,FR,,France,4f54749ee4b036244c64cc68,48.09241869681039,-1.703207676059455,Altran Ouest,35136,4bf58dd8d48988d174941735,Coworking Space,Bretagne
43,"[{'id': '4bf58dd8d48988d174941735', 'name': 'Coworking Space', 'pluralName': 'Coworking Spaces', 'shortName': 'Coworking Space', 'icon': {'prefix': 'https://ss3.4sqi.net/img/categories_v2/building/office_coworkingspace_', 'suffix': '.png'}, 'primary': True}]",,FR,,France,4f9bcc89e4b0de62676bf252,48.09532737930885,-1.6913735280632698,Bikini Magazine,35136,4bf58dd8d48988d174941735,Coworking Space,Bretagne
44,"[{'id': '4bf58dd8d48988d174941735', 'name': 'Coworking Space', 'pluralName': 'Coworking Spaces', 'shortName': 'Coworking Space', 'icon': {'prefix': 'https://ss3.4sqi.net/img/categories_v2/building/office_coworkingspace_', 'suffix': '.png'}, 'primary': True}]",,FR,,France,4cc7e48b3477b60c1e89786a,48.13036506279552,-1.6324915787921863,Atos Origin,35700,4bf58dd8d48988d174941735,Coworking Space,Bretagne
45,"[{'id': '4bf58dd8d48988d174941735', 'name': 'Coworking Space', 'pluralName': 'Coworking Spaces', 'shortName': 'Coworking Space', 'icon': {'prefix': 'https://ss3.4sqi.net/img/categories_v2/building/office_coworkingspace_', 'suffix': '.png'}, 'primary': True}]",,FR,,France,4fed54dee4b0a805b07a8f14,48.152892208469694,-1.6982146883113303,Parc d'Affaires Edonia,,4bf58dd8d48988d174941735,Coworking Space,
46,"[{'id': '4bf58dd8d48988d174941735', 'name': 'Coworking Space', 'pluralName': 'Coworking Spaces', 'shortName': 'Coworking Space', 'icon': {'prefix': 'https://ss3.4sqi.net/img/categories_v2/building/office_coworkingspace_', 'suffix': '.png'}, 'primary': True}]",,FR,,France,53442507498ed6b6b4512561,48.11169687330359,-1.6855984353801938,Pepinière des portes mordelaises,35000,4bf58dd8d48988d174941735,Coworking Space,Bretagne
47,"[{'id': '4bf58dd8d48988d174941735', 'name': 'Coworking Space', 'pluralName': 'Coworking Spaces', 'shortName': 'Coworking Space', 'icon': {'prefix': 'https://ss3.4sqi.net/img/categories_v2/building/office_coworkingspace_', 'suffix': '.png'}, 'primary': True}]",,FR,,France,4f6d3eafe4b08610767347db,48.106039578241436,-1.6309447886063146,France Express,,4bf58dd8d48988d174941735,Coworking Space,
48,"[{'id': '4bf58dd8d48988d174941735', 'name': 'Coworking Space', 'pluralName': 'Coworking Spaces', 'shortName': 'Coworking Space', 'icon': {'prefix': 'https://ss3.4sqi.net/img/categories_v2/building/office_coworkingspace_', 'suffix': '.png'}, 'primary': True}]",,FR,,France,53187c03498ed2edc8ada4fa,48.087036,-1.675761,Domicile clean,35000,4bf58dd8d48988d174941735,Coworking Space,Bretagne
49,"[{'id': '4bf58dd8d48988d174941735', 'name': 'Coworking Space', 'pluralName': 'Coworking Spaces', 'shortName': 'Coworking Space', 'icon': {'prefix': 'https://ss3.4sqi.net/img/categories_v2/building/office_coworkingspace_', 'suffix': '.png'}, 'primary': True}]",,FR,,France,561ce4cb498ec3681c02e125,48.10638306741199,-1.6946174356408263,Kelbillet,,4bf58dd8d48988d174941735,Coworking Space,
3,"[{'id': '4bf58dd8d48988d174941735', 'name': 'Coworking Space', 'pluralName': 'Coworking Spaces', 'shortName': 'Coworking Space', 'icon': {'prefix': 'https://ss3.4sqi.net/img/categories_v2/building/office_coworkingspace_', 'suffix': '.png'}, 'primary': True}]",,FR,,France,51ff4c97498e1f00836bbbfa,48.106437809708574,-1.5954081023008984,Forum De La Rocade,,4bf58dd8d48988d174941735,Coworking Space,
6,"[{'id': '4bf58dd8d48988d174941735', 'name': 'Coworking Space', 'pluralName': 'Coworking Spaces', 'shortName': 'Coworking Space', 'icon': {'prefix': 'https://ss3.4sqi.net/img/categories_v2/building/office_coworkingspace_', 'suffix': '.png'}, 'primary': True}]",,FR,,France,4e170d6bb61c2903bf06d317,48.11405399864146,-1.5827115532636096,Samsic Siège,,4bf58dd8d48988d174941735,Coworking Space,Bretagne
22,"[{'id': '4bf58dd8d48988d174941735', 'name': 'Coworking Space', 'pluralName': 'Coworking Spaces', 'shortName': 'Coworking Space', 'icon': {'prefix': 'https://ss3.4sqi.net/img/categories_v2/building/office_coworkingspace_', 'suffix': '.png'}, 'primary': True}]",,FR,,France,4ed4e54a775b45f6edd4bd77,48.09897332866726,-1.6248830386776956,Cyim,,4bf58dd8d48988d174941735,Coworking Space,
0,"[{'id': '4bf58dd8d48988d174941735', 'name': 'Coworking Space', 'pluralName': 'Coworking Spaces', 'shortName': 'Coworking Space', 'icon': {'prefix': 'https://ss3.4sqi.net/img/categories_v2/building/office_coworkingspace_', 'suffix': '.png'}, 'primary': True}]",,FR,,France,50db3473e4b019a9f62297d3,48.056942,-1.509081,Parc D'Activité De Beaujardin,35410,4bf58dd8d48988d174941735,Coworking Space,Bretagne
0,"[{'id': '4bf58dd8d48988d113951735', 'name': 'Gas Station', 'pluralName': 'Gas Stations', 'shortName': 'Gas Station', 'icon': {'prefix': 'https://ss3.4sqi.net/img/categories_v2/shops/gas_', 'suffix': '.png'}, 'primary': True}]",,FR,,France,4ef8801961af4546ff254045,48.63913589,-2.00916681,Total,35400,4bf58dd8d48988d113951735,Gas Station,Bretagne
1,"[{'id': '4bf58dd8d48988d174941735', 'name': 'Coworking Space', 'pluralName': 'Coworking Spaces', 'shortName': 'Coworking Space', 'icon': {'prefix': 'https://ss3.4sqi.net/img/categories_v2/building/office_coworkingspace_', 'suffix': '.png'}, 'primary': True}]",,FR,,France,5123645be4b0226f2ba535bd,48.621528692233596,-1.9918352556564984,Goëmar,35400,4bf58dd8d48988d174941735,Coworking Space,Bretagne
17,"[{'id': '4bf58dd8d48988d174941735', 'name': 'Coworking Space', 'pluralName': 'Coworking Spaces', 'shortName': 'Coworking Space', 'icon': {'prefix': 'https://ss3.4sqi.net/img/categories_v2/building/office_coworkingspace_', 'suffix': '.png'}, 'primary': True}]",,FR,,France,4e8f0a2dbe7bad367c93125a,48.04780207039393,-1.7127820077443623,Adecco,,4bf58dd8d48988d174941735,Coworking Space,Bretagne
22,"[{'id': '4bf58dd8d48988d174941735', 'name': 'Coworking Space', 'pluralName': 'Coworking Spaces', 'shortName': 'Coworking Space', 'icon': {'prefix': 'https://ss3.4sqi.net/img/categories_v2/building/office_coworkingspace_', 'suffix': '.png'}, 'primary': True}]",,FR,,France,5062caa8f2e7e63421cc44ca,48.11581242035281,-1.6805005073547363,Yanes Conseil - Mojo SAS,,4bf58dd8d48988d174941735,Coworking Space,Bretagne
23,"[{'id': '4bf58dd8d48988d174941735', 'name': 'Coworking Space', 'pluralName': 'Coworking Spaces', 'shortName': 'Coworking Space', 'icon': {'prefix': 'https://ss3.4sqi.net/img/categories_v2/building/office_coworkingspace_', 'suffix': '.png'}, 'primary': True}]",,FR,,France,58e4d47383622d5d931f8814,48.09647263619048,-1.6889414191246033,L'escale Coworking Rennes,35000,4bf58dd8d48988d174941735,Coworking Space,Bretagne
24,"[{'id': '4bf58dd8d48988d174941735', 'name': 'Coworking Space', 'pluralName': 'Coworking Spaces', 'shortName': 'Coworking Space', 'icon': {'prefix': 'https://ss3.4sqi.net/img/categories_v2/building/office_coworkingspace_', 'suffix': '.png'}, 'primary': True}]",,FR,,France,4dedc7ac1f6e0f9053eaaac0,48.114864236302324,-1.6860970184463993,TV Rennes 35,35000,4bf58dd8d48988d174941735,Coworking Space,Bretagne
25,"[{'id': '4bf58dd8d48988d174941735', 'name': 'Coworking Space', 'pluralName': 'Coworking Spaces', 'shortName': 'Coworking Space', 'icon': {'prefix': 'https://ss3.4sqi.net/img/categories_v2/building/office_coworkingspace_', 'suffix': '.png'}, 'primary': True}]",,FR,,France,4fdd542ce4b0ab51ec71da76,48.105957,-1.695171,Studio #101,,4bf58dd8d48988d174941735,Coworking Space,
1,"[{'id': '4bf58dd8d48988d174941735', 'name': 'Coworking Space', 'pluralName': 'Coworking Spaces', 'shortName': 'Coworking Space', 'icon': {'prefix': 'https://ss3.4sqi.net/img/categories_v2/building/office_coworkingspace_', 'suffix': '.png'}, 'primary': True}]",,FR,,France,5141f1c272da346f0357f24c,48.16895483482804,-1.6532492637634275,Moncommerce,35830,4bf58dd8d48988d174941735,Coworking Space,Bretagne
0,"[{'id': '4bf58dd8d48988d113951735', 'name': 'Gas Station', 'pluralName': 'Gas Stations', 'shortName': 'Gas Station', 'icon': {'prefix': 'https://ss3.4sqi.net/img/categories_v2/shops/gas_', 'suffix': '.png'}, 'primary': True}]",,FR,,France,59a3dcc9916bc16d67a7e30f,48.45302612,-2.05704591,Total,22100,4bf58dd8d48988d113951735,Gas Station,Bretagne
1,"[{'id': '4bf58dd8d48988d174941735', 'name': 'Coworking Space', 'pluralName': 'Coworking Spaces', 'shortName': 'Coworking Space', 'icon': {'prefix': 'https://ss3.4sqi.net/img/categories_v2/building/office_coworkingspace_', 'suffix': '.png'}, 'primary': True}]",,FR,,France,4e55fd831fc7fe59cf6d4616,48.455363502872764,-2.0516109466552734,swiss life dinan,22100,4bf58dd8d48988d174941735,Coworking Space,Bretagne
2,"[{'id': '4bf58dd8d48988d174941735', 'name': 'Coworking Space', 'pluralName': 'Coworking Spaces', 'shortName': 'Coworking Space', 'icon': {'prefix': 'https://ss3.4sqi.net/img/categories_v2/building/office_coworkingspace_', 'suffix': '.png'}, 'primary': True}]",,FR,,France,54be8200498ecfc83f0ec81b,48.455742,-2.058215,Areco,,4bf58dd8d48988d174941735,Coworking Space,
0,"[{'id': '4bf58dd8d48988d174941735', 'name': 'Coworking Space', 'pluralName': 'Coworking Spaces', 'shortName': 'Coworking Space', 'icon': {'prefix': 'https://ss3.4sqi.net/img/categories_v2/building/office_coworkingspace_', 'suffix': '.png'}, 'primary': True}]",,FR,,France,4e9d511877c815a0f5b5ba63,48.1336007,-1.2412563,Fancom Vitre,,4bf58dd8d48988d174941735,Coworking Space,
0,"[{'id': '4bf58dd8d48988d174941735', 'name': 'Coworking Space', 'pluralName': 'Coworking Spaces', 'shortName': 'Coworking Space', 'icon': {'prefix': 'https://ss3.4sqi.net/img/categories_v2/building/office_coworkingspace_', 'suffix': '.png'}, 'primary': True}]",,FR,,France,4fd3cc2be4b0352ac45f1c07,48.134857324209364,-1.9595781033614332,Centre d'Affaires du Château de Launay-Quéro,35160,4bf58dd8d48988d174941735,Coworking Space,Bretagne
0,"[{'id': '4bf58dd8d48988d174941735', 'name': 'Coworking Space', 'pluralName': 'Coworking Spaces', 'shortName': 'Coworking Space', 'icon': {'prefix': 'https://ss3.4sqi.net/img/categories_v2/building/office_coworkingspace_', 'suffix': '.png'}, 'primary': True}]",,FR,,France,4ec670a36da1d1092d4a45ef,48.02305029909037,-1.7496863989417608,Atelier Loyer Architectes,,4bf58dd8d48988d174941735,Coworking Space,
0,"[{'id': '4bf58dd8d48988d174941735', 'name': 'Coworking Space', 'pluralName': 'Coworking Spaces', 'shortName': 'Coworking Space', 'icon': {'prefix': 'https://ss3.4sqi.net/img/categories_v2/building/office_coworkingspace_', 'suffix': '.png'}, 'primary': True}]",,FR,,France,4e79abb67d8b5741b8a42bd8,48.09341790267302,-1.7838684402872915,Franciaflex,,4bf58dd8d48988d174941735,Coworking Space,Bretagne
1,"[{'id': '4bf58dd8d48988d174941735', 'name': 'Coworking Space', 'pluralName': 'Coworking Spaces', 'shortName': 'Coworking Space', 'icon': {'prefix': 'https://ss3.4sqi.net/img/categories_v2/building/office_coworkingspace_', 'suffix': '.png'}, 'primary': True}]",,FR,,France,50880cf8e4b0645876a0ff80,48.089475,-1.784125,OMAN,,4bf58dd8d48988d174941735,Coworking Space,
0,"[{'id': '4bf58dd8d48988d174941735', 'name': 'Coworking Space', 'pluralName': 'Coworking Spaces', 'shortName': 'Coworking Space', 'icon': {'prefix': 'https://ss3.4sqi.net/img/categories_v2/building/office_coworkingspace_', 'suffix': '.png'}, 'primary': True}]",,FR,,France,4fa7a443e4b09571e0b06512,48.19981,-1.72163,Iron Mountain,,4bf58dd8d48988d174941735,Coworking Space,
0,"[{'id': '4bf58dd8d48988d174941735', 'name': 'Coworking Space', 'pluralName': 'Coworking Spaces', 'shortName': 'Coworking Space', 'icon': {'prefix': 'https://ss3.4sqi.net/img/categories_v2/building/office_coworkingspace_', 'suffix': '.png'}, 'primary': True}]",,FR,,France,4e9d71d7b803b7506d9ef3e9,48.34614944458008,-2.2873337268829346,Itek Tremeur,,4bf58dd8d48988d174941735,Coworking Space,
0,"[{'id': '58daa1558bbb0b01f18ec1f1', 'name': 'Insurance Office', 'pluralName': 'Insurance Offices', 'shortName': 'Insurance Office', 'icon': {'prefix': 'https://ss3.4sqi.net/img/categories_v2/shops/financial_', 'suffix': '.png'}, 'primary': True}]",,FR,,France,5a0d7169d552c721a0138985,48.11713318,-1.71613449,AXA Assurance SCHAUPP-PATIN-HERZIN,35011,58daa1558bbb0b01f18ec1f1,Insurance Office,Bretagne
1,"[{'id': '58daa1558bbb0b01f18ec1f1', 'name': 'Insurance Office', 'pluralName': 'Insurance Offices', 'shortName': 'Insurance Office', 'icon': {'prefix': 'https://ss3.4sqi.net/img/categories_v2/shops/financial_', 'suffix': '.png'}, 'primary': True}]",,FR,,France,4dc7c3b445dd264552a79a4d,48.10713,-1.67075778,Allianz Assurance Le Calvez Xavier Agent général,35106,58daa1558bbb0b01f18ec1f1,Insurance Office,Bretagne
2,"[{'id': '58daa1558bbb0b01f18ec1f1', 'name': 'Insurance Office', 'pluralName': 'Insurance Offices', 'shortName': 'Insurance Office', 'icon': {'prefix': 'https://ss3.4sqi.net/img/categories_v2/shops/financial_', 'suffix': '.png'}, 'primary': True}]",,FR,,France,5a0c625ed3cce80d1318106d,48.10493358,-1.69807341,AXA Assurance ROUGERIE-GAPIHAN,35008,58daa1558bbb0b01f18ec1f1,Insurance Office,Bretagne
3,"[{'id': '58daa1558bbb0b01f18ec1f1', 'name': 'Insurance Office', 'pluralName': 'Insurance Offices', 'shortName': 'Insurance Office', 'icon': {'prefix': 'https://ss3.4sqi.net/img/categories_v2/shops/financial_', 'suffix': '.png'}, 'primary': True}]",,FR,,France,5abdfa6c3c858d57564c20b8,48.13180611611,-1.6912588374344,MAIF Rennes Sextant,35000,58daa1558bbb0b01f18ec1f1,Insurance Office,Bretagne
4,"[{'id': '58daa1558bbb0b01f18ec1f1', 'name': 'Insurance Office', 'pluralName': 'Insurance Offices', 'shortName': 'Insurance Office', 'icon': {'prefix': 'https://ss3.4sqi.net/img/categories_v2/shops/financial_', 'suffix': '.png'}, 'primary': True}]",,FR,,France,5c6c41a8c97f28002c285f49,48.08726575,-1.67540892,MMA RENNES HENRI FREVILLE,35200,58daa1558bbb0b01f18ec1f1,Insurance Office,Bretagne
5,"[{'id': '58daa1558bbb0b01f18ec1f1', 'name': 'Insurance Office', 'pluralName': 'Insurance Offices', 'shortName': 'Insurance Office', 'icon': {'prefix': 'https://ss3.4sqi.net/img/categories_v2/shops/financial_', 'suffix': '.png'}, 'primary': True}]",,FR,,France,5af6b982d48ec1002c21005a,48.11334251,-1.695674,MMA Rennes Saint Martin,35000,58daa1558bbb0b01f18ec1f1,Insurance Office,Bretagne
6,"[{'id': '58daa1558bbb0b01f18ec1f1', 'name': 'Insurance Office', 'pluralName': 'Insurance Offices', 'shortName': 'Insurance Office', 'icon': {'prefix': 'https://ss3.4sqi.net/img/categories_v2/shops/financial_', 'suffix': '.png'}, 'primary': True}]",,FR,,France,5a0c7daaa4ba7c5fbf517aad,48.10882322,-1.65834104,AXA Assurance Dubreuil Jean Baptiste,35000,58daa1558bbb0b01f18ec1f1,Insurance Office,Bretagne
7,"[{'id': '58daa1558bbb0b01f18ec1f1', 'name': 'Insurance Office', 'pluralName': 'Insurance Offices', 'shortName': 'Insurance Office', 'icon': {'prefix': 'https://ss3.4sqi.net/img/categories_v2/shops/financial_', 'suffix': '.png'}, 'primary': True}]",,FR,,France,5b13d3bd012358002c965982,48.11308716,-1.62417047,AXA Assurance Dara Mot,35510,58daa1558bbb0b01f18ec1f1,Insurance Office,Bretagne
8,"[{'id': '58daa1558bbb0b01f18ec1f1', 'name': 'Insurance Office', 'pluralName': 'Insurance Offices', 'shortName': 'Insurance Office', 'icon': {'prefix': 'https://ss3.4sqi.net/img/categories_v2/shops/financial_', 'suffix': '.png'}, 'primary': True}]",,FR,,France,58ac6ce03f5a5c764df5f508,48.0950369,-1.6152432,Mutuelle Intégrance Rennes,35000,58daa1558bbb0b01f18ec1f1,Insurance Office,Bretagne
9,"[{'id': '58daa1558bbb0b01f18ec1f1', 'name': 'Insurance Office', 'pluralName': 'Insurance Offices', 'shortName': 'Insurance Office', 'icon': {'prefix': 'https://ss3.4sqi.net/img/categories_v2/shops/financial_', 'suffix': '.png'}, 'primary': True}]",,FR,,France,5a0c9d76061b5125107cd992,48.133354,-1.63797196,AXA Assurance Bertel M. Blanchard F.,35708,58daa1558bbb0b01f18ec1f1,Insurance Office,Bretagne
10,"[{'id': '58daa1558bbb0b01f18ec1f1', 'name': 'Insurance Office', 'pluralName': 'Insurance Offices', 'shortName': 'Insurance Office', 'icon': {'prefix': 'https://ss3.4sqi.net/img/categories_v2/shops/financial_', 'suffix': '.png'}, 'primary': True}]",,FR,,France,5a0b20e1e55d8b7a759c40b5,48.10641776,-1.67096303,AXA Assurance THIERRY GICQUEL,35000,58daa1558bbb0b01f18ec1f1,Insurance Office,Bretagne
11,"[{'id': '58daa1558bbb0b01f18ec1f1', 'name': 'Insurance Office', 'pluralName': 'Insurance Offices', 'shortName': 'Insurance Office', 'icon': {'prefix': 'https://ss3.4sqi.net/img/categories_v2/shops/financial_', 'suffix': '.png'}, 'primary': True}]",,FR,,France,5c6991ea1c0b34002c10d999,48.10738967,-1.67309534,MMA Rennes Janvier,35000,58daa1558bbb0b01f18ec1f1,Insurance Office,Bretagne
12,"[{'id': '503287a291d4c4b30a586d65', 'name': 'Financial or Legal Service', 'pluralName': 'Financial or Legal Services', 'shortName': 'Financial / Legal', 'icon': {'prefix': 'https://ss3.4sqi.net/img/categories_v2/shops/financial_', 'suffix': '.png'}, 'primary': True}]",,FR,,France,577b89a8498e141483396e9a,48.132858,-1.69127,MACIF Assurances,35000,503287a291d4c4b30a586d65,Financial or Legal Service,Bretagne
13,"[{'id': '58daa1558bbb0b01f18ec1f1', 'name': 'Insurance Office', 'pluralName': 'Insurance Offices', 'shortName': 'Insurance Office', 'icon': {'prefix': 'https://ss3.4sqi.net/img/categories_v2/shops/financial_', 'suffix': '.png'}, 'primary': True}]",,FR,,France,5a0c407c61f0705f4d3110c1,48.11487173,-1.62753843,AXA Assurance Florian De Panthou,35510,58daa1558bbb0b01f18ec1f1,Insurance Office,Bretagne
14,"[{'id': '58daa1558bbb0b01f18ec1f1', 'name': 'Insurance Office', 'pluralName': 'Insurance Offices', 'shortName': 'Insurance Office', 'icon': {'prefix': 'https://ss3.4sqi.net/img/categories_v2/shops/financial_', 'suffix': '.png'}, 'primary': True}]",,FR,,France,5a10d950d7627e5cc5c17b24,48.11979008,-1.68123099,AXA Assurance Alexandre Bordais,35000,58daa1558bbb0b01f18ec1f1,Insurance Office,Bretagne
15,"[{'id': '58daa1558bbb0b01f18ec1f1', 'name': 'Insurance Office', 'pluralName': 'Insurance Offices', 'shortName': 'Insurance Office', 'icon': {'prefix': 'https://ss3.4sqi.net/img/categories_v2/shops/financial_', 'suffix': '.png'}, 'primary': True}]",,FR,,France,5abdfa69f0ca95363c751f27,48.109288092093,-1.6777311245369,MAIF Rennes Joffre,35000,58daa1558bbb0b01f18ec1f1,Insurance Office,Bretagne
16,"[{'id': '503287a291d4c4b30a586d65', 'name': 'Financial or Legal Service', 'pluralName': 'Financial or Legal Services', 'shortName': 'Financial / Legal', 'icon': {'prefix': 'https://ss3.4sqi.net/img/categories_v2/shops/financial_', 'suffix': '.png'}, 'primary': True}]",,FR,,France,4fd99b57e4b0b3e28df84eb9,48.08665,-1.673662,MACIF Assurances,35200,503287a291d4c4b30a586d65,Financial or Legal Service,Bretagne
17,"[{'id': '58daa1558bbb0b01f18ec1f1', 'name': 'Insurance Office', 'pluralName': 'Insurance Offices', 'shortName': 'Insurance Office', 'icon': {'prefix': 'https://ss3.4sqi.net/img/categories_v2/shops/financial_', 'suffix': '.png'}, 'primary': True}]",,FR,,France,5c6a5654f4b525002c06c55f,48.11343853,-1.69596091,MMA RENNES SAINT MARTIN,35000,58daa1558bbb0b01f18ec1f1,Insurance Office,Bretagne
18,"[{'id': '58daa1558bbb0b01f18ec1f1', 'name': 'Insurance Office', 'pluralName': 'Insurance Offices', 'shortName': 'Insurance Office', 'icon': {'prefix': 'https://ss3.4sqi.net/img/categories_v2/shops/financial_', 'suffix': '.png'}, 'primary': True}]",,FR,,France,5a0d560e32b61d73c2333a86,48.15392205,-1.69717909,AXA Assurance GALLIER GALLIER ADJUTOR,35760,58daa1558bbb0b01f18ec1f1,Insurance Office,Bretagne
19,"[{'id': '58daa1558bbb0b01f18ec1f1', 'name': 'Insurance Office', 'pluralName': 'Insurance Offices', 'shortName': 'Insurance Office', 'icon': {'prefix': 'https://ss3.4sqi.net/img/categories_v2/shops/financial_', 'suffix': '.png'}, 'primary': True}]",,FR,,France,5a10b4b464c8e11593245184,48.12543614,-1.65614177,AXA Assurance Gallier Gallier Adjutor,35700,58daa1558bbb0b01f18ec1f1,Insurance Office,Bretagne
20,"[{'id': '58daa1558bbb0b01f18ec1f1', 'name': 'Insurance Office', 'pluralName': 'Insurance Offices', 'shortName': 'Insurance Office', 'icon': {'prefix': 'https://ss3.4sqi.net/img/categories_v2/shops/financial_', 'suffix': '.png'}, 'primary': True}]",,FR,,France,5a0c6a4f3fcee84b869f39dc,48.09185547,-1.63018053,AXA Assurance Perais Et Lefeuvre,35063,58daa1558bbb0b01f18ec1f1,Insurance Office,Bretagne
21,"[{'id': '58daa1558bbb0b01f18ec1f1', 'name': 'Insurance Office', 'pluralName': 'Insurance Offices', 'shortName': 'Insurance Office', 'icon': {'prefix': 'https://ss3.4sqi.net/img/categories_v2/shops/financial_', 'suffix': '.png'}, 'primary': True}]",,FR,,France,5a0c8a3704d1ae268cce545f,48.10871015,-1.68217627,AXA Assurance Plouvier-de Lorgeril,35104,58daa1558bbb0b01f18ec1f1,Insurance Office,Bretagne
22,"[{'id': '503287a291d4c4b30a586d65', 'name': 'Financial or Legal Service', 'pluralName': 'Financial or Legal Services', 'shortName': 'Financial / Legal', 'icon': {'prefix': 'https://ss3.4sqi.net/img/categories_v2/shops/financial_', 'suffix': '.png'}, 'primary': True}]",,FR,,France,5c8f5ff0088158002c65f71a,48.1346,-1.66721,Assurance Rennes Nord Aviva,35000,503287a291d4c4b30a586d65,Financial or Legal Service,Bretagne
1,"[{'id': '58daa1558bbb0b01f18ec1f1', 'name': 'Insurance Office', 'pluralName': 'Insurance Offices', 'shortName': 'Insurance Office', 'icon': {'prefix': 'https://ss3.4sqi.net/img/categories_v2/shops/financial_', 'suffix': '.png'}, 'primary': True}]",,FR,,France,5c6a7f65029a550039e285b5,48.10858466,-1.60839748,MMA CESSON SEVIGNE,35510,58daa1558bbb0b01f18ec1f1,Insurance Office,Bretagne
8,"[{'id': '58daa1558bbb0b01f18ec1f1', 'name': 'Insurance Office', 'pluralName': 'Insurance Offices', 'shortName': 'Insurance Office', 'icon': {'prefix': 'https://ss3.4sqi.net/img/categories_v2/shops/financial_', 'suffix': '.png'}, 'primary': True}]",,FR,,France,5a0dc4841c0b34296248f49f,48.15198877,-1.58412845,AXA Assurance Mayeul Morin De Finfe,35235,58daa1558bbb0b01f18ec1f1,Insurance Office,Bretagne
12,"[{'id': '58daa1558bbb0b01f18ec1f1', 'name': 'Insurance Office', 'pluralName': 'Insurance Offices', 'shortName': 'Insurance Office', 'icon': {'prefix': 'https://ss3.4sqi.net/img/categories_v2/shops/financial_', 'suffix': '.png'}, 'primary': True}]",,FR,,France,5a109d0abd40097145843d10,48.11328128,-1.60493796,AXA Assurance Jerome Naudin,35510,58daa1558bbb0b01f18ec1f1,Insurance Office,Bretagne
0,"[{'id': '58daa1558bbb0b01f18ec1f1', 'name': 'Insurance Office', 'pluralName': 'Insurance Offices', 'shortName': 'Insurance Office', 'icon': {'prefix': 'https://ss3.4sqi.net/img/categories_v2/shops/financial_', 'suffix': '.png'}, 'primary': True}]",,FR,,France,5a0ddd006f0aa20fbfa55dca,48.05108021,-1.50715128,AXA Assurance Lefilleul-Michaud,35410,58daa1558bbb0b01f18ec1f1,Insurance Office,Bretagne
1,"[{'id': '58daa1558bbb0b01f18ec1f1', 'name': 'Insurance Office', 'pluralName': 'Insurance Offices', 'shortName': 'Insurance Office', 'icon': {'prefix': 'https://ss3.4sqi.net/img/categories_v2/shops/financial_', 'suffix': '.png'}, 'primary': True}]",,FR,,France,5c701fe28ad62e002c2d9587,48.05316158,-1.51133053,MMA CHATEAUGIRON,35410,58daa1558bbb0b01f18ec1f1,Insurance Office,Bretagne
2,"[{'id': '503287a291d4c4b30a586d65', 'name': 'Financial or Legal Service', 'pluralName': 'Financial or Legal Services', 'shortName': 'Financial / Legal', 'icon': {'prefix': 'https://ss3.4sqi.net/img/categories_v2/shops/financial_', 'suffix': '.png'}, 'primary': True}]",,FR,,France,5c8bdcf6d1a402002ca83da8,48.047538,-1.50252,Assurance Chateaugiron Aviva,35410,503287a291d4c4b30a586d65,Financial or Legal Service,Bretagne
3,"[{'id': '58daa1558bbb0b01f18ec1f1', 'name': 'Insurance Office', 'pluralName': 'Insurance Offices', 'shortName': 'Insurance Office', 'icon': {'prefix': 'https://ss3.4sqi.net/img/categories_v2/shops/financial_', 'suffix': '.png'}, 'primary': True}]",,FR,,France,5c428ec91ffed7002ccef131,48.04766753,-1.50246657,Loncle Jean-Francois,35410,58daa1558bbb0b01f18ec1f1,Insurance Office,Bretagne
0,"[{'id': '503287a291d4c4b30a586d65', 'name': 'Financial or Legal Service', 'pluralName': 'Financial or Legal Services', 'shortName': 'Financial / Legal', 'icon': {'prefix': 'https://ss3.4sqi.net/img/categories_v2/shops/financial_', 'suffix': '.png'}, 'primary': True}]",,FR,,France,577b8a56498e47ab064ad4c0,48.648452,-2.007596,MACIF Assurances,35400,503287a291d4c4b30a586d65,Financial or Legal Service,Bretagne
1,"[{'id': '58daa1558bbb0b01f18ec1f1', 'name': 'Insurance Office', 'pluralName': 'Insurance Offices', 'shortName': 'Insurance Office', 'icon': {'prefix': 'https://ss3.4sqi.net/img/categories_v2/shops/financial_', 'suffix': '.png'}, 'primary': True}]",,FR,,France,5c6a560bf4b525002c067bc7,48.65767623,-1.98342597,MMA SAINT MALO PARAME,35404,58daa1558bbb0b01f18ec1f1,Insurance Office,Bretagne
2,"[{'id': '503287a291d4c4b30a586d65', 'name': 'Financial or Legal Service', 'pluralName': 'Financial or Legal Services', 'shortName': 'Financial / Legal', 'icon': {'prefix': 'https://ss3.4sqi.net/img/categories_v2/shops/financial_', 'suffix': '.png'}, 'primary': True}]",,FR,,France,5c8bdcf5cd441c002ccf0c62,48.645484,-2.008632,Assurance Saint Malo Aviva,35400,503287a291d4c4b30a586d65,Financial or Legal Service,Bretagne
3,"[{'id': '58daa1558bbb0b01f18ec1f1', 'name': 'Insurance Office', 'pluralName': 'Insurance Offices', 'shortName': 'Insurance Office', 'icon': {'prefix': 'https://ss3.4sqi.net/img/categories_v2/shops/financial_', 'suffix': '.png'}, 'primary': True}]",,FR,,France,5a0c76da4a7aae69061beb3b,48.6316,-2.0564991,AXA Assurance Ivan Erambour,35800,58daa1558bbb0b01f18ec1f1,Insurance Office,Bretagne
4,"[{'id': '58daa1558bbb0b01f18ec1f1', 'name': 'Insurance Office', 'pluralName': 'Insurance Offices', 'shortName': 'Insurance Office', 'icon': {'prefix': 'https://ss3.4sqi.net/img/categories_v2/shops/financial_', 'suffix': '.png'}, 'primary': True}]",,FR,,France,5c3b04a1bd4009002c7e4702,48.64550322,-2.0086822,De La Villéon Olivier,35400,58daa1558bbb0b01f18ec1f1,Insurance Office,Bretagne
5,"[{'id': '58daa1558bbb0b01f18ec1f1', 'name': 'Insurance Office', 'pluralName': 'Insurance Offices', 'shortName': 'Insurance Office', 'icon': {'prefix': 'https://ss3.4sqi.net/img/categories_v2/shops/financial_', 'suffix': '.png'}, 'primary': True}]",,FR,,France,5a0dac01fdb9a71c4863e511,48.65085342,-2.0079251,AXA Assurance Frederic Beyer,35400,58daa1558bbb0b01f18ec1f1,Insurance Office,Bretagne
6,"[{'id': '58daa1558bbb0b01f18ec1f1', 'name': 'Insurance Office', 'pluralName': 'Insurance Offices', 'shortName': 'Insurance Office', 'icon': {'prefix': 'https://ss3.4sqi.net/img/categories_v2/shops/financial_', 'suffix': '.png'}, 'primary': True}]",,FR,,France,5c6a3c79829b0c002c66c994,48.63144561,-2.05535776,MMA Dinard,35800,58daa1558bbb0b01f18ec1f1,Insurance Office,Bretagne
7,"[{'id': '58daa1558bbb0b01f18ec1f1', 'name': 'Insurance Office', 'pluralName': 'Insurance Offices', 'shortName': 'Insurance Office', 'icon': {'prefix': 'https://ss3.4sqi.net/img/categories_v2/shops/financial_', 'suffix': '.png'}, 'primary': True}]",,FR,,France,5ab1830812138442f9e474fa,48.63925263,-2.01749726,AXA Assurance PASCAL GALODE,35400,58daa1558bbb0b01f18ec1f1,Insurance Office,Bretagne
8,"[{'id': '58daa1558bbb0b01f18ec1f1', 'name': 'Insurance Office', 'pluralName': 'Insurance Offices', 'shortName': 'Insurance Office', 'icon': {'prefix': 'https://ss3.4sqi.net/img/categories_v2/shops/financial_', 'suffix': '.png'}, 'primary': True}]",,FR,,France,5ad28209ee712066bb61ff73,48.65769976,-1.98339196,MMA Saint Malo Parame,35404,58daa1558bbb0b01f18ec1f1,Insurance Office,Bretagne
9,"[{'id': '58daa1558bbb0b01f18ec1f1', 'name': 'Insurance Office', 'pluralName': 'Insurance Offices', 'shortName': 'Insurance Office', 'icon': {'prefix': 'https://ss3.4sqi.net/img/categories_v2/shops/financial_', 'suffix': '.png'}, 'primary': True}]",,FR,,France,5c6fb82bf1fdaf0039132345,48.63599334,-2.01427965,MMA SAINT MALO SAINT SERVAN,35413,58daa1558bbb0b01f18ec1f1,Insurance Office,Bretagne
10,"[{'id': '58daa1558bbb0b01f18ec1f1', 'name': 'Insurance Office', 'pluralName': 'Insurance Offices', 'shortName': 'Insurance Office', 'icon': {'prefix': 'https://ss3.4sqi.net/img/categories_v2/shops/financial_', 'suffix': '.png'}, 'primary': True}]",,FR,,France,5a12cec5c21cb15b781c4319,48.64499809,-2.00883093,AXA Assurance Yannick De Charette De La Contrie,35400,58daa1558bbb0b01f18ec1f1,Insurance Office,Bretagne
0,"[{'id': '58daa1558bbb0b01f18ec1f1', 'name': 'Insurance Office', 'pluralName': 'Insurance Offices', 'shortName': 'Insurance Office', 'icon': {'prefix': 'https://ss3.4sqi.net/img/categories_v2/shops/financial_', 'suffix': '.png'}, 'primary': True}]",,FR,,France,5a10d8621543c72d45fbab69,48.04548028,-1.60173953,AXA Assurance LEFILLEUL-MICHAUD,35770,58daa1558bbb0b01f18ec1f1,Insurance Office,Bretagne
0,"[{'id': '58daa1558bbb0b01f18ec1f1', 'name': 'Insurance Office', 'pluralName': 'Insurance Offices', 'shortName': 'Insurance Office', 'icon': {'prefix': 'https://ss3.4sqi.net/img/categories_v2/shops/financial_', 'suffix': '.png'}, 'primary': True}]",,FR,,France,4d274e383c7954817873c39b,48.18209682,-1.63472435,AXA Assurance Gallier Gallier Adjutor,35830,58daa1558bbb0b01f18ec1f1,Insurance Office,Bretagne
0,"[{'id': '503287a291d4c4b30a586d65', 'name': 'Financial or Legal Service', 'pluralName': 'Financial or Legal Services', 'shortName': 'Financial / Legal', 'icon': {'prefix': 'https://ss3.4sqi.net/img/categories_v2/shops/financial_', 'suffix': '.png'}, 'primary': True}]",,FR,,France,577c68f6498e9e03da9b3bd5,48.45416,-2.051925,MACIF Assurances,22100,503287a291d4c4b30a586d65,Financial or Legal Service,Bretagne
1,"[{'id': '58daa1558bbb0b01f18ec1f1', 'name': 'Insurance Office', 'pluralName': 'Insurance Offices', 'shortName': 'Insurance Office', 'icon': {'prefix': 'https://ss3.4sqi.net/img/categories_v2/shops/financial_', 'suffix': '.png'}, 'primary': True}]",,FR,,France,5a0c8c4d3149b93aaadf62f9,48.44731777,-2.08264128,AXA Assurance Mounier.street,22100,58daa1558bbb0b01f18ec1f1,Insurance Office,Bretagne
2,"[{'id': '58daa1558bbb0b01f18ec1f1', 'name': 'Insurance Office', 'pluralName': 'Insurance Offices', 'shortName': 'Insurance Office', 'icon': {'prefix': 'https://ss3.4sqi.net/img/categories_v2/shops/financial_', 'suffix': '.png'}, 'primary': True}]",,FR,,France,5a0c910f112c6c185e1122d0,48.46210888,-2.0464335,AXA Assurance Mounier.street,22100,58daa1558bbb0b01f18ec1f1,Insurance Office,Bretagne
3,"[{'id': '58daa1558bbb0b01f18ec1f1', 'name': 'Insurance Office', 'pluralName': 'Insurance Offices', 'shortName': 'Insurance Office', 'icon': {'prefix': 'https://ss3.4sqi.net/img/categories_v2/shops/financial_', 'suffix': '.png'}, 'primary': True}]",,FR,,France,5c6997af0802d4002c36a17c,48.45618125,-2.05761085,MMA DINAN,22100,58daa1558bbb0b01f18ec1f1,Insurance Office,Bretagne
4,"[{'id': '58daa1558bbb0b01f18ec1f1', 'name': 'Insurance Office', 'pluralName': 'Insurance Offices', 'shortName': 'Insurance Office', 'icon': {'prefix': 'https://ss3.4sqi.net/img/categories_v2/shops/financial_', 'suffix': '.png'}, 'primary': True}]",,FR,,France,5a0e3d0912c8f05c2f871f27,48.45248044,-2.06024387,AXA Assurance Thierry Hamon,22100,58daa1558bbb0b01f18ec1f1,Insurance Office,Bretagne
5,"[{'id': '503287a291d4c4b30a586d65', 'name': 'Financial or Legal Service', 'pluralName': 'Financial or Legal Services', 'shortName': 'Financial / Legal', 'icon': {'prefix': 'https://ss3.4sqi.net/img/categories_v2/shops/financial_', 'suffix': '.png'}, 'primary': True}]",,FR,,France,5c8bab9a66f3cd002cebdd8a,48.45644,-2.049917,Assurance Dinan Aviva,22100,503287a291d4c4b30a586d65,Financial or Legal Service,Bretagne
6,"[{'id': '58daa1558bbb0b01f18ec1f1', 'name': 'Insurance Office', 'pluralName': 'Insurance Offices', 'shortName': 'Insurance Office', 'icon': {'prefix': 'https://ss3.4sqi.net/img/categories_v2/shops/financial_', 'suffix': '.png'}, 'primary': True}]",,FR,,France,5a7b517aa9e4020791f70ac6,48.45507024,-2.06322833,AXA Assurance CHRISTOPHE ZELCER,22100,58daa1558bbb0b01f18ec1f1,Insurance Office,Bretagne
0,"[{'id': '503287a291d4c4b30a586d65', 'name': 'Financial or Legal Service', 'pluralName': 'Financial or Legal Services', 'shortName': 'Financial / Legal', 'icon': {'prefix': 'https://ss3.4sqi.net/img/categories_v2/shops/financial_', 'suffix': '.png'}, 'primary': True}]",,FR,,France,577b8d0f498e9c00ba66b758,48.123875,-1.207587,MACIF Assurances,35500,503287a291d4c4b30a586d65,Financial or Legal Service,Bretagne
1,"[{'id': '58daa1558bbb0b01f18ec1f1', 'name': 'Insurance Office', 'pluralName': 'Insurance Offices', 'shortName': 'Insurance Office', 'icon': {'prefix': 'https://ss3.4sqi.net/img/categories_v2/shops/financial_', 'suffix': '.png'}, 'primary': True}]",,FR,,France,5a0ca6a9d3cce87e1a9ee9ec,48.12376539,-1.20241904,AXA Assurance De Bury-de Bury,35500,58daa1558bbb0b01f18ec1f1,Insurance Office,Bretagne
2,"[{'id': '503287a291d4c4b30a586d65', 'name': 'Financial or Legal Service', 'pluralName': 'Financial or Legal Services', 'shortName': 'Financial / Legal', 'icon': {'prefix': 'https://ss3.4sqi.net/img/categories_v2/shops/financial_', 'suffix': '.png'}, 'primary': True}]",,FR,,France,5c8bdcf63b830700398f0539,48.124102,-1.209637,Assurance Vitre Aviva,35500,503287a291d4c4b30a586d65,Financial or Legal Service,Bretagne
3,"[{'id': '58daa1558bbb0b01f18ec1f1', 'name': 'Insurance Office', 'pluralName': 'Insurance Offices', 'shortName': 'Insurance Office', 'icon': {'prefix': 'https://ss3.4sqi.net/img/categories_v2/shops/financial_', 'suffix': '.png'}, 'primary': True}]",,FR,,France,5a12cab1aa6c955e78b13627,48.14928889,-1.26086746,AXA Assurance PIERRE Jean Lebry,35500,58daa1558bbb0b01f18ec1f1,Insurance Office,Bretagne
4,"[{'id': '58daa1558bbb0b01f18ec1f1', 'name': 'Insurance Office', 'pluralName': 'Insurance Offices', 'shortName': 'Insurance Office', 'icon': {'prefix': 'https://ss3.4sqi.net/img/categories_v2/shops/financial_', 'suffix': '.png'}, 'primary': True}]",,FR,,France,5c640f7b51950e002cdc77d6,48.11188731,-1.20508389,MMA VITRE,35501,58daa1558bbb0b01f18ec1f1,Insurance Office,Bretagne
0,"[{'id': '58daa1558bbb0b01f18ec1f1', 'name': 'Insurance Office', 'pluralName': 'Insurance Offices', 'shortName': 'Insurance Office', 'icon': {'prefix': 'https://ss3.4sqi.net/img/categories_v2/shops/financial_', 'suffix': '.png'}, 'primary': True}]",,FR,,France,5a12d2e912c8f05c2f659892,48.18130481,-1.94461201,AXA Assurance YVES TUAL,35137,58daa1558bbb0b01f18ec1f1,Insurance Office,Bretagne
1,"[{'id': '58daa1558bbb0b01f18ec1f1', 'name': 'Insurance Office', 'pluralName': 'Insurance Offices', 'shortName': 'Insurance Office', 'icon': {'prefix': 'https://ss3.4sqi.net/img/categories_v2/shops/financial_', 'suffix': '.png'}, 'primary': True}]",,FR,,France,5a0d9134b6b04b6ef11c12c3,48.13746128,-1.95491499,AXA Assurance MARMOL-MARMOL,35160,58daa1558bbb0b01f18ec1f1,Insurance Office,Bretagne
0,"[{'id': '503287a291d4c4b30a586d65', 'name': 'Financial or Legal Service', 'pluralName': 'Financial or Legal Services', 'shortName': 'Financial / Legal', 'icon': {'prefix': 'https://ss3.4sqi.net/img/categories_v2/shops/financial_', 'suffix': '.png'}, 'primary': True}]",,FR,,France,577b8c61498e7b1d7e615e29,48.356137,-1.200317,MACIF Assurances,35300,503287a291d4c4b30a586d65,Financial or Legal Service,Bretagne
1,"[{'id': '58daa1558bbb0b01f18ec1f1', 'name': 'Insurance Office', 'pluralName': 'Insurance Offices', 'shortName': 'Insurance Office', 'icon': {'prefix': 'https://ss3.4sqi.net/img/categories_v2/shops/financial_', 'suffix': '.png'}, 'primary': True}]",,FR,,France,546b1bd4498ed8f46ddd0d56,48.35217738,-1.19913668,AXA Assurance Montigne Blondeau,35300,58daa1558bbb0b01f18ec1f1,Insurance Office,Bretagne
2,"[{'id': '503287a291d4c4b30a586d65', 'name': 'Financial or Legal Service', 'pluralName': 'Financial or Legal Services', 'shortName': 'Financial / Legal', 'icon': {'prefix': 'https://ss3.4sqi.net/img/categories_v2/shops/financial_', 'suffix': '.png'}, 'primary': True}]",,FR,,France,5c8bdcf41f8ed6002c755a75,48.35201,-1.198597,Assurance Fougeres Aviva,35300,503287a291d4c4b30a586d65,Financial or Legal Service,Bretagne
3,"[{'id': '58daa1558bbb0b01f18ec1f1', 'name': 'Insurance Office', 'pluralName': 'Insurance Offices', 'shortName': 'Insurance Office', 'icon': {'prefix': 'https://ss3.4sqi.net/img/categories_v2/shops/financial_', 'suffix': '.png'}, 'primary': True}]",,FR,,France,5c641136121384002c2d67a5,48.35215037,-1.2024462,MMA FOUGERES LARIBOISIERE,35300,58daa1558bbb0b01f18ec1f1,Insurance Office,Bretagne
4,"[{'id': '58daa1558bbb0b01f18ec1f1', 'name': 'Insurance Office', 'pluralName': 'Insurance Offices', 'shortName': 'Insurance Office', 'icon': {'prefix': 'https://ss3.4sqi.net/img/categories_v2/shops/financial_', 'suffix': '.png'}, 'primary': True}]",,FR,,France,5c71b259840fc2002cad9dd6,48.35022345,-1.19628781,MMA FOUGERES REPUBLIQUE,35300,58daa1558bbb0b01f18ec1f1,Insurance Office,Bretagne
5,"[{'id': '58daa1558bbb0b01f18ec1f1', 'name': 'Insurance Office', 'pluralName': 'Insurance Offices', 'shortName': 'Insurance Office', 'icon': {'prefix': 'https://ss3.4sqi.net/img/categories_v2/shops/financial_', 'suffix': '.png'}, 'primary': True}]",,FR,,France,54d230df498ef64d79048cca,48.35605224,-1.18631143,AXA Assurance Yvan Miroux,35300,58daa1558bbb0b01f18ec1f1,Insurance Office,Bretagne
6,"[{'id': '58daa1558bbb0b01f18ec1f1', 'name': 'Insurance Office', 'pluralName': 'Insurance Offices', 'shortName': 'Insurance Office', 'icon': {'prefix': 'https://ss3.4sqi.net/img/categories_v2/shops/financial_', 'suffix': '.png'}, 'primary': True}]",,FR,,France,5a0ddd7c2347246f18c7e9db,48.352348,-1.227117,AXA Assurance JEROME NAUDIN,35133,58daa1558bbb0b01f18ec1f1,Insurance Office,Bretagne
0,"[{'id': '58daa1558bbb0b01f18ec1f1', 'name': 'Insurance Office', 'pluralName': 'Insurance Offices', 'shortName': 'Insurance Office', 'icon': {'prefix': 'https://ss3.4sqi.net/img/categories_v2/shops/financial_', 'suffix': '.png'}, 'primary': True}]",,FR,,France,5a0ca11a1de7656d7d8b5201,48.67593104,-1.85302816,AXA Assurance FREDERIC BEYER,35260,58daa1558bbb0b01f18ec1f1,Insurance Office,Bretagne
1,"[{'id': '58daa1558bbb0b01f18ec1f1', 'name': 'Insurance Office', 'pluralName': 'Insurance Offices', 'shortName': 'Insurance Office', 'icon': {'prefix': 'https://ss3.4sqi.net/img/categories_v2/shops/financial_', 'suffix': '.png'}, 'primary': True}]",,FR,,France,5c640f6866fc65002ce4717c,48.67613229,-1.8531905,MMA CANCALE,35260,58daa1558bbb0b01f18ec1f1,Insurance Office,Bretagne
0,"[{'id': '58daa1558bbb0b01f18ec1f1', 'name': 'Insurance Office', 'pluralName': 'Insurance Offices', 'shortName': 'Insurance Office', 'icon': {'prefix': 'https://ss3.4sqi.net/img/categories_v2/shops/financial_', 'suffix': '.png'}, 'primary': True}]",,FR,,France,5a10d857d0a1494ae8018496,48.52215203,-2.23667951,AXA Assurance Patrick Barraux,22130,58daa1558bbb0b01f18ec1f1,Insurance Office,Bretagne
1,"[{'id': '503287a291d4c4b30a586d65', 'name': 'Financial or Legal Service', 'pluralName': 'Financial or Legal Services', 'shortName': 'Financial / Legal', 'icon': {'prefix': 'https://ss3.4sqi.net/img/categories_v2/shops/financial_', 'suffix': '.png'}, 'primary': True}]",,FR,,France,5c8bab99de3bbf002c1a792c,48.5311,-2.26848,Assurance PLANCOET Aviva,22130,503287a291d4c4b30a586d65,Financial or Legal Service,Bretagne
2,"[{'id': '58daa1558bbb0b01f18ec1f1', 'name': 'Insurance Office', 'pluralName': 'Insurance Offices', 'shortName': 'Insurance Office', 'icon': {'prefix': 'https://ss3.4sqi.net/img/categories_v2/shops/financial_', 'suffix': '.png'}, 'primary': True}]",,FR,,France,5c6c143f4ac28a002b81a66c,48.51217819,-2.217544,MMA Plancoët,22130,58daa1558bbb0b01f18ec1f1,Insurance Office,Bretagne
0,"[{'id': '58daa1558bbb0b01f18ec1f1', 'name': 'Insurance Office', 'pluralName': 'Insurance Offices', 'shortName': 'Insurance Office', 'icon': {'prefix': 'https://ss3.4sqi.net/img/categories_v2/shops/financial_', 'suffix': '.png'}, 'primary': True}]",,FR,,France,5a0dd223a4ba7c5f7fb130eb,48.20108083,-2.04718638,AXA Assurance MARMOL-MARMOL,35360,58daa1558bbb0b01f18ec1f1,Insurance Office,Bretagne
0,"[{'id': '58daa1558bbb0b01f18ec1f1', 'name': 'Insurance Office', 'pluralName': 'Insurance Offices', 'shortName': 'Insurance Office', 'icon': {'prefix': 'https://ss3.4sqi.net/img/categories_v2/shops/financial_', 'suffix': '.png'}, 'primary': True}]",,FR,,France,5c699ecb029a55002cc492dd,47.9604402,-1.49630406,MMA Janzé,35150,58daa1558bbb0b01f18ec1f1,Insurance Office,Bretagne
1,"[{'id': '58daa1558bbb0b01f18ec1f1', 'name': 'Insurance Office', 'pluralName': 'Insurance Offices', 'shortName': 'Insurance Office', 'icon': {'prefix': 'https://ss3.4sqi.net/img/categories_v2/shops/financial_', 'suffix': '.png'}, 'primary': True}]",,FR,,France,5a0ec357898bdc199ca9f929,47.96035716,-1.49638802,AXA Assurance Lefilleul-Michaud,35150,58daa1558bbb0b01f18ec1f1,Insurance Office,Bretagne
0,"[{'id': '58daa1558bbb0b01f18ec1f1', 'name': 'Insurance Office', 'pluralName': 'Insurance Offices', 'shortName': 'Insurance Office', 'icon': {'prefix': 'https://ss3.4sqi.net/img/categories_v2/shops/financial_', 'suffix': '.png'}, 'primary': True}]",,FR,,France,5a113c7f64c8e115939e9b13,48.29536152,-1.80284248,AXA Assurance PLOUVIER-DE LORGERIL,35630,58daa1558bbb0b01f18ec1f1,Insurance Office,Bretagne
0,"[{'id': '58daa1558bbb0b01f18ec1f1', 'name': 'Insurance Office', 'pluralName': 'Insurance Offices', 'shortName': 'Insurance Office', 'icon': {'prefix': 'https://ss3.4sqi.net/img/categories_v2/shops/financial_', 'suffix': '.png'}, 'primary': True}]",,FR,,France,5c6a451f0802d4002c49213a,47.90515904,-2.1221818,MMA GUER,56380,58daa1558bbb0b01f18ec1f1,Insurance Office,Bretagne
1,"[{'id': '58daa1558bbb0b01f18ec1f1', 'name': 'Insurance Office', 'pluralName': 'Insurance Offices', 'shortName': 'Insurance Office', 'icon': {'prefix': 'https://ss3.4sqi.net/img/categories_v2/shops/financial_', 'suffix': '.png'}, 'primary': True}]",,FR,,France,5a0caed8e4c4590cfee66315,47.94277782,-2.13132029,AXA Assurance Alban Guillotin,56380,58daa1558bbb0b01f18ec1f1,Insurance Office,Bretagne
2,"[{'id': '58daa1558bbb0b01f18ec1f1', 'name': 'Insurance Office', 'pluralName': 'Insurance Offices', 'shortName': 'Insurance Office', 'icon': {'prefix': 'https://ss3.4sqi.net/img/categories_v2/shops/financial_', 'suffix': '.png'}, 'primary': True}]",,FR,,France,5a0eba7ac21cb15b788e622b,47.90279156,-2.11976271,AXA Assurance ALBAN GUILLOTIN,56380,58daa1558bbb0b01f18ec1f1,Insurance Office,Bretagne
0,"[{'id': '58daa1558bbb0b01f18ec1f1', 'name': 'Insurance Office', 'pluralName': 'Insurance Offices', 'shortName': 'Insurance Office', 'icon': {'prefix': 'https://ss3.4sqi.net/img/categories_v2/shops/financial_', 'suffix': '.png'}, 'primary': True}]",,FR,,France,5c6f85b7f1fdaf0039e8d852,48.0238186,-1.74630766,MMA BRUZ,35170,58daa1558bbb0b01f18ec1f1,Insurance Office,Bretagne
1,"[{'id': '503287a291d4c4b30a586d65', 'name': 'Financial or Legal Service', 'pluralName': 'Financial or Legal Services', 'shortName': 'Financial / Legal', 'icon': {'prefix': 'https://ss3.4sqi.net/img/categories_v2/shops/financial_', 'suffix': '.png'}, 'primary': True}]",,FR,,France,5c8bdcf58c35dc002cb7701a,47.967414,-1.795558,Assurance Guichen Aviva,35580,503287a291d4c4b30a586d65,Financial or Legal Service,Bretagne
2,"[{'id': '58daa1558bbb0b01f18ec1f1', 'name': 'Insurance Office', 'pluralName': 'Insurance Offices', 'shortName': 'Insurance Office', 'icon': {'prefix': 'https://ss3.4sqi.net/img/categories_v2/shops/financial_', 'suffix': '.png'}, 'primary': True}]",,FR,,France,5a12786d6f0aa20fbf838a89,47.96794098,-1.79579426,AXA Assurance DANY CARON,35580,58daa1558bbb0b01f18ec1f1,Insurance Office,Bretagne
3,"[{'id': '58daa1558bbb0b01f18ec1f1', 'name': 'Insurance Office', 'pluralName': 'Insurance Offices', 'shortName': 'Insurance Office', 'icon': {'prefix': 'https://ss3.4sqi.net/img/categories_v2/shops/financial_', 'suffix': '.png'}, 'primary': True}]",,FR,,France,5a1041d7fd16bb7fd7c38f46,48.03031377,-1.76001286,AXA Assurance DANY CARON,35170,58daa1558bbb0b01f18ec1f1,Insurance Office,Bretagne
0,"[{'id': '58daa1558bbb0b01f18ec1f1', 'name': 'Insurance Office', 'pluralName': 'Insurance Offices', 'shortName': 'Insurance Office', 'icon': {'prefix': 'https://ss3.4sqi.net/img/categories_v2/shops/financial_', 'suffix': '.png'}, 'primary': True}]",,FR,,France,5a0c99858b98fd70845365c3,48.07245044,-1.84891032,AXA Assurance Rougerie-Gapihan,35310,58daa1558bbb0b01f18ec1f1,Insurance Office,Bretagne
1,"[{'id': '58daa1558bbb0b01f18ec1f1', 'name': 'Insurance Office', 'pluralName': 'Insurance Offices', 'shortName': 'Insurance Office', 'icon': {'prefix': 'https://ss3.4sqi.net/img/categories_v2/shops/financial_', 'suffix': '.png'}, 'primary': True}]",,FR,,France,5a0bc7996cf01a0b5efbe031,48.09946854,-1.79112198,AXA Assurance Michel Trocherie,35650,58daa1558bbb0b01f18ec1f1,Insurance Office,Bretagne
2,"[{'id': '58daa1558bbb0b01f18ec1f1', 'name': 'Insurance Office', 'pluralName': 'Insurance Offices', 'shortName': 'Insurance Office', 'icon': {'prefix': 'https://ss3.4sqi.net/img/categories_v2/shops/financial_', 'suffix': '.png'}, 'primary': True}]",,FR,,France,5c640f8bfe3740002c4dd98b,48.07227057,-1.84929594,MMA MORDELLES,35310,58daa1558bbb0b01f18ec1f1,Insurance Office,Bretagne
3,"[{'id': '58daa1558bbb0b01f18ec1f1', 'name': 'Insurance Office', 'pluralName': 'Insurance Offices', 'shortName': 'Insurance Office', 'icon': {'prefix': 'https://ss3.4sqi.net/img/categories_v2/shops/financial_', 'suffix': '.png'}, 'primary': True}]",,FR,,France,5a0dd14d491be71b435afd90,48.11905752,-1.75447422,AXA Assurance Guillemois Olivier,35132,58daa1558bbb0b01f18ec1f1,Insurance Office,Bretagne
0,"[{'id': '58daa1558bbb0b01f18ec1f1', 'name': 'Insurance Office', 'pluralName': 'Insurance Offices', 'shortName': 'Insurance Office', 'icon': {'prefix': 'https://ss3.4sqi.net/img/categories_v2/shops/financial_', 'suffix': '.png'}, 'primary': True}]",,FR,,France,5c64184da6031c002c537ed7,47.89083727,-1.98993701,MMA VAL D'ANAST,35330,58daa1558bbb0b01f18ec1f1,Insurance Office,Bretagne
0,"[{'id': '58daa1558bbb0b01f18ec1f1', 'name': 'Insurance Office', 'pluralName': 'Insurance Offices', 'shortName': 'Insurance Office', 'icon': {'prefix': 'https://ss3.4sqi.net/img/categories_v2/shops/financial_', 'suffix': '.png'}, 'primary': True}]",,FR,,France,5a0d90ce1543c72d453627ab,48.0019727,-2.09791051,AXA Assurance Alban Guillotin,35380,58daa1558bbb0b01f18ec1f1,Insurance Office,Bretagne
0,"[{'id': '58daa1558bbb0b01f18ec1f1', 'name': 'Insurance Office', 'pluralName': 'Insurance Offices', 'shortName': 'Insurance Office', 'icon': {'prefix': 'https://ss3.4sqi.net/img/categories_v2/shops/financial_', 'suffix': '.png'}, 'primary': True}]",,FR,,France,5a0be7c71755623dc739c3c2,48.21772281,-1.69364067,AXA Assurance MATHIEU LEFEUVRE,35520,58daa1558bbb0b01f18ec1f1,Insurance Office,Bretagne
0,"[{'id': '58daa1558bbb0b01f18ec1f1', 'name': 'Insurance Office', 'pluralName': 'Insurance Offices', 'shortName': 'Insurance Office', 'icon': {'prefix': 'https://ss3.4sqi.net/img/categories_v2/shops/financial_', 'suffix': '.png'}, 'primary': True}]",,FR,,France,5c6a797b35d3fc0039263346,48.31760216,-2.26030759,MMA Broons,22250,58daa1558bbb0b01f18ec1f1,Insurance Office,Bretagne
0,"[{'id': '58daa1558bbb0b01f18ec1f1', 'name': 'Insurance Office', 'pluralName': 'Insurance Offices', 'shortName': 'Insurance Office', 'icon': {'prefix': 'https://ss3.4sqi.net/img/categories_v2/shops/financial_', 'suffix': '.png'}, 'primary': True}]",,FR,,France,5a0c8b808264443d4bf084f8,48.55006219,-1.75374157,AXA Assurance Christian Picart,35120,58daa1558bbb0b01f18ec1f1,Insurance Office,Bretagne
1,"[{'id': '58daa1558bbb0b01f18ec1f1', 'name': 'Insurance Office', 'pluralName': 'Insurance Offices', 'shortName': 'Insurance Office', 'icon': {'prefix': 'https://ss3.4sqi.net/img/categories_v2/shops/financial_', 'suffix': '.png'}, 'primary': True}]",,FR,,France,5a3d50d9898bdc169a179844,48.55013541,-1.75368381,AXA Picart Christian Agent général,35120,58daa1558bbb0b01f18ec1f1,Insurance Office,Bretagne
1,"[{'id': '58daa1558bbb0b01f18ec1f1', 'name': 'Insurance Office', 'pluralName': 'Insurance Offices', 'shortName': 'Insurance Office', 'icon': {'prefix': 'https://ss3.4sqi.net/img/categories_v2/shops/financial_', 'suffix': '.png'}, 'primary': True}]",,FR,,France,5c3392cfbfc6d0002c60b9c9,48.05087104,-1.79391924,AXA Assurance Fouque Arnaud,35310,58daa1558bbb0b01f18ec1f1,Insurance Office,Bretagne
0,"[{'id': '58daa1558bbb0b01f18ec1f1', 'name': 'Insurance Office', 'pluralName': 'Insurance Offices', 'shortName': 'Insurance Office', 'icon': {'prefix': 'https://ss3.4sqi.net/img/categories_v2/shops/financial_', 'suffix': '.png'}, 'primary': True}]",,FR,,France,5a0ecd1a78782c1062ca1d1e,48.18991638,-2.19393537,AXA Assurance Tanguy Du Couedic,35290,58daa1558bbb0b01f18ec1f1,Insurance Office,Bretagne
0,"[{'id': '58daa1558bbb0b01f18ec1f1', 'name': 'Insurance Office', 'pluralName': 'Insurance Offices', 'shortName': 'Insurance Office', 'icon': {'prefix': 'https://ss3.4sqi.net/img/categories_v2/shops/financial_', 'suffix': '.png'}, 'primary': True}]",,FR,,France,5a0c0e8382a7503220530aed,48.28837865,-2.15530529,AXA Assurance EIRL MARCADE CHRISTIAN,22350,58daa1558bbb0b01f18ec1f1,Insurance Office,Bretagne
1,"[{'id': '58daa1558bbb0b01f18ec1f1', 'name': 'Insurance Office', 'pluralName': 'Insurance Offices', 'shortName': 'Insurance Office', 'icon': {'prefix': 'https://ss3.4sqi.net/img/categories_v2/shops/financial_', 'suffix': '.png'}, 'primary': True}]",,FR,,France,5a0d9c45b1ec1311731cf3ff,48.14767595,-1.77367499,AXA Assurance Vincent Besneux,35740,58daa1558bbb0b01f18ec1f1,Insurance Office,Bretagne
2,"[{'id': '58daa1558bbb0b01f18ec1f1', 'name': 'Insurance Office', 'pluralName': 'Insurance Offices', 'shortName': 'Insurance Office', 'icon': {'prefix': 'https://ss3.4sqi.net/img/categories_v2/shops/financial_', 'suffix': '.png'}, 'primary': True}]",,FR,,France,5a9161a0c824ae5f72d1b19d,48.14468426,-1.77040347,Agence Allianz Pacé,35740,58daa1558bbb0b01f18ec1f1,Insurance Office,Bretagne
0,"[{'id': '52f2ab2ebcbc57f1066b8b57', 'name': 'Recruiting Agency', 'pluralName': 'Recruiting Agencies', 'shortName': 'Recruiting Agency', 'icon': {'prefix': 'https://ss3.4sqi.net/img/categories_v2/building/default_', 'suffix': '.png'}, 'primary': True}]",,FR,,France,5c88d5080868a2002cd7acb0,48.13007,-1.677441,Groupe Actual Rennes,35700,52f2ab2ebcbc57f1066b8b57,Recruiting Agency,Bretagne
1,"[{'id': '52f2ab2ebcbc57f1066b8b57', 'name': 'Recruiting Agency', 'pluralName': 'Recruiting Agencies', 'shortName': 'Recruiting Agency', 'icon': {'prefix': 'https://ss3.4sqi.net/img/categories_v2/building/default_', 'suffix': '.png'}, 'primary': True}]",,FR,,France,5b69f52e64c8e10033c2b03a,48.10977636,-1.67134781,Abalone Agence d'Emploi Rennes,35000,52f2ab2ebcbc57f1066b8b57,Recruiting Agency,Bretagne
2,"[{'id': '52f2ab2ebcbc57f1066b8b57', 'name': 'Recruiting Agency', 'pluralName': 'Recruiting Agencies', 'shortName': 'Recruiting Agency', 'icon': {'prefix': 'https://ss3.4sqi.net/img/categories_v2/building/default_', 'suffix': '.png'}, 'primary': True}]",,FR,,France,5a788d521cf2e17483ced4ce,48.08773558,-1.67361879,Start'Air,35203,52f2ab2ebcbc57f1066b8b57,Recruiting Agency,Bretagne
